{
	"type": "FeatureCollection",
	"features": [
		{"geometry":{"coordinates":[0.05588,51.51501],"type":"Point"},"properties":{"_source":"warm_welcome","address":"1 Kingsford Way, Newham, London E6 5JQ","description":" Drop by to join in our free activities whilst you keep warm.","hours":"Mo 10:00-08:00, Tu 10:00-08:00, We 10:00-08:00, Th 10:00-08:00, Fr 10:00-08:00, Sa 10:00-08:00","title":"Beckton Globe Library"},"type":"Feature"},
		{"geometry":{"coordinates":[0.01044,51.51683],"type":"Point"},"properties":{"_source":"warm_welcome","address":"18 Rathbone Market, Newham, London E16 1EH","description":" Drop by to join in our free activities whilst you keep warm.","hours":"Mo 09:00-20:00, Tu 09:00-20:00, We 09:00-20:00, Th 09:00-20:00, Fr 09:00-20:00, Sa 09:00-20:00","title":"Canning Town Library"},"type":"Feature"},
		{"geometry":{"coordinates":[0.03148,51.51454],"type":"Point"},"properties":{"_source":"warm_welcome","address":"Prince Regent Lane, Newham, London E16 3JJ","description":" Drop by to join in our free activities whilst you keep warm.","hours":"Mo 10:00-20:00, Tu 10:00-20:00, We 10:00-20:00, Th 10:00-20:00, Fr 10:00-20:00, Sa 10:00-20:00","title":"Custom House Library"},"type":"Feature"},
		{"geometry":{"coordinates":[0.05696,51.53325],"type":"Point"},"properties":{"_source":"warm_welcome","address":"328 Barking Road, Newham, London E6 2RT","description":" Drop by to join in our free activities whilst you keep warm.","hours":"Mo 09:00-20:00, Tu 09:00-20:00, We 09:00-20:00, Th 09:00-20:00, Fr 09:00-20:00, Sa 09:00-20:00, Su 12:00-04:00","title":"East Ham Library"},"type":"Feature"},
		{"geometry":{"coordinates":[0.02506,51.54900],"type":"Point"},"properties":{"_source":"warm_welcome","address":"Woodgrange Road, Newham, London E7 0QH","description":" Drop by to join in our free activities whilst you keep warm.","hours":"Mo 09:00-20:00, Tu 09:00-20:00, We 09:00-20:00, Th 09:00-20:00, Fr 09:00-20:00, Sa 09:00-20:00","title":"Forest Gate Library"},"type":"Feature"}