{
	"type": "FeatureCollection",
	"features": [
		{"geometry":{"coordinates":[-5.07204,50.15517],"type":"Point"},"properties":{"_source":"warm_welcome","address":"All Saints Church, Killigrew Street, Falmouth, Cornwall TR11 3PN","description":" Open from 02/11/2022","hours":{"_text":"Wednesday: 13:30 - 16:30 / -","opening":"We 13:30-16:30"},"title":"All Saints Church & New Street Church"},"type":"Feature"},
		{"geometry":{"coordinates":[-5.17294,50.11684],"type":"Point"},"properties":{"_source":"warm_welcome","address":"W.I. Hall, Bowling Green, Constantine, Falmlouth, Cornwall TR11 5AP","description":"Open from last Monday each month. W.I. hall offering free hot drinks, soup and pudding, friendship and warm space once a month.","hours":{"_text":"Monday: 10:30 - 15:00 / - Monthly","opening":"Mo 10:30-15:00"},"title":"Constantine W.I."},"type":"Feature"},
		{"geometry":{"coordinates":[-5.07486,50.14904],"type":"Point"},"properties":{"_source":"warm_welcome","address":"Emmanuel Baptist Church, Western Terrace, Falmouth TR11 4QJ","description":"Open from Nov 14th 2022.","hours":{"_text":"Monday: 10:00 - 3:00","opening":"Mo 10:00-03:00"},"title":"Emmanuel Baptist Church"},"type":"Feature"},
		{"geometry":{"coordinates":[-5.08303,50.22431],"type":"Point"},"properties":{"_source":"warm_welcome","address":"The Hub Carnon Community Methodist Church , Carnon Downs , Truro TR3 6JY","description":"Open from 29 November . We have board games, newspapers and magazines ","hours":{"_text":"Tuesday: 10:00 - 13:00","opening":"Tu 10:00-13:00"},"title":"The Hub Carnon Community Methodist Church "},"type":"Feature"},
		{"geometry":{"coordinates":[-5.22412,50.23471],"type":"Point"},"properties":{"_source":"warm_welcome","address":"Middletons Row, Redruth, Cornwall TR15 1NH","description":"On Wednesdays we provide free hot sandwiches. Tea and Coffee free on Wednesdays and Fridays","hours":{"_text":"Wednesday: 10:00 - 13:00 / -, Friday: 10:00 - 12:00 / -","opening":"We 10:00-13:00; Fr 10:00-12:00"},"title":"The Salvation Army"},"type":"Feature"},
		{"geometry":{"coordinates":[-5.05143,50.26488],"type":"Point"},"properties":{"_source":"warm_welcome","address":"Truro Methodist Church, Union Place, Truro TR1 1EP","hours":{"_text":"Tuesday: 10:00 - 14:00 / -, Wednesday: 10:00 - 14:00 / -, Thursday: 10:00 - 15:30 / -, Friday: 10:00 - 14:00 / -","opening":"Tu 10:00-14:00; We 10:00-14:00; Th 10:00-15:30; Fr 10:00-14:00"},"title":"Truro Community Hub @ Truro Methodist"},"type":"Feature"},
		{"geometry":{"coordinates":[-5.07357,50.15403],"type":"Point"},"properties":{"_source":"warm_spaces","address":"The Loft, 46 Killigrew Street, Falmouth, England, TR11 3PP","hours":{"_text":""},"title":"The Loft","url":"https://www.lovefalmouth.org.uk"},"type":"Feature"},
		{"geometry":{"coordinates":[-5.07675,50.15122],"type":"Point"},"properties":{"_source":"warm_spaces","address":"All Saints Church, Killigrew Street, Falmouth, England, TR11 3PN","hours":{"_text":""},"title":"All Saints Church","url":"http://www.allsaintschurchfalmouth.co.uk"},"type":"Feature"}
	]
}
