{
	"type": "FeatureCollection",
	"features": [
		{"geometry":{"coordinates":[-1.53291,55.00306],"type":"Point"},"properties":{"_source":"warm_welcome","address":"Battle Hill Library, Coastway Shopping Forum, Wallsend NE28 9JE","description":"For the general public. Free hot drinks available during opening hoursâ€™: Services include books, magazines, newspapers, games and toys, free use of PCs and wifi, high chairs and bottle warmers.","hours":"Tu 09:00-13:00, Th 09:00-13:00, Sa 09:00-13:00","title":"Battle Hill Library"},"type":"Feature"},
		{"geometry":{"coordinates":[-1.55889,54.98474],"type":"Point"},"properties":{"_source":"warm_welcome","address":"Ambassador Hall, 3 Coutts Road, Walkergate, Newcastle upon Tyne NE6 4RB","description":"","hours":"Fr 13:00-17:00, Su 11:30-12:30","title":"Church of God"},"type":"Feature"},
		{"geometry":{"coordinates":[-1.53065,54.99115],"type":"Point"},"properties":{"_source":"warm_welcome","address":"The Well Bee-ing Hub & Cafe, 84 Park Road, Wallsend, Tyne and Wear NE28 6QY","hours":"Tu 08:00-17:00, We 08:00-17:00, Th 08:00-17:00, Fr 08:00-17:00, Sa 08:00-17:00","title":"Dreamshine Community Interest Company (Well Bee-ing Hub & Cafe)"},"type":"Feature"},
		{"geometry":{"coordinates":[-1.56548,55.02238],"type":"Point"},"properties":{"_source":"warm_welcome","address":"Whitfield Road, Forest Hall, Newcastle NE12 7LJ","description":"Open from Tuesday 1:11:22. Services include books, magazines, newspapers, games and toys, free use of PCs and Wifi, high chairs and bottle warmers. Free hot drinks available 9:00 -16:00 Tues and Thurs and 9:00-12:00 on Sat ","hours":"Tu 09:00-17:30, Th 09:00-17:30, Sa 09:00-13:00","title":"Forest Hall Library"},"type":"Feature"}