{
	"type": "FeatureCollection",
	"features": [
		{"geometry":{"coordinates":[-1.05215,54.53578],"type":"Point"},"properties":{"_source":"warm_welcome","address":"4 - 6 Westgate , Guisbrough , Cleveland TS14 6BA","description":"","hours":"Mo 09:00-06:00; Tu 09:00-16:00; We 09:00-16:00; Th 09:00-16:00; Fr 09:00-16:00","title":"Brickyard Bakery cic"},"type":"Feature"},
		{"geometry":{"coordinates":[-1.05200,54.53581],"type":"Point"},"properties":{"_source":"redcar_and_cleveland_council","address":"Brickyard Bakery, Westgate, Guisborough, TS14 6BA, United Kingdom","hours":"Mo 10:00-17:00; Tu 10:00-17:00; We 10:00-17:00; Th 10:00-17:00; Fr 10:00-17:00","title":"Brickyard Bakery","url":"https://www.redcar-cleveland.gov.uk/cost-of-living/warm-spaces/brickyard-bakery"},"type":"Feature"},
		{"geometry":{"coordinates":[-0.94627,54.56922],"type":"Point"},"properties":{"_source":"redcar_and_cleveland_council","address":"Freeborough Academy, Linden Road, Brotton, TS12 2SJ, United Kingdom","hours":"Tu 09:30-17:00; Th 09:30-17:00","title":"Brotton Library","url":"https://www.redcar-cleveland.gov.uk/cost-of-living/warm-spaces/brotton-library"},"type":"Feature"},
		{"geometry":{"coordinates":[-1.05414,54.53498],"type":"Point"},"properties":{"_source":"redcar_and_cleveland_council","address":"Guisborough Methodist Church, 67-69 Westgate, Guisborough, TS14 6AF, United Kingdom","hours":"Mo 10:00-12:00; Tu 10:00-12:00; We 10:00-12:00; Th 11:00-14:00; Fr 09:00-15:00","title":"Guisborough Methodist Church","url":"https://www.redcar-cleveland.gov.uk/cost-of-living-support/warm-spaces/guisborough-methodist-church"},"type":"Feature"},
		{"geometry":{"coordinates":[-0.88800,54.55373],"type":"Point"},"properties":{"_source":"redcar_and_cleveland_council","address":"Old Co-op, High Street, Loftus, TS13 4HW, United Kingdom","hours":"Mo 10:00-11:30; Tu 10:00-11:30; Th 12:30-14:00; Fr 10:00-11:30","title":"Hope Church East Cleveland","url":"https://www.redcar-cleveland.gov.uk/cost-of-living/warm-spaces/hope-church-east-cleveland"},"type":"Feature"},
		{"geometry":{"coordinates":[-0.88730,54.55342],"type":"Point"},"properties":{"_source":"redcar_and_cleveland_council","address":"Loftus Family Hub, 1 Hall Grounds, Loftus, TS13 4HJ, United Kingdom","hours":"Th 12:00-15:00","title":"Loftus Family Hub","url":"https://www.redcar-cleveland.gov.uk/cost-of-living-support/warm-spaces/loftus-family-hub"},"type":"Feature"},
		{"geometry":{"coordinates":[-0.88670,54.55258],"type":"Point"},"properties":{"_source":"redcar_and_cleveland_council","address":"Hall Grounds, Loftus, TS13 4HJ, United Kingdom","hours":"Th 10:00-17:00; Fr 10:00-17:00; Mo 09:00-17:00; We 10:00-16:00; Sa 09:00-12:30","title":"Loftus Library","url":"https://www.redcar-cleveland.gov.uk/cost-of-living/warm-spaces/loftus-library"},"type":"Feature"},
		{"geometry":{"coordinates":[-0.88549,54.55346],"type":"Point"},"properties":{"_source":"redcar_and_cleveland_council","address":"Loftus Town Hall, High Street, Loftus, TS13 4HG, United Kingdom","hours":"Mo 10:00-12:00","title":"Loftus Town Hall","url":"https://www.redcar-cleveland.gov.uk/cost-of-living/warm-spaces/loftus-town-hall"},"type":"Feature"},
		{"geometry":{"coordinates":[-0.98381,54.56130],"type":"Point"},"properties":{"_source":"redcar_and_cleveland_council","address":"Coniston Road, Skelton-in-Cleveland, TS12 2HP, United Kingdom","hours":"Mo 09:00-17:00; Tu 10:00-17:00; Th 10:00-16:00; Fr 10:00-17:00; Sa 09:30-12:30","title":"Skelton Library","url":"https://www.redcar-cleveland.gov.uk/cost-of-living/warm-spaces/skelton-library"},"type":"Feature"},
		{"geometry":{"coordinates":[-0.98930,54.56459],"type":"Point"},"properties":{"_source":"redcar_and_cleveland_council","address":"Skelton Youth &amp; Community Centre, De Brus Site, Marske Lane, Skelton, TS12 2HA, United Kingdom","hours":"Mo 12:00-16:30; Tu 10:00-16:30; Th 09:00-12:00","title":"Skelton Family Hub","url":"https://www.redcar-cleveland.gov.uk/cost-of-living/warm-spaces/skelton-family-hub"},"type":"Feature"}
	]
}
