{
	"type": "FeatureCollection",
	"features": [
		{"geometry":{"coordinates":[-1.02076,53.70663],"type":"Point"},"properties":{"_source":"warm_welcome","address":"Carlton Methodist Church , High Street, Carlton , Goole DN149LU","description":"Open from 08/11/2022.","hours":"Tu 13:00-15:00","title":"Carlton Methodist Church "},"type":"Feature"},
		{"geometry":{"coordinates":[-1.02784,53.59677],"type":"Point"},"properties":{"_source":"warm_welcome","address":"Stainforth Family Hub, Junction Road,, Stainforth,, Doncaster, DN7 5DH","description":"Families are welcome with children of all ages from conception, through childhood to adolescence and even older if your child has a special need. Doncaster Family Hubs are the 'place to go'. We work with other providers to offer a range of activities, services and information for you and your family. ","hours":"Mo 09:00-17:00; Tu 09:00-17:00; We 09:00-17:00; Th 09:00-17:00; Fr 09:00-16:00","title":"Doncaster Council, East Family Hubs"},"type":"Feature"},
		{"geometry":{"coordinates":[-0.87460,53.70708],"type":"Point"},"properties":{"_source":"warm_welcome","address":"Pasture Road, Goole, East Yorkshire DN14 6DP","description":"Open from 25-11-2022. We’re an adult only welcoming space. You can join us once a week for a morning of staying warm with coffee, tea, biscuits and socialising. Do you want to stay around for the full day? Then you’re welcome to join us for an optional afternoon of activities.","hours":"Fr 09:15-16:00","title":"Goole Adult Learning Centre"},"type":"Feature"},
		{"geometry":{"coordinates":[-0.86981,53.70378],"type":"Point"},"properties":{"_source":"warm_welcome","address":"Carlisle Street, Goole, East Riding of Yorkshire DN14 5DS","description":" East Riding libraries offer warm welcoming places, with comfy seating, books, games and jigsaws","hours":"Mo 09:30-19:00; Tu 09:30-17:00; We 09:30-19:00; Th 09:30-17:00; Fr 09:30-17:00; Sa 09:00-16:00","title":"Goole Library"},"type":"Feature"},
		{"geometry":{"coordinates":[-0.99658,53.57785],"type":"Point"},"properties":{"_source":"warm_welcome","address":"Hatfield Community Library High Street , Hatfield , Doncaster DN7 6RY","description":"","hours":"Mo 10:00-16:00; Tu 10:00-16:00; We 10:00-13:00; Th 10:00-17:00; Fr 09:30-15:00; Sa 10:00-12:00","title":"Hatfield Community Library "},"type":"Feature"},
		{"geometry":{"coordinates":[-0.86444,53.74440],"type":"Point"},"properties":{"_source":"warm_welcome","address":"69 Hailgate, Howden, East Riding of Yorkshire DN14 7SX","description":" East Riding libraries offer warm welcoming places, with comfy seating, books, games and jigsaws. Please check our website for service updates and any changes to our usual opening hours.","hours":"Mo 09:30-16:30; We 14:00-19:00; Fr 09:30-14:30; Sa 09:30-12:30","title":"Howden Centre"},"type":"Feature"},
		{"geometry":{"coordinates":[-1.02958,53.59348],"type":"Point"},"properties":{"_source":"warm_welcome","address":"Library Building, Stainforth, Doncaster DN7 5PW","description":" S4ALL is Stainforth and the DN7 area's own local charity. We employ four hard-working staff and a dedicated team of volunteers working on a variety of charitable projects.","hours":"Mo 10:00-15:00; Tu 10:00-15:00; Th 10:00-15:00; Fr 10:00-15:00; Sa 10:00-13:00","title":"S4ALL"},"type":"Feature"},
		{"geometry":{"coordinates":[-1.02958,53.59348],"type":"Point"},"properties":{"_source":"warm_welcome","address":"Stainforth Community Library, stainforth , Doncaster DN7 5PW","description":"Open from 24/10/2022. We are doing this for people of the age of 50 and over plus in the hours well children are at school We are a community library. we all have a community connector Rosie how can help get you physical activity ","hours":"Mo 10:00-15:00; Tu 10:00-15:00; Th 10:00-15:00; Fr 10:00-15:00; Sa 10:00-13:00","title":"Stainforth 4 All Library"},"type":"Feature"},
		{"geometry":{"coordinates":[-0.96338,53.61389],"type":"Point"},"properties":{"_source":"warm_welcome","address":"The Vermuyden Centre, Thorne, Doncaster DN8 4BQ","description":"","hours":"Mo 09:00-18:00; Tu 09:00-18:00; We 09:00-14:00; Th 09:00-18:00; Fr 09:00-18:00; Sa 09:00-13:00","title":"Thorne Library"},"type":"Feature"}
	]
}
