{
	"type": "FeatureCollection",
	"features": [
		{"geometry":{"coordinates":[-1.04458,52.64354],"type":"Point"},"properties":{"_source":"warm_welcome","address":"Church Hill, Scraptoft, Leicester LE7 9SN","description":"","hours":"Tu 10:00-12:00; Sa 10:00-12:00","title":"All Saints Church, Scraptoft"},"type":"Feature"},
		{"geometry":{"coordinates":[-0.70375,52.48697],"type":"Point"},"properties":{"_source":"warm_welcome","address":"Corby Library @ Corby Cube, Corby, Northants NN17 1QG","description":"","hours":"Mo 09:00-18:00; Tu 09:00-18:00; We 09:00-18:00; Th 09:00-18:00; Fr 09:00-18:00; Sa 09:00-17:00","title":"Corby Library"},"type":"Feature"},
		{"geometry":{"coordinates":[-1.04456,52.53515],"type":"Point"},"properties":{"_source":"warm_welcome","address":"Fleckney Baptist Church, High Street, Fleckney LE8 8AJ","description":"Open from 24-10-22. We also run a parent and toddler group on Thursday Mornings, 9am-10:30am","hours":"Fr 10:30-15:00; Su 10:30-12:00","title":"Fleckney Baptist Church"},"type":"Feature"},
		{"geometry":{"coordinates":[-0.99494,52.53739],"type":"Point"},"properties":{"_source":"warm_welcome","address":"Paget St, Kibworth Beauchamp , Leicestershire LE8 0HW","description":" Hot drinks are free to all. You don't have to be a member of the library but it's free to join if you want to.","hours":"Mo 14:00-18:00; Tu 10:00-13:00; We 14:00-17:00; Th 09:00-11:00; Fr 09:00-13:00; Sa 10:00-13:00","title":"Kibworth Community Library"},"type":"Feature"},
		{"geometry":{"coordinates":[-0.73291,52.67055],"type":"Point"},"properties":{"_source":"warm_welcome","address":"Melton Road, Oakham, Rutland LE15 6AY","description":"Open from 04/11/2022. We focus on all groups. Cafe has activities for young children and youth such as lego, table tennis, switch, pool and others 2pm for lunch and community followed by family cafe from 3 until 5 including games and refreshments. A space for all the family.","hours":"Fr 14:00-17:00","title":"Oakham Baptist Church"},"type":"Feature"},
		{"geometry":{"coordinates":[-0.72566,52.66889],"type":"Point"},"properties":{"_source":"warm_welcome","address":"Oakham Library, Catmos Street, Oakham, Rutland LE15 6HW","description":"","hours":"Mo 09:00-17:00; Tu 09:00-17:00; We 09:00-17:00; Th 09:00-17:00; Fr 09:00-17:00; Sa 09:00-13:00","title":"Oakham Library"},"type":"Feature"},
		{"geometry":{"coordinates":[-0.72064,52.58777],"type":"Point"},"properties":{"_source":"warm_welcome","address":"Uppingham Library, Queen Street, Uppingham, Rutland LE15 9QR","description":"","hours":"Tu 09:00-13:00; We 13:30-17:00; Fr 09:00-13:00; Sa 09:00-13:00","title":"Uppingham Library"},"type":"Feature"},
		{"geometry":{"coordinates":[-0.72291,52.58849],"type":"Point"},"properties":{"_source":"warm_welcome","address":"Orange Street, Uppingham, Rutland LE15 9SQ","description":"Open from 31-10-2022.","hours":"Mo 10:00-12:00; We 10:00-12:00","title":"Uppingham Methodist Church"},"type":"Feature"},
		{"geometry":{"coordinates":[-0.99683,52.53727],"type":"Point"},"properties":{"_source":"warm_welcome","address":"Kibworth Grammar School Hall (KGSH), Kibworth Beauchamp, Leicester LE8 0EW","description":"Our kitchen is for all comers! You are invited to enjoy our warm friendly space on Mondays 12 noon to 2pm. We will be serving a light lunch of home-made soup with refreshments. Voluntary donations invited. Currently we only expect to be open until 19 December","hours":"Mo 12:00-14:00","title":"Welcome Kitchen"},"type":"Feature"},
		{"geometry":{"coordinates":[-1.03903,52.57385],"type":"Point"},"properties":{"_source":"warm_spaces","address":"Church Road, Leicester, England, LE8 9FE","title":"St Cuthbert's Church","url":"https://www.ggbchurches.co.uk"},"type":"Feature"},
		{"geometry":{"coordinates":[-1.03354,52.57517],"type":"Point"},"properties":{"_source":"warm_spaces","address":"1 Church Road, Leicester, England, LE8 9FE","title":"Great Glen Parish Office","url":"https://www.greatglen-pc.gov.uk"},"type":"Feature"},
		{"geometry":{"coordinates":[-0.70450,52.48802],"type":"Point"},"properties":{"_source":"north_northamptonshire_council","address":"Corby Cube, George Street, Corby, NN17 1QG","hours":"Mo-Fr 09:00-18:00; Sa 09:00-17:00","title":"Corby Library"},"type":"Feature"},
		{"geometry":{"coordinates":[-0.72344,52.48725],"type":"Point"},"properties":{"_source":"north_northamptonshire_council","address":"Beanfield Avenue, Corby, NN18 0AX","hours":"Mo-Su 09:00-19:00","title":"Beanfield Centre"},"type":"Feature"}
	]
}
