{
	"type": "FeatureCollection",
	"features": [
		{"geometry":{"coordinates":[-0.84065,52.27233],"type":"Point"},"properties":{"_source":"warm_welcome","address":"Thorplands Community Hub, Farm Field close, Thorplands, Northamptonshire NN3 8AG","description":"We cater for adults but children are welcome with guardian The group is on every other Saturday, the next date is 18/12/22. You are welcome to simply come in and sit with a cuppa. ","hours":"Fr 09:45-11:30","title":"Arts, Crafts & Chat group (Emmanuel group of churches) "},"type":"Feature"},
		{"geometry":{"coordinates":[-0.72274,52.40028],"type":"Point"},"properties":{"_source":"warm_welcome","address":"27c Victoria Street, Kettering, Northants NN16 0BU","description":"","hours":"Fr 10:00-14:00","title":"Bonkers Playhoyse Theatre"},"type":"Feature"},
		{"geometry":{"coordinates":[-0.77529,52.37486],"type":"Point"},"properties":{"_source":"warm_welcome","address":"High Street, Broughton, Kettering NN14 1NF","description":"Open from 1st November 2022. There will be games and puzzles available","hours":"Tu 14:00-17:00","title":"Broughton Baptist Church"},"type":"Feature"},
		{"geometry":{"coordinates":[-0.81967,52.44288],"type":"Point"},"properties":{"_source":"warm_welcome","address":"Station Road , Desborough,Kettering, Northamptonshire NN142RL","description":"Open from 08-11-2022. We have an assortment of games {Dominos / Cards/ Connect4 } Free Phone charging","hours":"Tu 12:00-15:00","title":"Desborough Baptist Church"},"type":"Feature"},
		{"geometry":{"coordinates":[-0.80870,52.44279],"type":"Point"},"properties":{"_source":"warm_welcome","address":"Desborough Library, High Street, Desborough, Northamptonshire NN14 2QD","description":"We cater for everyone, with emphasis on children under 5 and retired people We run weekly children's activities on Wednesdays and Fridays, there is a Scrabble Club every Thursday and a monthly Book Discussion Group, plus weekly Knit and Natter on Tuesdays","hours":"Tu 09:30-16:00; We 09:30-16:00; Th 09:00-17:00; Fr 10:00-17:00; Sa 11:00-13:00","title":"Desborough Library and Community Hub"},"type":"Feature"},
		{"geometry":{"coordinates":[-0.91402,52.46598],"type":"Point"},"properties":{"_source":"warm_welcome","address":"Harborough Leisure Centre, Northampton Rd, Market Harborough, Leicestershire LE169HF","description":"Open from 08/11/22. Small children's activity/craft area","hours":"Mo 09:30-18:30; Tu 09:30-18:30; We 09:30-18:30; Th 09:30-18:30; Fr 09:30-18:30; Sa 08:00-15:30; Su 08:00-15:30","title":"Everyone Active"},"type":"Feature"},
		{"geometry":{"coordinates":[-0.84146,52.29042],"type":"Point"},"properties":{"_source":"warm_welcome","address":"Moulton Community Centre, Sandy Hill, Reedings, Moulton NN3 7AX","hours":"Mo 09:00-19:00; Tu 09:00-19:00; We 09:00-19:00; Th 09:00-19:00; Fr 09:00-19:00; Sa 09:00-17:00; Su 09:00-17:00","title":"Moulton Library - Health & Well-being Hub"},"type":"Feature"},
		{"geometry":{"coordinates":[-0.72430,52.40127],"type":"Point"},"properties":{"_source":"warm_welcome","address":"Eden Centre,21 Montague St,, Kettering, Northamptonshire NN16 8XG","description":"Our focus is for people who seek help with their wellbeing This is an existing group which provides a welcome to all adults. It is a place where you can be yourself. Whilst activities are available you do not need to take part","hours":"We 14:00-16:00","title":"Oasis Wellbeing Group (Open Door Church) "},"type":"Feature"},
		{"geometry":{"coordinates":[-0.72430,52.40127],"type":"Point"},"properties":{"_source":"warm_welcome","address":"Eden centre; 21 Montagu Street, Kettering, Northamptonshire NN16 8XG","description":"Open from Thursday 10th November.","hours":"Th 10:30-14:30","title":"Open Door Church"},"type":"Feature"},
		{"geometry":{"coordinates":[-0.82271,52.43947],"type":"Point"},"properties":{"_source":"warm_welcome","address":"Lower Street, Desborough, Northants NN14 2NP","description":"","hours":"We 10:00-16:00","title":"St Giles Community Centre"},"type":"Feature"},
		{"geometry":{"coordinates":[-0.90748,52.27512],"type":"Point"},"properties":{"_source":"warm_welcome","address":"St Mark's Church Hall, St Mark's Crescent, Whitehills, Northamptonshire NN2 8EG","description":"Open from 01-11-2022. Open to all before and after school pickup on Thursday afternoons.","hours":"Th 14:00-17:00","title":"St Mark's Church Hall"},"type":"Feature"},
		{"geometry":{"coordinates":[-0.79995,52.42261],"type":"Point"},"properties":{"_source":"warm_welcome","address":"Market Hill, Kettering, Northamptonshire NN114 6BW","description":"Open from 03/01/20223. There will be a play zone, space for crafts and activities, chatting, reading and quiet. ","hours":"Mo 09:00-18:30; Tu 09:00-18:30; We 09:00-18:30; Th 09:00-18:30; Fr 09:00-18:30; Sa 10:00-12:00; Su 10:00-12:00","title":"The Methodist Church"},"type":"Feature"}
	]
}
