{
	"type": "FeatureCollection",
	"features": [
		{"geometry":{"coordinates":[-0.91599,52.21510],"type":"Point"},"properties":{"_source":"warm_welcome","address":"10, Overslade Close, Northampton, Northamptonshire NN4 0RZ","description":"There is the potential for seniors to join the Monday lunch club, as well as use the warm space Whilst most attendees will be hosted in the lobby area, those needing to work will have access to another space","hours":"Mo 11:00-16:30","title":"Abbey Centre and Abbey Centre Baptist Church"},"type":"Feature"},
		{"geometry":{"coordinates":[-0.87382,52.24890],"type":"Point"},"properties":{"_source":"warm_welcome","address":"Abington Avenue United Reformed Church Abington Avenue , Northampton , Northamptonshire NN1 4QA","description":" Open from 01-11-22. 2 course set meal is available cost Â£5 booking in advance through church office 01604 604623","hours":"Fr 10:00-15:00","title":"Abington Avenue United Reformed Church "},"type":"Feature"},
		{"geometry":{"coordinates":[-0.94097,52.17726],"type":"Point"},"properties":{"_source":"warm_welcome","address":"Chapel Lane, Blisworth , Northamptonshire NN7 3 BU","description":" Community Cafe Tuesdays 10-12, Toddler group Fridays 10-12, Soup & Roll Fridays 12-2","hours":"Tu 09:30-14:00, Fr 10:00-14:00","title":"Blisworth Baptist Church"},"type":"Feature"},
		{"geometry":{"coordinates":[-0.86781,52.25781],"type":"Point"},"properties":{"_source":"warm_welcome","address":"Broadmead Community Church, Northampton, Northamptonshire NN3 2QY","description":" we also have a charger station to power up your phone","hours":"Mo 18:30-20:30, Tu 10:00-12:30, Th 10:00-12:30, Su 10:00-12:00","title":"Broadmead Community Church"},"type":"Feature"},
		{"geometry":{"coordinates":[-0.87126,52.25811],"type":"Point"},"properties":{"_source":"warm_welcome","address":"Park Avenue North, Northampton, Northamptonshire NN3 2HT","description":"Open from 15th November 2022.","hours":"Tu 10:00-15:00","title":"Northampton Methodist Church @ Park Avenue"},"type":"Feature"},
		{"geometry":{"coordinates":[-0.86939,52.25130],"type":"Point"},"properties":{"_source":"warm_welcome","address":"22 Park Avenue North, Northampton, Northamptonshire NN3 2HS","description":"Open from 14th November.","hours":"Mo 10:00-13:00, We 10:00-14:30","title":"Parish of St Gregory the Great"},"type":"Feature"},
		{"geometry":{"coordinates":[-0.86447,52.25859],"type":"Point"},"properties":{"_source":"warm_welcome","address":"Broadmead Avenue, Northampton, Northamptonshire NN3 2RA","description":"","hours":"Tu 19:00-20:30, We 09:00-12:00, Fr 09:00-12:00, Su 09:00-12:00","title":"Saint Alban the Martyr Church"},"type":"Feature"},
		{"geometry":{"coordinates":[-0.90102,52.23991],"type":"Point"},"properties":{"_source":"warm_welcome","address":"8 Tower Street, Northampton, Northamptonshire NN1 2SN","description":"Open from October . Please use entrance in Althorp Street.","hours":"Mo 10:00-13:00","title":"Salvation Army"},"type":"Feature"},
		{"geometry":{"coordinates":[-0.89015,52.26123],"type":"Point"},"properties":{"_source":"warm_welcome","address":"St David's Church, Eastern Avenue South, Northampton NN2 7QB","description":"Open from 22-10-2022. Wednesday - Warm welcome at Renew 88 group (Wellbeing) followed by soup lunch; Saturdays Community Cafe open to all","hours":"We 10:00-13:00, Sa 09:00-11:00","title":"St David's Church Hall"},"type":"Feature"},
		{"geometry":{"coordinates":[-0.90634,52.26092],"type":"Point"},"properties":{"_source":"warm_welcome","address":"The Green, Kingsthorpe, Northampton NN2 6QD","description":"Open from 01-11-2022. We are open for all, as a warm space with hot drinks for local community.","hours":"Tu 08:30-12:00","title":"St John the Baptist Church"},"type":"Feature"},
		{"geometry":{"coordinates":[-0.98513,52.13996],"type":"Point"},"properties":{"_source":"warm_welcome","address":"Tove Valley Centre, Towcester, Northamptonshire NN12 7AH","description":"Open from 04/11/2022. Wednesday Tots 9.30 to 10.45 for anyone looking after pre-school children, term time only. Friday afternoons 1pm to 3pm is tea/coffee & cake for older people All welcome Mondays 9am to 11am. Tea/coffee available. School Holidays, 'Breakfast Club' 8.30 to 10.30, food, drinks & activities for families with children. See social media for details about which days we are open each school holiday. ","hours":"Mo 09:00-11:00, We 09:30-10:45, Fr 13:00-15:00, Su 10:30-12:00","title":"Tove Valley Baptist Fellowship"},"type":"Feature"}
	]
}
