{
	"type": "FeatureCollection",
	"features": [
		{"geometry":{"coordinates":[-0.91599,52.21510],"type":"Point"},"properties":{"_source":"warm_welcome","address":"10, Overslade Close, Northampton, Northamptonshire NN4 0RZ","description":"There is the potential for seniors to join the Monday lunch club, as well as use the warm space Whilst most attendees will be hosted in the lobby area, those needing to work will have access to another space","hours":{"_text":"Monday: 11:00 - 16:30","opening":"Mo 11:00-16:30"},"title":"Abbey Centre and Abbey Centre Baptist Church"},"type":"Feature"},
		{"geometry":{"coordinates":[-0.87382,52.24890],"type":"Point"},"properties":{"_source":"warm_welcome","address":"Abington Avenue United Reformed Church Abington Avenue , Northampton , Northamptonshire NN1 4QA","description":" Open from 01-11-22. 2 course set meal is available cost £5 booking in advance through church office 01604 604623","hours":{"_text":"Friday: 10:00 - 15:00 / -","opening":"Fr 10:00-15:00"},"title":"Abington Avenue United Reformed Church "},"type":"Feature"},
		{"geometry":{"coordinates":[-0.94097,52.17726],"type":"Point"},"properties":{"_source":"warm_welcome","address":"Chapel Lane, Blisworth , Northamptonshire NN7 3 BU","description":" Community Cafe Tuesdays 10-12, Toddler group Fridays 10-12, Soup & Roll Fridays 12-2","hours":{"_text":"Tuesday: 09:30 - 14:00, Friday: 10:00 - 14:00","opening":"Tu 09:30-14:00; Fr 10:00-14:00"},"title":"Blisworth Baptist Church"},"type":"Feature"},
		{"geometry":{"coordinates":[-0.86781,52.25781],"type":"Point"},"properties":{"_source":"warm_welcome","address":"Broadmead Community Church, Northampton, Northamptonshire NN3 2QY","description":" we also have a charger station to power up your phone","hours":{"_text":"Monday: 18:30 - 20:30, Tuesday: 10:00 - 12:30, Thursday: 10:00 - 12:30, Sunday: 10:00 - 12:00","opening":"Mo 18:30-20:30; Tu 10:00-12:30; Th 10:00-12:30; Su 10:00-12:00"},"title":"Broadmead Community Church"},"type":"Feature"},
		{"geometry":{"coordinates":[-0.87126,52.25811],"type":"Point"},"properties":{"_source":"warm_welcome","address":"Park Avenue North, Northampton, Northamptonshire NN3 2HT","description":"Open from 15th November 2022.","hours":{"_text":"Tuesday: 10:00 - 15:00","opening":"Tu 10:00-15:00"},"title":"Northampton Methodist Church @ Park Avenue"},"type":"Feature"},
		{"geometry":{"coordinates":[-0.86939,52.25130],"type":"Point"},"properties":{"_source":"warm_welcome","address":"22 Park Avenue North, Northampton, Northamptonshire NN3 2HS","description":"Open from 14th November.","hours":{"_text":"Monday: 10:00 - 13:00, Wednesday: 10:00 - 14:30","opening":"Mo 10:00-13:00; We 10:00-14:30"},"title":"Parish of St Gregory the Great"},"type":"Feature"},
		{"geometry":{"coordinates":[-0.86447,52.25859],"type":"Point"},"properties":{"_source":"warm_welcome","address":"Broadmead Avenue, Northampton, Northamptonshire NN3 2RA","description":"","hours":{"_text":"Tuesday: 19:00 - 20:30, Wednesday: 09:00 - 12:00, Friday: 09:00 - 12:00, Sunday: 09:00 - 12:00","opening":"Tu 19:00-20:30; We 09:00-12:00; Fr 09:00-12:00; Su 09:00-12:00"},"title":"Saint Alban the Martyr Church"},"type":"Feature"},
		{"geometry":{"coordinates":[-0.90102,52.23991],"type":"Point"},"properties":{"_source":"warm_welcome","address":"8 Tower Street, Northampton, Northamptonshire NN1 2SN","description":"Open from October . Please use entrance in Althorp Street.","hours":{"_text":"Monday: 10:00 - 13:00","opening":"Mo 10:00-13:00"},"title":"Salvation Army"},"type":"Feature"},
		{"geometry":{"coordinates":[-0.89015,52.26123],"type":"Point"},"properties":{"_source":"warm_welcome","address":"St David's Church, Eastern Avenue South, Northampton NN2 7QB","description":"Open from 22-10-2022. Wednesday - Warm welcome at Renew 88 group (Wellbeing) followed by soup lunch; Saturdays Community Cafe open to all","hours":{"_text":"Wednesday: 10:00 - 13:00, Saturday: 09:00 - 11:00","opening":"We 10:00-13:00; Sa 09:00-11:00"},"title":"St David's Church Hall"},"type":"Feature"},
		{"geometry":{"coordinates":[-0.90634,52.26092],"type":"Point"},"properties":{"_source":"warm_welcome","address":"The Green, Kingsthorpe, Northampton NN2 6QD","description":"Open from 01-11-2022. We are open for all, as a warm space with hot drinks for local community.","hours":{"_text":"Tuesday: 8:30 - 12:00","opening":"Tu 08:30-12:00"},"title":"St John the Baptist Church"},"type":"Feature"},
		{"geometry":{"coordinates":[-0.98513,52.13996],"type":"Point"},"properties":{"_source":"warm_welcome","address":"Tove Valley Centre, Towcester, Northamptonshire NN12 7AH","description":"Open from 04/11/2022. Wednesday Tots 9.30 to 10.45 for anyone looking after pre-school children, term time only. Friday afternoons 1pm to 3pm is tea/coffee & cake for older people All welcome Mondays 9am to 11am. Tea/coffee available. School Holidays, 'Breakfast Club' 8.30 to 10.30, food, drinks & activities for families with children. See social media for details about which days we are open each school holiday. ","hours":{"_text":"Monday: 09:00 - 11:00, Wednesday: 09:30 - 10:45, Friday: 13:00 - 15:00, Sunday: 10:30 - 12:00","opening":"Mo 09:00-11:00; We 09:30-10:45; Fr 13:00-15:00; Su 10:30-12:00"},"title":"Tove Valley Baptist Fellowship"},"type":"Feature"},
		{"geometry":{"coordinates":[-0.88872,52.26284],"type":"Point"},"properties":{"_source":"warm_spaces","address":"St David&#39;s Church Hall, Eastern Avenue South, Northampton, England, NN2 7QB","hours":{"_text":""},"title":"4U Community Cafe at St David's Church, Church Hall","url":"https://www.kingsthorpechurches.co.uk/churches/st-david/our-community-cafe/"},"type":"Feature"},
		{"geometry":{"coordinates":[-0.90748,52.26118],"type":"Point"},"properties":{"_source":"warm_spaces","address":"St John the Baptist C of E Church, 34 The Green, Northampton, England, NN2 6QD","hours":{"_text":""},"title":"St John the Baptist Church, Chapterhouse","url":"https://kingsthorpechurches.co.uk"},"type":"Feature"},
		{"geometry":{"coordinates":[-0.75062,52.26437],"type":"Point"},"properties":{"_source":"north_northamptonshire_council","address":"Broad Street, Earls Barton, NN6 0ND","hours":{"_text":"Monday, Tuesday, Thursday and Friday 2pm to 5pm, Wednesday and Saturday 10am to 1pm","opening":"Mo 14:00-17:00; Tu 14:00-17:00; Th 14:00-17:00; Fr 14:00-17:00; We 10:00-13:00; Sa 10:00-13:00"},"title":"Earls Barton Library andÂ Community Centre"},"type":"Feature"},
		{"geometry":{"coordinates":[-0.89160,52.23852],"type":"Point"},"properties":{"_source":"west_northamptonshire","address":"Abington Street, Northampton NN1 2BA","contact":"Phone: 0300 126 7000","hours":{},"title":"Northamptonshire Central Library"},"type":"Feature"},
		{"geometry":{"coordinates":[-0.94142,52.24294],"type":"Point"},"properties":{"_source":"west_northamptonshire","address":"St Lukeâs Community Centre, Northampton NN5 6JB","contact":"Phone: 01604 372744","hours":{},"title":"Affinity Day Care CIC"},"type":"Feature"},
		{"geometry":{"coordinates":[-0.88801,52.23860],"type":"Point"},"properties":{"_source":"west_northamptonshire","address":"William and Patricia Venton Centre, York Road, Northampton NN1 5QJ","contact":"Phone: 01604 611200 07881 230222","hours":{},"title":"Age UK Northamptonshire"},"type":"Feature"},
		{"geometry":{"coordinates":[-0.91686,52.22641],"type":"Point"},"properties":{"_source":"west_northamptonshire","address":"The Springs, Briar Hill, Northampton NN4 8SX","contact":"Phone: 07763 361588","hours":{},"title":"Briar Hill Community Centre"},"type":"Feature"},
		{"geometry":{"coordinates":[-0.88981,52.24278],"type":"Point"},"properties":{"_source":"west_northamptonshire","address":"Overstone Road, Northampton NN1 3JL","contact":"Phone: 01604 824080","hours":{},"title":"C2C Social Action"},"type":"Feature"},
		{"geometry":{"coordinates":[-0.89693,52.23791],"type":"Point"},"properties":{"_source":"west_northamptonshire","address":"Cafe Track, 18 Market Square, Northampton NN1 2DL","contact":"Phone: 07545 354265","hours":{},"title":"Cafe Track (TRACK NN CIC)"},"type":"Feature"},
		{"geometry":{"coordinates":[-0.89947,52.23695],"type":"Point"},"properties":{"_source":"west_northamptonshire","address":"62 Gold Street, Northampton NN1 1RS","contact":"Phone: 01604 639545","hours":{},"title":"Community Court Yard"},"type":"Feature"},
		{"geometry":{"coordinates":[-0.91318,52.23815],"type":"Point"},"properties":{"_source":"west_northamptonshire","address":"109 St James&apos; Rd, Northampton NN5 5LD","contact":"Phone: 07938 484658","hours":{},"title":"Doddridge Centre Limited"},"type":"Feature"},
		{"geometry":{"coordinates":[-0.84696,52.24659],"type":"Point"},"properties":{"_source":"west_northamptonshire","address":"Favell Way, Weston Favell, Northampton NN3 3BZ","contact":"Phone: 07771 935073","hours":{},"title":"Friends of Abington Library"},"type":"Feature"},
		{"geometry":{"coordinates":[-0.81844,52.26535],"type":"Point"},"properties":{"_source":"west_northamptonshire","address":"Blackthorn Community Centre, Blackthorn Bridge Court, Northampton NN3 8QH","contact":"Phone: 01604 411166","hours":{},"title":"Growing Together"},"type":"Feature"},
		{"geometry":{"coordinates":[-0.91548,52.21507],"type":"Point"},"properties":{"_source":"west_northamptonshire","address":"Overslade Cl, Northampton NN4 0RZ","contact":"Phone: 0300 126 7000","hours":{},"title":"Hunsbury Library"},"type":"Feature"},
		{"geometry":{"coordinates":[-0.84322,52.26143],"type":"Point"},"properties":{"_source":"west_northamptonshire","address":"Cypress Court, Northampton NN3 3RU","contact":"Phone: 07719 485876","hours":{},"title":"Innergate UK(NXT Leaders)"},"type":"Feature"},
		{"geometry":{"coordinates":[-0.89008,52.26108],"type":"Point"},"properties":{"_source":"west_northamptonshire","address":"Team Office, St David&apos;s Church, Eastern Avenue South, Kingsthorpe, Northampton NN2 7QB","contact":"Phone: 01604 845455","hours":{},"title":"Kingsthorpe Team Ministry - Church of England Churches in Kingsthorpe"},"type":"Feature"},
		{"geometry":{"coordinates":[-0.89726,52.24223],"type":"Point"},"properties":{"_source":"west_northamptonshire","address":"Ash Street, Northampton NN1 3DS","contact":"Phone: 01604 214300","hours":{},"title":"Northampton Hope Centre"},"type":"Feature"},
		{"geometry":{"coordinates":[-0.91291,52.23520],"type":"Point"},"properties":{"_source":"west_northamptonshire","address":"St James Mill Road, Northampton NN5 5JW","contact":"Phone: 07810 053521","hours":{},"title":"Northampton Partnership Homes"},"type":"Feature"},
		{"geometry":{"coordinates":[-0.93421,52.23506],"type":"Point"},"properties":{"_source":"west_northamptonshire","address":"Sixfields Stadium, Walter Tull Way, Northampton NN5 5QA","contact":"Phone: 01604 683726","hours":{},"title":"Northampton Town FC Community Trust"},"type":"Feature"},
		{"geometry":{"coordinates":[-0.88623,52.24341],"type":"Point"},"properties":{"_source":"west_northamptonshire","address":"The Swan and Helmet Pub, 65-67 Grove Road, Northampton NN1 3LJ","contact":"Phone: 01604 532121","hours":{},"title":"The McCarthy-Dixon Foundation"},"type":"Feature"},
		{"geometry":{"coordinates":[-0.89878,52.25090],"type":"Point"},"properties":{"_source":"west_northamptonshire","address":"F5B Barratt House, Kingsthorpe Road, Northampton NN2 6EZ","contact":"Phone: 07783 189911","hours":{},"title":"United African Association"},"type":"Feature"},
		{"geometry":{"coordinates":[-0.83546,52.25704],"type":"Point"},"properties":{"_source":"west_northamptonshire","address":"Weston Favell Centre, Northampton NN3 8JZ","contact":"Phone: 0300 126 7000","hours":{},"title":"Weston Favell Library"},"type":"Feature"},
		{"geometry":{"coordinates":[-0.88207,52.20162],"type":"Point"},"properties":{"_source":"west_northamptonshire","address":"Wootton Community Centre, Curtlee Hill, Wootton, Northampton NN4 6ED","contact":"Phone: 01604 361422","hours":{},"title":"Wootton Community Library"},"type":"Feature"},
		{"geometry":{"coordinates":[-0.86741,52.25785],"type":"Point"},"properties":{"_source":"west_northamptonshire","address":"Broadmead Ave, Northampton NN3 2QY","contact":"Phone: 01604 721144","hours":{},"title":"Broadmead Community Church"},"type":"Feature"},
		{"geometry":{"coordinates":[-0.94131,52.25054],"type":"Point"},"properties":{"_source":"west_northamptonshire","address":"Pendle Rd, Northampton NN5 6DT","contact":"Phone: 0300 126 7000","hours":{},"title":"Duston Library"},"type":"Feature"},
		{"geometry":{"coordinates":[-0.90126,52.23997],"type":"Point"},"properties":{"_source":"west_northamptonshire","address":"8 Tower Street, Northampton NN1 2SN","contact":"Phone: 07888 732071","hours":{},"title":"Northampton Salvation Army"},"type":"Feature"},
		{"geometry":{"coordinates":[-0.85336,52.25664],"type":"Point"},"properties":{"_source":"west_northamptonshire","address":"James Lewis Court, Northampton, NN3 2TH","contact":"Phone: N/A","hours":{},"title":"Community Hub"},"type":"Feature"},
		{"geometry":{"coordinates":[-1.00207,52.21210],"type":"Point"},"properties":{"_source":"west_northamptonshire","address":"Smitherway, Bugbrooke NN7 3PT","contact":"Phone: 07901 775639","hours":{},"title":"Bugbrooke Parish Council"},"type":"Feature"},
		{"geometry":{"coordinates":[-0.98923,52.13235],"type":"Point"},"properties":{"_source":"west_northamptonshire","address":"169 Watling St, Towcester NN12 6BX","contact":"Phone: 07761 041203","hours":{},"title":"renew169 Wellbeing Cafe"},"type":"Feature"},
		{"geometry":{"coordinates":[-0.89460,52.15847],"type":"Point"},"properties":{"_source":"west_northamptonshire","address":"High Street, Roade NN7 2NW","contact":"Phone: 07891 765663","hours":{},"title":"Roade Community Library"},"type":"Feature"},
		{"geometry":{"coordinates":[-0.77457,52.21365],"type":"Point"},"properties":{"_source":"west_northamptonshire","address":"Bedford Road, Denton NN7 1DG","contact":"Phone: 01604 696575","hours":{},"title":"The church of St Margaret of Antioch"},"type":"Feature"},
		{"geometry":{"coordinates":[-0.89149,52.09635],"type":"Point"},"properties":{"_source":"west_northamptonshire","address":"High Street, Yardley Gobion NN12 7TH","contact":"Phone: 07769 335220 / 01908 976737","hours":{},"title":"The Coffee Pot Tavern"},"type":"Feature"},
		{"geometry":{"coordinates":[-0.98008,52.16110],"type":"Point"},"properties":{"_source":"west_northamptonshire","address":"High Street North, Tiffield NN12 8AD","contact":"Phone: 07738 420183","hours":{},"title":"The George at Tiffield"},"type":"Feature"},
		{"geometry":{"coordinates":[-1.02258,52.14372],"type":"Point"},"properties":{"_source":"west_northamptonshire","address":"St Bartholomew&apos;s Church, Towcester Road, Greens Norton NN12 8BL","contact":"Phone: 01327 350459","hours":{},"title":"Tove Benefice Group"},"type":"Feature"},
		{"geometry":{"coordinates":[-0.98480,52.14091],"type":"Point"},"properties":{"_source":"west_northamptonshire","address":"Tove Valley Centre, Northampton Road, Towcester, NN12 7AH","contact":"Phone: 01327 204801","hours":{},"title":"Tove Valley Baptist Fellowship"},"type":"Feature"},
		{"geometry":{"coordinates":[-0.98882,52.13303],"type":"Point"},"properties":{"_source":"west_northamptonshire","address":"The Forum, Moat Lane, Towcester NN12 6AD","contact":"Phone: 0300 126 7000","hours":{},"title":"Towcester Library"},"type":"Feature"},
		{"geometry":{"coordinates":[-0.88600,52.09518],"type":"Point"},"properties":{"_source":"west_northamptonshire","address":"7 Brownsfield Road, Yardley Gobion, NN12 7TY","contact":"Phone: 01908 542632","hours":{},"title":"Yardley Gobion Village Hall"},"type":"Feature"}
	]
}
