{
	"type": "FeatureCollection",
	"features": [
		{"geometry":{"coordinates":[-0.75071,51.62947],"type":"Point"},"properties":{"_source":"warm_welcome","address":"Church Square, High Wycombe, Bucks HP11 2BN","description":"Open from 20th October .","hours":"Mo 11:00-13:00; Tu 10:00-13:00; We 10:00-12:00; Th 10:30-13:00; Fr 10:00-12:30; Sa 10:30-12:30; Su 10:00-11:30","title":"All Saints Church, High Wycombe"},"type":"Feature"},
		{"geometry":{"coordinates":[-0.81142,51.81480],"type":"Point"},"properties":{"_source":"warm_welcome","address":"Walton Street, Aylesbury, Buckinghamshire HP20 1UU","description":"","hours":"Mo 09:30-17:00; Tu 09:30-19:00; We 09:30-17:00; Th 09:30-17:00; Fr 09:30-17:00; Sa 09:30-16:00","title":"Aylesbury Library"},"type":"Feature"},
		{"geometry":{"coordinates":[-0.70945,51.64737],"type":"Point"},"properties":{"_source":"warm_welcome","address":"Hazlemere Community Centre, Rose Avenue, Hazlemere, Buckinghamshire HP13 7HA","description":"we are happy to cater for all groups Our Thursday session we ask a donation of £2 for unlimited hot drinks. We are open every evening - with our social club - from 7.30pm. We have all sports events and a selection of soft drinks available in the evening","hours":"Th 10:00-14:00","title":"Hazlemere Community Association Social Club Ltd"},"type":"Feature"},
		{"geometry":{"coordinates":[-0.71690,51.64956],"type":"Point"},"properties":{"_source":"warm_welcome","address":"Holy Trinity Church, Amersham Road, Hazlemere, High Wycombe, Buckinghamshire HP15 7PZ","description":"Open from From 22nd November onwards. Tuesday - Thursday, 2-5pm, a warm space to work, relax or chat. Thursdays, 9:30-11:30am toddler group for families with young children, including lunch on 1st & 3rd Thursday","hours":"Tu 14:00-17:00; We 14:00-17:00; Th 09:30-17:00","title":"Holy Trinity Church"},"type":"Feature"},
		{"geometry":{"coordinates":[-0.80675,51.81030],"type":"Point"},"properties":{"_source":"warm_welcome","address":"Walton Street, Aylesbury, Bucks HP217QX","description":"Open from Wednesday Nov 16th. Wednesdays (from 16th Nov)-free soup and rolls available from midday and warm space with hot drinks and biscuits until 4pm. You are also welcome to sit in our coffee shop on Weds and Fri 10am-12 noon, without making a purchase-free hot drinks available.","hours":"We 10:00-16:00; Fr 10:00-12:00","title":"Holy Trinity Church, Aylesbury"},"type":"Feature"},
		{"geometry":{"coordinates":[-0.81314,51.75221],"type":"Point"},"properties":{"_source":"warm_welcome","address":"Kimble Free Church, Grove Lane, Little Kimble HP17 9TR","description":"Open from 02-11-2022.","hours":"We 10:00-13:00","title":"Kimble Free Church"},"type":"Feature"},
		{"geometry":{"coordinates":[-0.78445,51.81438],"type":"Point"},"properties":{"_source":"warm_welcome","address":"36 Parton Road, Aylesbury , Buckinghamshire HP201NG","description":" You’re welcome to come in and sit without making a purchase. We also have a pay it forward system where you can often get a free drink. We also operate a Foodbank on Wednesdays. Knit and natter Fridays. ","hours":"Tu 09:30-12:30; We 09:30-12:30; Th 09:30-12:30; Fr 11:30-02:30; Sa 05:30-07:00","title":"More+ Coffee Shop"},"type":"Feature"},
		{"geometry":{"coordinates":[-0.83063,51.72257],"type":"Point"},"properties":{"_source":"warm_welcome","address":"42 Bell Street , Princes Risborough, Bucks HP27 0OAD","hours":"Th 12:00-14:00","title":"Princes Risborough Baptist Church"},"type":"Feature"},
		{"geometry":{"coordinates":[-0.83118,51.72236],"type":"Point"},"properties":{"_source":"warm_welcome","address":"Bell Street, Princes Risborough, Buckinghamshire HP27 0AA","description":"","hours":"Tu 10:00-05:30; We 10:00-01:00; Th 10:00-04:00; Fr 10:00-05:00; Sa 10:00-01:00","title":"Princes Risborough Library"},"type":"Feature"},
		{"geometry":{"coordinates":[-0.72297,51.62620],"type":"Point"},"properties":{"_source":"warm_welcome","address":"St Andrews Church , High Wycombe , Buckinghamshire Hp137NJ","description":" Come for a chat and a cup of tea and bring a hobby if you like! ","title":"Renew Space "},"type":"Feature"},
		{"geometry":{"coordinates":[-0.79017,51.78300],"type":"Point"},"properties":{"_source":"warm_welcome","address":"St Mary's Church Rooms, 28 Risborough Road, Stoke Mandeville, Buckinghamshire HP22 5UT","description":"Open from 03-11-2022.","hours":"Th 10:00-12:00","title":"St Mary the Virgin Church"},"type":"Feature"},
		{"geometry":{"coordinates":[-0.82718,51.82641],"type":"Point"},"properties":{"_source":"warm_welcome","address":"Coventon Road, Aylesbury, Bucks HP19 9ND","description":" Thurs: Community Cafe 10am - free drinks & cakes, plus free hot soup lunch from 12pm. Tues 1pm (term time): Play&Gro for Parents/carers with babies & toddlers with free lunch snacks & drinks. Sunday 10.30am: Free breakfast & hot drinks at Breakfast Church.","hours":"Tu 13:00-14:30; Th 10:00-13:00; Su 10:30-12:00","title":"St Peter's Church Aylesbury"},"type":"Feature"},
		{"geometry":{"coordinates":[-0.74511,51.63192],"type":"Point"},"properties":{"_source":"warm_welcome","address":"24 Amersham Hill, HIGH WYCOMBE, BUCKINGHAMSHIRE HP13 6NZ","description":"Mostly elderly or living-alone people. An existing Friendship Group meeting aftyer the 0930Mass on Wednesdays, in the Upper Room, which has lift access and disabled toilets. Hot drinks, biscuits and maybe cakes ","hours":"We 10:00-12:30","title":"St Vincent de Paul Society, High Wyco"},"type":"Feature"},
		{"geometry":{"coordinates":[-0.74269,51.76232],"type":"Point"},"properties":{"_source":"warm_welcome","address":"The High Street, Wendver, Buckinghamshire HP226DU","description":"","hours":"Tu 09:00-06:00; Th 09:30-05:00; Fr 09:30-05:00; Sa 09:30-04:00","title":"Wendover Community Library"},"type":"Feature"},
		{"geometry":{"coordinates":[-0.80775,51.81235],"type":"Point"},"properties":{"_source":"warm_spaces","address":"Walton Street, Aylesbury, England, HP21 7QX","title":"Holy Trinity Church Aylesbury","url":"https://www.htaylesbury.org"},"type":"Feature"}
	]
}
