{
	"type": "FeatureCollection",
	"features": [
		{"geometry":{"coordinates":[-0.98343,51.44748],"type":"Point"},"properties":{"_source":"warm_welcome","address":"Berkeley Avenue, Reading, Berkshire RG1 6JE","description":" Open from 01-11-22","hours":"Tu 10:30-15:00","title":"All Nations Christian Centre"},"type":"Feature"},
		{"geometry":{"coordinates":[-0.79391,51.42872],"type":"Point"},"properties":{"_source":"warm_welcome","address":"Benetfeld Road, Binfield, Bracknell RG42 4JZ","description":"","hours":"Mo 02:00-07:00; Tu 02:00-05:00; Th 09:00-05:00; Fr 02:00-05:00; Sa 09:30-04:00","title":"Binfield Library"},"type":"Feature"},
		{"geometry":{"coordinates":[-0.71120,51.57891],"type":"Point"},"properties":{"_source":"warm_welcome","address":"Wakeman Road, Bourne End, Buckinghamshire SL8 5SX","description":"Open from 12-12-2022.","hours":"Mo 09:00-17:00","title":"Bourne End Community Centre"},"type":"Feature"},
		{"geometry":{"coordinates":[-0.71120,51.57891],"type":"Point"},"properties":{"_source":"warm_welcome","address":"Wakeman Road, Bourne End, Buckinghamshire SL8 5SX","description":"Open from 1st October 2022. On Mondays, from 12th December, the Community Centre next door is open as a Warm Space","hours":"Tu 09:30-19:00; We 09:30-13:00; Th 09:30-17:00; Fr 09:30-17:00; Sa 09:30-14:00","title":"Bourne End Library"},"type":"Feature"},
		{"geometry":{"coordinates":[-0.75266,51.41419],"type":"Point"},"properties":{"_source":"warm_welcome","address":"Time Square Market Street, Bracknell, Berkshire RG12 1JD","description":"","hours":"Mo 08:30-17:00; Tu 08:30-17:00; We 08:30-17:00; Th 08:30-17:00; Fr 08:30-17:00","title":"Bracknell Forest Council"},"type":"Feature"},
		{"geometry":{"coordinates":[-0.74758,51.41824],"type":"Point"},"properties":{"_source":"warm_welcome","address":"Bracknell Library, Bracknell, Berkshire RG12 1BH","description":"","hours":"Mo 09:30-17:00; Tu 09:30-19:00; Th 09:30-19:00; Fr 09:30-19:00; Sa 09:30-16:00","title":"Bracknell Forest Libraries"},"type":"Feature"},
		{"geometry":{"coordinates":[-0.91145,51.43273],"type":"Point"},"properties":{"_source":"warm_welcome","address":"Brookside Close, Earley, Reading, Berkshire RG6 7HG","description":"Open from 18/11/2022. On Wednesday’s our focus is for Over 60’s We have table tennis, table football, lounge area and board games","hours":"We 14:00-16:00; Fr 15:30-18:00","title":"Brookside Church"},"type":"Feature"},
		{"geometry":{"coordinates":[-0.89414,51.43601],"type":"Point"},"properties":{"_source":"warm_welcome","address":"614 Reading Road,, Winnersh , Wokingham RG41 5HF","description":"We cannot cater for any who cannot use stairs - we are on the first floor and have no lift access Free Parking in roads nearby. Quiet Meeting room suitable for Studying and Working, we offer a warm welcome as well as a warm room ","hours":"We 08:30-15:30","title":"Cavity Dental Staff Agency Ltd"},"type":"Feature"},
		{"geometry":{"coordinates":[-0.71142,51.60135],"type":"Point"},"properties":{"_source":"warm_welcome","address":"Chapel Road, Flackwell Heath, Buckinghamshire HP10 9AA","hours":"Mo 08:45-11:30; Tu 08:45-11:30; We 08:45-11:30; Th 08:45-11:30; Fr 08:45-11:30","title":"Christ Church Flackwell Heath"},"type":"Feature"},
		{"geometry":{"coordinates":[-0.76600,51.57515],"type":"Point"},"properties":{"_source":"warm_welcome","address":"Newfield Place, Foxes Piece School Campus, Newfield Road, Marlow, Bucks SL7 1JW","description":"Open from 06/10/2022.","hours":"Th 12:00-17:00","title":"Foxes Piece School partnering with Newfield Community Church"},"type":"Feature"},
		{"geometry":{"coordinates":[-0.73290,51.40626],"type":"Point"},"properties":{"_source":"warm_welcome","address":"Harmans Water Library, Bracknell, Berkshire RG12 9LP","description":"","hours":"Mo 09:30-12:30; Tu 09:30-12:30; Th 14:00-17:00; Sa 09:30-12:30","title":"Harmans Water Library"},"type":"Feature"},
		{"geometry":{"coordinates":[-0.93303,51.42594],"type":"Point"},"properties":{"_source":"warm_welcome","address":"Lower Earley Library, Chalfont Close, Chalfont Way, Lower Earley RG6 5HZ","description":" Free wifi and free computer access is available to library members - if ypu are over 18 you can join the library if you have ID showing your name and address (i.e. driving licence)","hours":"Mo 09:30-17:00; Tu 09:30-17:00; Th 09:30-19:00; Fr 09:30-17:00; Sa 09:30-16:00","title":"Lower Earley Library"},"type":"Feature"},
		{"geometry":{"coordinates":[-0.77426,51.57077],"type":"Point"},"properties":{"_source":"warm_welcome","address":"Institute Road, Marlow, Buckinghamhsire SL7 1BL","description":"","hours":"Tu 10:00-18:00; We 10:00-17:00; Th 10:00-16:00; Fr 10:00-17:00; Sa 10:00-16:00","title":"Marlow LIbrary"},"type":"Feature"},
		{"geometry":{"coordinates":[-1.01806,51.45873],"type":"Point"},"properties":{"_source":"warm_welcome","address":"Brockley Close, Reading, Berkshire RG30 4YP","description":"We cater for people of all ages! All are welcome to our warm, friendly, Oasis Cafe, where we provide a range of light-refreshments from 10.00 - 15.00 every Friday. ","hours":"Fr 10:00-15:00","title":"Norcot Mission Church: Oasis Cafe"},"type":"Feature"},
		{"geometry":{"coordinates":[-1.01024,51.44148],"type":"Point"},"properties":{"_source":"warm_welcome","address":"205 Southcote Lane, Reading, Berkshire RG30 3AX","description":"","title":"St Matthews Church"},"type":"Feature"},
		{"geometry":{"coordinates":[-1.03272,51.45155],"type":"Point"},"properties":{"_source":"warm_welcome","address":"St Michael's Church, New Lane Hill, Tilehurst, Reading RG30 4JX","description":"Open from 24-11-2022. All are welcome to drop in on Thursday afternoons from 12-5pm for soup, bread, hot drinks and company. Board games available","hours":"Th 12:00-17:00","title":"St Michael Tilehurst"},"type":"Feature"},
		{"geometry":{"coordinates":[-0.72264,51.52646],"type":"Point"},"properties":{"_source":"warm_welcome","address":"c/o the Vicarage, 26 Norfolk Road, Maidenhead, Berkshire SL6 7AX","description":"Open from 20th September . open to anyone a warm space to meet with others and chat over a warm meal","hours":"Th 12:00-14:00","title":"St. Lukes Church"},"type":"Feature"},
		{"geometry":{"coordinates":[-1.00257,51.45844],"type":"Point"},"properties":{"_source":"warm_welcome","address":"522 Oxford Road, Reading, Berkshire RG30 1EG","description":"Open from 08/11/2022.","hours":"Tu 10:00-13:30; We 09:30-15:00; Fr 10:00-16:00; Su 10:00-13:00","title":"The Salvation Army"},"type":"Feature"},
		{"geometry":{"coordinates":[-0.83152,51.40924],"type":"Point"},"properties":{"_source":"warm_welcome","address":"The Salvation Army, Sturges Road, Wokingham RG40 2HD","description":"","hours":"Mo 10:00-13:30; We 10:00-13:30; Fr 10:00-13:30","title":"The Salvation Army"},"type":"Feature"},
		{"geometry":{"coordinates":[-0.93303,51.42594],"type":"Point"},"properties":{"_source":"warm_welcome","address":"Chalfont Close, Lower Earley, Wokingham RG6 5HZ or 5UG","description":"Open from 14th November 2022. Everyone welcome We have tea, coffee, biscuits, games to play or just sit and chat","hours":"Mo 10:00-12:00; Th 10:00-12:00","title":"The Salvation Army Lower Earley"},"type":"Feature"},
		{"geometry":{"coordinates":[-0.93303,51.42594],"type":"Point"},"properties":{"_source":"warm_welcome","address":"Trinity Church, Chalfont Close, , Lower Earley, Reading RG6 5HZ","description":"Open from 15th November 2022.","hours":"Tu 13:00-18:00; Th 14:00-18:00; Sa 10:00-12:00","title":"Trinity Church"},"type":"Feature"},
		{"geometry":{"coordinates":[-0.86717,51.47696],"type":"Point"},"properties":{"_source":"warm_welcome","address":"Twyford Library, Polehampton Close, Twyford RG10 9RP","description":" Free wifi and free computer access is available to library members - if ypu are over 18 you can join the library if you have ID showing your name and address (i.e. driving licence)","hours":"Mo 14:00-17:00; Tu 10:00-13:00; Th 14:00-17:00; Fr 10:00-13:00; Sa 09:30-12:30","title":"Twyford Library"},"type":"Feature"},
		{"geometry":{"coordinates":[-0.87113,51.50076],"type":"Point"},"properties":{"_source":"warm_welcome","address":"Wargrave Library, Woodclyffe Hostel, Church Street, Wargrave RG10 8EP","description":" Free wifi and free computer access is available to library members - if ypu are over 18 you can join the library if you have ID showing your name and address (i.e. driving licence)","hours":"Mo 14:00-17:00; We 09:30-13:00; Fr 14:00-17:00; Sa 09:30-13:00","title":"Wargrave Library"},"type":"Feature"},
		{"geometry":{"coordinates":[-0.73139,51.42626],"type":"Point"},"properties":{"_source":"warm_welcome","address":"County Lane, Newell Green , Bracknell RG42 3JP","description":"","hours":"Mo 09:30-05:00; Tu 09:30-05:00; We 09:30-06:00; Th 09:30-05:00; Fr 09:30-05:00; Sa 09:30-04:00","title":"Whitegrove Library"},"type":"Feature"},
		{"geometry":{"coordinates":[-0.87618,51.43090],"type":"Point"},"properties":{"_source":"warm_welcome","address":"Winnersh Library, The Forest School, Robin Hood Lane, Winnersh RG41 5ND","description":" Free wifi and free computer access is available to library members - if ypu are over 18 you can join the library if you have ID showing your name and address (i.e. driving licence)","hours":"Tu 15:30-17:00; We 15:30-17:00; Th 15:30-17:00; Fr 15:30-17:00; Sa 09:30-14:30","title":"Winnersh Library"},"type":"Feature"},
		{"geometry":{"coordinates":[-0.83738,51.40753],"type":"Point"},"properties":{"_source":"warm_welcome","address":"Wokingham Library, Carnival Hub, Wellington Road, Wokingham RG40 2AF","description":" Free wifi and free computer access is available to library members - if ypu are over 18 you can join the library if you have ID showing your name and address (i.e. driving licence)","hours":"Mo 09:30-17:00; Tu 09:30-17:00; We 09:30-16:00; Th 09:30-19:00; Fr 09:30-17:00; Sa 09:30-16:00","title":"Wokingham Library"},"type":"Feature"},
		{"geometry":{"coordinates":[-0.90358,51.45365],"type":"Point"},"properties":{"_source":"warm_welcome","address":"Woodley Library, Headley Road, Woodley RG5 4JA","description":" Free wifi and free computer access is available to library members - if ypu are over 18 you can join the library if you have ID showing your name and address (i.e. driving licence)","hours":"Mo 09:00-13:00; Tu 09:00-17:00; We 09:00-17:00; Th 09:00-19:00; Fr 09:00-17:00; Sa 09:30-16:00; Su 10:30-16:00","title":"Woodley Library"},"type":"Feature"},
		{"geometry":{"coordinates":[-0.95228,51.46647],"type":"Point"},"properties":{"_source":"warm_spaces","address":"110 Amersham Road, Reading, England, RG4 5NA","title":"Weller Centre","url":"https://wellercentre.co.uk"},"type":"Feature"},
		{"geometry":{"coordinates":[-0.89271,51.43546],"type":"Point"},"properties":{"_source":"warm_spaces","address":"614 Reading Road, Wokingham, England, RG41 5HE","title":"Cavity Meeting Room","url":"https://Www.cavitydentalstaff.co.uk"},"type":"Feature"}
	]
}
