{
	"type": "FeatureCollection",
	"features": [
		{"geometry":{"coordinates":[0.16194,52.20290],"type":"Point"},"properties":{"_source":"warm_welcome","address":"Barnwell Road, Cambridge, Cambridgeshire CB5 8RG","description":"Open from 18th October 2022. We cater for all ages A small library with limited study space and charging facilities","hours":"Tu 10:00-17:00, We 10:00-17:00, Th 14:00-17:00, Fr 14:00-17:00, Sa 10:00-13:00","title":"Barnwell Road Library"},"type":"Feature"},
		{"geometry":{"coordinates":[0.13675,52.19984],"type":"Point"},"properties":{"_source":"warm_welcome","address":"3 Tenison Road, Cambridge, Cambridgeshire CB1 2DG","description":"Open from 01/11/2022.","hours":"Tu 10:00-14:00, We 10:00-14:00, Th 10:00-14:00, Fr 10:00-14:00","title":"Cambridge Salvation Army"},"type":"Feature"},
		{"geometry":{"coordinates":[0.12050,52.20461],"type":"Point"},"properties":{"_source":"warm_welcome","address":"Central Library, 7 Lion Yard, Cambridge CB2 3QD","description":"Open from 18th October 2022. We cater for all Short Term and accessible parking available in Grand Arcade car park. ","hours":"Mo 09:30-18:00, Tu 09:30-18:00, We 09:30-19:00, Th 09:30-18:00, Fr 09:30-18:00, Sa 10:00-18:00, Su 12:00-16:00","title":"Central Library, Cambridge"},"type":"Feature"},
		{"geometry":{"coordinates":[0.17514,52.18845],"type":"Point"},"properties":{"_source":"warm_welcome","address":"High Street, Cherry Hinton, Cambridge CB1 9HZ","description":"Open from 18th October 2022. We cater for all Limited facilities for co-working and charging devices, but public computers are available. Nearby shops for food and drink. Disabled parking space at the front of the library","hours":"Mo 15:00-18:00, We 09:00-17:00, Th 09:00-13:00, Fr 09:00-17:00, Sa 10:00-14:00","title":"Cherry Hinton Library"},"type":"Feature"},
		{"geometry":{"coordinates":[0.14762,52.21157],"type":"Point"},"properties":{"_source":"warm_welcome","address":"Newmarket Road, Cambridge CB5 8RS","description":"Open from 8th November 2022.","hours":"Tu 18:00-21:00, Th 17:00-21:00, Su 16:00-18:00","title":"Christ the Redeemer Church"},"type":"Feature"},
		{"geometry":{"coordinates":[0.14559,52.21160],"type":"Point"},"properties":{"_source":"warm_welcome","address":"Brickfields, 12-16 Cheddars Lane, Cambridge CB5 8LD","description":"Open from 28-11-2022.","hours":"Mo 10:00-13:00","title":"City Church Cambridge"},"type":"Feature"}