{
	"type": "FeatureCollection",
	"features": [
		{"geometry":{"coordinates":[-3.54307,54.64285],"type":"Point"},"properties":{"_source":"warm_welcome","address":"St. Johns Church, Cumbria CA14 3AW","description":"The space is open to all","hours":{"_text":"Wednesday: 10:30 - 12:45","opening":"We 10:30-12:45"},"title":"St John's Church Community Hall"},"type":"Feature"},
		{"geometry":{"coordinates":[-3.56430,54.61845],"type":"Point"},"properties":{"_source":"warm_welcome","address":"The Riverside Group Ltd, Workington, Cumbria CA14 5HA","description":"Cafe at the Oval Centre","hours":{"_text":"Monday: 11:00 - 14:00, Tuesday: 11:00 - 14:00, Wednesday: 11:00 - 14:00, Thursday: 11:00 - 14:00, Friday: 11:00 - 14:00","opening":"Mo 11:00-14:00; Tu 11:00-14:00; We 11:00-14:00; Th 11:00-14:00; Fr 11:00-14:00"},"title":"The Oval Centre"},"type":"Feature"},
		{"geometry":{"coordinates":[-3.56430,54.61845],"type":"Point"},"properties":{"_source":"warm_welcome","address":"The Riverside Group Ltd, Workington, Cumbria CA14 5HA","description":"SPACE OPENING ON 19th November 2025** The Oval Centre is a community hub designed to bring people together for social, educational, and creative activities. It typically serves as a welcoming space for local residents to access resources, attend events, and participate in programs that promote wellbeing, learning and community engagement.","hours":{"_text":"Wednesday: 10:00 - 12:00, Thursday: 10:00 - 13:00, Friday: 10:00 - 13:00","opening":"We 10:00-12:00; Th 10:00-13:00; Fr 10:00-13:00"},"title":"The Oval Centre"},"type":"Feature"},
		{"geometry":{"coordinates":[-3.54941,54.63021],"type":"Point"},"properties":{"_source":"cumberland_council","contact":"Tel: 07588 209315 Email: info@christ-the-good-shepherd.co.uk","title":"Christ the Good Shepherd parish","url":"https://www.cumberland.gov.uk/health-and-social-care/health-and-wellbeing/cost-living-and-welfare-support/find-local-support-cost-living-and-welfare/christ-good-shepherd-parish"},"type":"Feature"},
		{"geometry":{"coordinates":[-3.54897,54.65212],"type":"Point"},"properties":{"_source":"cumberland_council","contact":"Tel: 01900 68739 Email: Northsidecommunitycentre@outlook.com","title":"Northside Community Centre","url":"https://www.cumberland.gov.uk/health-and-social-care/cost-living-support/find-local-support-cost-living-and-welfare/northside-community-centre"},"type":"Feature"},
		{"geometry":{"coordinates":[-3.55916,54.63063],"type":"Point"},"properties":{"_source":"cumberland_council","contact":"Tel: 07506558779 Email: rev.sharonmurphy@gmail.com","title":"St Marys Church Westfield, Workington","url":"https://www.cumberland.gov.uk/health-and-social-care/public-health/find-local-organisations-can-help-cost-living-and-welfare-support/st-marys-church-westfield-workington"},"type":"Feature"},
		{"geometry":{"coordinates":[-3.52371,54.66128],"type":"Point"},"properties":{"_source":"cumberland_council","contact":"Tel: 01900 602162 Email: stpaulsseaton@gmail.com","title":"St Paul&#039;s Church, Seaton","url":"https://www.cumberland.gov.uk/health-and-social-care/health-and-wellbeing/cost-living-and-welfare-support/find-local-support-cost-living-and-welfare/st-pauls-church-seaton"},"type":"Feature"}
	]
}
