{
	"type": "FeatureCollection",
	"features": [
		{"geometry":{"coordinates":[-3.54307,54.64285],"type":"Point"},"properties":{"_source":"warm_welcome","address":"St. Johns Church, Cumbria CA14 3AW","description":"The space is open to all","hours":{"_text":"Wednesday: 10:30 - 12:45","opening":"We 10:30-12:45"},"title":"St John's Church Community Hall"},"type":"Feature"},
		{"geometry":{"coordinates":[-3.56430,54.61845],"type":"Point"},"properties":{"_source":"warm_welcome","address":"The Riverside Group Ltd, Workington, Cumbria CA14 5HA","description":"Cafe at the Oval Centre","hours":{"_text":"Monday: 11:00 - 14:00, Tuesday: 11:00 - 14:00, Wednesday: 11:00 - 14:00, Thursday: 11:00 - 14:00, Friday: 11:00 - 14:00","opening":"Mo 11:00-14:00; Tu 11:00-14:00; We 11:00-14:00; Th 11:00-14:00; Fr 11:00-14:00"},"title":"The Oval Centre"},"type":"Feature"},
		{"geometry":{"coordinates":[-3.55958,54.63089],"type":"Point"},"properties":{"_source":"warm_welcome","address":"St.Mary's Church, Salisbury Street Workington, Cumbria CA14 3TR","description":"SPACE OPENING ON 15th November 2023** Warm and welcoming space in the parish centre. Offering hot drinks and toast. Newspapers. Access to the internet. Board games. Good company.","hours":{"_text":"Wednesday: 09:00 - 11:30","opening":"We 09:00-11:30"},"title":"Warm Welcome St. Mary's Westfield"},"type":"Feature"},
		{"geometry":{"coordinates":[-3.54548,54.64586],"type":"Point"},"properties":{"_source":"warm_welcome","address":"Workington Leisure Centre, Workington, Cumbria CA14 2DX","description":"We would like to be able to provide a warm space for people to come and sit and enjoy company. Pay and Play activities are on in the centre- Please check the website for updated information and timetables.","hours":{"_text":"Tuesday: 10:00 - 14:00, Thursday: 10:00 - 14:00","opening":"Tu 10:00-14:00; Th 10:00-14:00"},"title":"Workington Leisure Centre"},"type":"Feature"},
		{"geometry":{"coordinates":[-3.54941,54.63021],"type":"Point"},"properties":{"_source":"cumberland_council","contact":"Tel: 07588 209315 Email: info@christ-the-good-shepherd.co.uk","title":"Christ the Good Shepherd parish","url":"https://www.cumberland.gov.uk/health-and-social-care/health-and-wellbeing/cost-living-and-welfare-support/find-local-support-cost-living-and-welfare/christ-good-shepherd-parish"},"type":"Feature"},
		{"geometry":{"coordinates":[-3.54897,54.65212],"type":"Point"},"properties":{"_source":"cumberland_council","contact":"Tel: 01900 68739","title":"Northside Community Centre","url":"https://www.cumberland.gov.uk/health-and-social-care/public-health/cost-living-and-welfare-support/find-local-support-cost-living-and-welfare/northside-community-centre"},"type":"Feature"},
		{"geometry":{"coordinates":[-3.55916,54.63063],"type":"Point"},"properties":{"_source":"cumberland_council","contact":"Tel: 07506558779 Email: rev.sharonmurphy@gmail.com","title":"St Marys Church Westfield, Workington","url":"https://www.cumberland.gov.uk/health-and-social-care/public-health/find-local-organisations-can-help-cost-living-and-welfare-support/st-marys-church-westfield-workington"},"type":"Feature"},
		{"geometry":{"coordinates":[-3.52371,54.66128],"type":"Point"},"properties":{"_source":"cumberland_council","contact":"Tel: 01900 602162 Email: stpaulsseaton@gmail.com","title":"St Paul&#039;s Church, Seaton","url":"https://www.cumberland.gov.uk/health-and-social-care/health-and-wellbeing/cost-living-and-welfare-support/find-local-support-cost-living-and-welfare/st-pauls-church-seaton"},"type":"Feature"}
	]
}
