{
	"type": "FeatureCollection",
	"features": [
		{"geometry":{"coordinates":[-3.52805,54.48304],"type":"Point"},"properties":{"_source":"warm_welcome","address":"The Meeting Place, Egremont, Cumbria CA22 2DR","description":"Join us for some warmth, friendly chat and free food (soup and a roll).","hours":{"_text":"Wednesday: 11:00 - 13:00","opening":"We 11:00-13:00"},"title":"Egremont Warm Welcome Space"},"type":"Feature"},
		{"geometry":{"coordinates":[-3.53784,54.51486],"type":"Point"},"properties":{"_source":"warm_welcome","address":"36 Dalzell Street, Moor Row, Cumbria CA24 3JP","description":"Open to all","hours":{"_text":"Thursday: 10:30 - 13:30, Sunday: 12:00 - 13:30","opening":"Th 10:30-13:30; Su 12:00-13:30"},"title":"Emmanuel Church"},"type":"Feature"},
		{"geometry":{"coordinates":[-3.52805,54.48304],"type":"Point"},"properties":{"_source":"warm_welcome","address":"The Meeting Place, Cumbria CA22 2DR","description":"Coffee/tea and teacakes, no charge but donations accepted. Open to all.","hours":{"_text":"Saturday: 10:00 - 12:00","opening":"Sa 10:00-12:00"},"title":"Saturday Coffee Morning"},"type":"Feature"},
		{"geometry":{"coordinates":[-3.58607,54.54592],"type":"Point"},"properties":{"_source":"warm_welcome","address":"Catherine Street, Whitehaven, Cumbria CA28 7PD","description":"Open right through the year Providing hot drinks throughout the morning. Soup, toasted sandwiches and other snacks between 12.00 and 12.45","hours":{"_text":"Monday: 10:00 - 13:00, Wednesday: 10:00 - 13:00","opening":"Mo 10:00-13:00; We 10:00-13:00"},"title":"The Salvation Army, Whitehaven Corps"},"type":"Feature"},
		{"geometry":{"coordinates":[-3.52935,54.48413],"type":"Point"},"properties":{"_source":"cumberland_council","contact":"Email: boundsalec@gmail.com","title":"Egremont Methodist Church","url":"https://www.cumberland.gov.uk/health-and-social-care/health-and-wellbeing/cost-living-and-welfare-support/find-local-support-cost-living-and-welfare/egremont-methodist-church"},"type":"Feature"},
		{"geometry":{"coordinates":[-3.51760,54.47842],"type":"Point"},"properties":{"_source":"cumberland_council","contact":"Tel: 01946 824946 Email: florence@florenceartscentre.com","title":"Florence Arts Centre","url":"https://www.cumberland.gov.uk/health-and-social-care/public-health/find-local-organisations-can-help-cost-living-and-welfare-support/florence-arts-centre"},"type":"Feature"},
		{"geometry":{"coordinates":[-3.59047,54.54622],"type":"Point"},"properties":{"_source":"cumberland_council","contact":"Tel: 01946 692422 Email: daniel.whitehouse@rosehilltheatre.co.uk","title":"Rosehill, Whitehaven","url":"https://www.cumberland.gov.uk/health-and-social-care/health-and-wellbeing/cost-living-and-welfare-support/find-local-support-cost-living-and-welfare/rosehill-whitehaven"},"type":"Feature"},
		{"geometry":{"coordinates":[-3.58623,54.54679],"type":"Point"},"properties":{"_source":"cumberland_council","contact":"Tel: 01946 690970 Email: thesolwayhall@hotmail.com","title":"The Solway Hall in Whitehaven","url":"https://www.cumberland.gov.uk/health-and-social-care/health-and-wellbeing/cost-living-and-welfare-support/find-local-support-cost-living-and-welfare/solway-hall-whitehaven"},"type":"Feature"}
	]
}
