{
	"type": "FeatureCollection",
	"features": [
		{"geometry":{"coordinates":[-3.52827,54.48327],"type":"Point"},"properties":{"_source":"warm_welcome","address":"The Meeting Place, Main Street, Egremont, Cumbria CA22 2DR","description":"Open from 18 November 2022. Board games and other activities available.","hours":{"_text":"Friday: 12:00 - 15:00","opening":"Fr 12:00-15:00"},"title":"Egremont Methodist Church"},"type":"Feature"},
		{"geometry":{"coordinates":[-3.53811,54.51538],"type":"Point"},"properties":{"_source":"warm_welcome","address":"Dalzell Street, Moor Row, Cumbria CA24 3JP","description":"Open from 24-11-2022.","hours":{"_text":"Thursday: 10:30 - 14:00","opening":"Th 10:30-14:00"},"title":"Emmanuel Church Moor Row"},"type":"Feature"},
		{"geometry":{"coordinates":[-3.58607,54.54592],"type":"Point"},"properties":{"_source":"warm_welcome","address":"Catherine Street, Whitehaven, Cumbria CA28 7PD","description":"Open from 17-10-2022.","hours":{"_text":"Monday: 10:00 - 15:00, Wednesday: 10:00 - 13:00, Friday: 10:00 - 13:00","opening":"Mo 10:00-15:00; We 10:00-13:00; Fr 10:00-13:00"},"title":"The Salvation Army, Whitehaven Corps"},"type":"Feature"},
		{"geometry":{"coordinates":[-3.52824,54.48346],"type":"Point"},"properties":{"_source":"warm_spaces","address":"The Meeting Place, Main Street, Egremont, England, CA22","hours":{"_text":"Friday 12noon-3pm","opening":"Fr 12:00-15:00"},"title":"Egremont Methodist","url":"http://www.egremontmethodist.org.uk"},"type":"Feature"},
		{"geometry":{"coordinates":[-3.56919,54.53646],"type":"Point"},"properties":{"_source":"warm_spaces","address":"111 Main Street, Whitehaven, England, CA28 8QA","hours":{"_text":"Tue &amp; Wed 9am-5pm","opening":"Tu 09:00-17:00; We 09:00-17:00"},"title":"Mainstreet Hair and Beauty","url":"https://www.instagram.com/mainstreethairandbeauty/"},"type":"Feature"},
		{"geometry":{"coordinates":[-3.51565,54.52194],"type":"Point"},"properties":{"_source":"cumbria_council","contact":"Email: beccawoolley@gll.org","description":"A warm welcome and a friendly environment Games Books/Magazines Crafts Activities for Children A Hot Drink","hours":{},"title":"Better Leisure, Cleator Moor","url":"https://new.cumbria.gov.uk/node/23231"},"type":"Feature"},
		{"geometry":{"coordinates":[-3.51610,54.52115],"type":"Point"},"properties":{"_source":"cumbria_council","contact":"Email: whitehaven.library@cumbria.gov.uk","description":"Library environment with comfy seating, access to reading material for all ages, free membership allows access to PCs - occasional activities","hours":{},"title":"Cleator Moor Library","url":"https://new.cumbria.gov.uk/node/3883"},"type":"Feature"},
		{"geometry":{"coordinates":[-3.52642,54.52335],"type":"Point"},"properties":{"_source":"cumbria_council","contact":"Tel: ; Email: revnickipennington@gmail.com","description":"Fridays at St John's a gathering called the Living Room. Reaching people who would like to tend their well being. Social club","hours":{},"title":"Crosslacon Parish, Cleator Moor","url":"https://new.cumbria.gov.uk/node/22242"},"type":"Feature"},
		{"geometry":{"coordinates":[-3.53025,54.48440],"type":"Point"},"properties":{"_source":"cumbria_council","contact":"Email: whitehaven.library@cumbria.gov.uk","description":"Library environment with comfy seating, access to reading material for all ages, free membership allows access to PCs - occasional activities","hours":{},"title":"Egremont Library","url":"https://new.cumbria.gov.uk/node/3884"},"type":"Feature"},
		{"geometry":{"coordinates":[-3.52790,54.48354],"type":"Point"},"properties":{"_source":"cumbria_council","contact":"Email: boundsalec@gmail.com","description":"A Warm Welcome Space - free, warm, welcoming, safe. Operates alongside a foodbank.Hot drinks and soup/roll, Chat with others or be quiet, Charge your mobile, Wi-Fi, Advice from local groups and services.","hours":{},"title":"Egremont Methodist Church","url":"https://new.cumbria.gov.uk/node/3924"},"type":"Feature"},
		{"geometry":{"coordinates":[-3.51828,54.47852],"type":"Point"},"properties":{"_source":"cumbria_council","contact":"Tel: 01946 824946; Email: florence@florenceartscentre.com","description":"Friendly welcome from staff/volunteers. Cosy cafe space, free gallery & free weekly house events; craft cafe and film club.","hours":{},"title":"Florence Arts Centre, Egremont","url":"https://new.cumbria.gov.uk/node/3925"},"type":"Feature"},
		{"geometry":{"coordinates":[-3.58842,54.54595],"type":"Point"},"properties":{"_source":"cumbria_council","contact":"Email: steff@healthyhopes.co.uk","description":"Our drop-ins is a relaxed environment were people can have a cuppa and talk openly about life, occasionally we will do a quiz. Our health and wellbeing sessions focus more on our personal wellbeing and is more structured, led by experienced staff. Health and Wellbeing Session held in New Life Church each ThursdayAll sessions are free","hours":{},"title":"Healthy Hopes Cumbria Ltd, New Life Church, Whitehaven","url":"https://new.cumbria.gov.uk/node/3895"},"type":"Feature"},
		{"geometry":{"coordinates":[-3.58544,54.54297],"type":"Point"},"properties":{"_source":"cumbria_council","contact":"Email: steff@healthyhopes.co.uk","description":"Our drop-ins is a relaxed environment were people can have a cuppa and talk openly about life, occasionally we will do a quiz. Our health and wellbeing sessions focus more on our personal wellbeing and is more structured, led by experienced staff. Health and Wellbeing session held in St Begh's Social Club on Tuesday All sessions are free","hours":{},"title":"Healthy Hopes Cumbria Ltd, St Begh's Social Club, Whitehaven","url":"https://new.cumbria.gov.uk/node/3894"},"type":"Feature"},
		{"geometry":{"coordinates":[-3.56916,54.53648],"type":"Point"},"properties":{"_source":"cumbria_council","contact":"Tel: 01946 693576","description":"Magazines, books, music, complimentary tea, coffee, fruit tea and biscuits.","hours":{},"title":"Mainstreet Hair and Beauty, Hensingham","url":"https://new.cumbria.gov.uk/node/23354"},"type":"Feature"},
		{"geometry":{"coordinates":[-3.59427,54.49374],"type":"Point"},"properties":{"_source":"cumbria_council","contact":"Tel: 01946 822279 / 07460990631; Email: revbgibbs@outlook.com","description":"Our \"Wednesday Winter Warmer \" sessions are special events this winter. We plan to offer a warm welcome, hot drinks and biscuits, simple craft activities, an opportunity to sit and chat in company and make new friends.","hours":{},"title":"St Bees Priory Church, St Bees","url":"https://new.cumbria.gov.uk/node/10909"},"type":"Feature"},
		{"geometry":{"coordinates":[-3.59440,54.53350],"type":"Point"},"properties":{"_source":"cumbria_council","contact":"Tel: 01946748325; Email: revmandy.jones@gmail.com","description":"A warm and comfortable room in our community hall . There will be puzzle books and newspapers on the tables","hours":{},"title":"St Peter's Church, Whitehaven","url":"https://new.cumbria.gov.uk/node/3932"},"type":"Feature"},
		{"geometry":{"coordinates":[-3.58474,54.54738],"type":"Point"},"properties":{"_source":"cumbria_council","contact":"Tel: 01946 690649; Email: whitehaven@salvationarmy.org.uk","description":"Church extending current community activities to provide a warm space.","hours":{},"title":"The Salvation Army, Whitehaven Corps","url":"https://new.cumbria.gov.uk/node/3917"},"type":"Feature"},
		{"geometry":{"coordinates":[-3.59076,54.54612],"type":"Point"},"properties":{"_source":"cumbria_council","contact":"Email: info@rosehilltheatre.co.uk","description":"Rosehill are working in partnership with Copeland Borough Council, the Copeland Wellness Team and Groundworks to deliver free, weekly Warm Wellness Hubs in Whitehaven United Reform ChurchThe Warm Wellness Hubs will be a place for residents to come and keep warm and receive a warm meal and refreshments.In the afternoon we will have a creative session where residents can enjoy arts/photography/song writing/potteryWe will be inviting organisations along to deliver information and advice sessions in the morning.","hours":{},"title":"Warm Wellness Hub in the United Reformed Church, Whitehaven","url":"https://new.cumbria.gov.uk/node/3778"},"type":"Feature"},
		{"geometry":{"coordinates":[-3.58571,54.54777],"type":"Point"},"properties":{"_source":"cumbria_council","contact":"Email: whitehaven.library@cumbria.gov.uk","description":"Library environment with comfy seating, access to reading material for all ages, free membership allows access to PCs - occasional activities","hours":{},"title":"Whitehaven Library","url":"https://new.cumbria.gov.uk/node/3882"},"type":"Feature"},
		{"geometry":{"coordinates":[-3.58569,54.54503],"type":"Point"},"properties":{"_source":"cumbria_council","contact":"Email: beccawoolley@gll.org","description":"A warm welcome with the option of games, crafts, sport, books and reading or just a natter","hours":{},"title":"Whitehaven Sports Centre","url":"https://new.cumbria.gov.uk/node/3916"},"type":"Feature"}
	]
}
