{
	"type": "FeatureCollection",
	"features": [
		{"geometry":{"coordinates":[-3.75837,51.61598],"type":"Point"},"properties":{"_source":"warm_welcome","address":"Cwmafan Evangelical Church SA12 9DF","description":"SPACE OPENING ON 2nd November 2023** The space is open to all","hours":{"_text":"Thursday: 10:00 - 13:00","opening":"Th 10:00-13:00"},"title":"Cwmafan Evangelical Church"},"type":"Feature"},
		{"geometry":{"coordinates":[-3.75837,51.61598],"type":"Point"},"properties":{"_source":"warm_welcome","address":"County Borough Of Neath & Port Talbot, Port Talbot, Neath Port Talbot SA12 9DF","description":"Public library space open to all.","hours":{"_text":"Monday: 10:00 - 12:30 / 14:00 - 17:30, Tuesday: 14:00 - 17:30, Wednesday: 10:00 - 12:30 / 14:00 - 17:30, Friday: 09:30 - 13:00 / 14:00 - 17:30, Saturday: 10:00 - 12:30","opening":"Mo 10:00-12:30,14:00-17:30; Tu 14:00-17:30; We 10:00-12:30,14:00-17:30; Fr 09:30-13:00,14:00-17:30; Sa 10:00-12:30"},"title":"Cwmafan Library"},"type":"Feature"},
		{"geometry":{"coordinates":[-3.78556,51.59695],"type":"Point"},"properties":{"_source":"warm_welcome","address":"Port Talbot Library, Port Talbot, Neath Port Talbot SA13 1PB","description":"Public library space, open to all.","hours":{"_text":"Monday: 09:00 - 17:30, Tuesday: 09:00 - 17:30, Wednesday: 09:00 - 17:30, Thursday: 09:00 - 17:30, Friday: 09:00 - 17:30, Saturday: 09:00 - 16:30","opening":"Mo 09:00-17:30; Tu 09:00-17:30; We 09:00-17:30; Th 09:00-17:30; Fr 09:00-17:30; Sa 09:00-16:30"},"title":"Port Talbot Library"},"type":"Feature"},
		{"geometry":{"coordinates":[-3.81057,51.59873],"type":"Point"},"properties":{"_source":"warm_welcome","address":"Sandfields Library, Port Talbot, Neath Port Talbot SA12 6TG","description":"Public library space, open to all.","hours":{"_text":"Monday: 09:30 - 12:30 / 14:00 - 17:30, Tuesday: 09:30 - 12:30 / 14:00 - 17:30, Wednesday: 09:30 - 12:30 / 14:00 - 17:30, Thursday: 09:30 - 12:30 / 14:00 - 17:30, Friday: 09:30 - 12:30 / 14:00 - 17:30, Saturday: 09:30 - 12:30","opening":"Mo 09:30-12:30,14:00-17:30; Tu 09:30-12:30,14:00-17:30; We 09:30-12:30,14:00-17:30; Th 09:30-12:30,14:00-17:30; Fr 09:30-12:30,14:00-17:30; Sa 09:30-12:30"},"title":"Sandfields Library"},"type":"Feature"},
		{"geometry":{"coordinates":[-3.65077,51.53163],"type":"Point"},"properties":{"_source":"warm_welcome","address":"Cefn Cribwr Community Centre, Mid Glamorgan CF32 0AW","description":"Free cafe (donations welcome) cards dominoes books run alongside Community Pantry","hours":{"_text":"Tuesday: 12:30 - 01:45","opening":"Tu 12:30-01:45"},"title":"The Greenhall Cefn Cribwr Community Centre"},"type":"Feature"},
		{"geometry":{"coordinates":[-3.67813,51.53347],"type":"Point"},"properties":{"_source":"warm_spaces","address":"9 Prince Road, Bridgend, Wales, CF33 6ED, United Kingdom","hours":{"_text":"Mon 9:30am-12:30pm, Tue 10am-2pm","opening":"Mo 09:30-12:30; Tu 10:00-14:00"},"title":"Talbot Community Centre","url":"https://www.facebook.com/TalbotCCKenfigHill"},"type":"Feature"},
		{"geometry":{"coordinates":[-3.68309,51.53158],"type":"Point"},"properties":{"_source":"warm_spaces","address":"Pisgah Street, Bridgend, Wales, CF33 6BU, United Kingdom","description":"Free Food/Drink, Free Wi-Fi, Device Charging, People to chat to, Space to work, Toilets, Accessible Toilet, Parking, Pet Friendly","hours":{"_text":"Wed 10am-2pm.","opening":"We 10:00-14:00"},"title":"Kenfig Hill RFC","url":"Venue Type: Opening Hours: Location Features: Find out more Get Directions ►"},"type":"Feature"},
		{"geometry":{"coordinates":[-3.69963,51.47733],"type":"Point"},"properties":{"_source":"warm_spaces","address":"Eastern Promenade, Porthcawl, Wales, United Kingdom","description":"Free Food/Drink, Device Charging, People to chat to, Space to work, Wheelchair Accessible, Toilets, Accessible Toilet, Child Friendly","hours":{"_text":"Wednesday/Sunday 10am-4pm","opening":"We 10:00-16:00; Su 10:00-16:00"},"title":"Porthcawl Griffin Park Pavilion","url":"https://www.porthcawlcs.weebky.com"},"type":"Feature"},
		{"geometry":{"coordinates":[-3.70433,51.52184],"type":"Point"},"properties":{"_source":"warm_spaces","address":"North Cornelly Playgroup, Integrated centre, Greenfield Terrace, Bridgend, Wales, CF33 4LW, United Kingdom","description":"Free Food/Drink, Advice, People to chat to, Pay it forward scheme","hours":{"_text":"Wednesdays, term time 11.45am-12.30pm. Families."},"title":"NCP Warm Space &amp; Wellbeing Wednesday"},"type":"Feature"},
		{"geometry":{"coordinates":[-3.79614,51.59569],"type":"Point"},"properties":{"_source":"warm_spaces","address":"Bethel Community Church, Sandfields Road, Port Talbot, Wales, SA12 6LR, United Kingdom","description":"Free Food/Drink, Free Wi-Fi, Device Charging, Advice, People to chat to, Space to work","hours":{"_text":"Tues &amp; Thu 12pm-3pm; Fri 10:30am-1pm","opening":"Tu 12:00-15:00; Th 12:00-15:00; Fr 10:30-13:00"},"title":"Bethel Trust Port Talbot","url":"http://www.betheltrustpt.co.uk"},"type":"Feature"},
		{"geometry":{"coordinates":[-3.75821,51.61628],"type":"Point"},"properties":{"_source":"neath_port_talbot_council","address":"Cwmavon Library, Depot Road, Cwmavon, Port Talbot, SA12 9DF","hours":{"_text":"Monday 10.00am - 12.30pm then 2.00pm - 5.30pm.\r\nTuesday 2.00pm - 5.30pm.\r\nWednesday 10.00am - 12.30pm then 2.00pm - 5.30pm.\r\nFriday 9.30am – 1.00pm then 2.00pm - 5.30pm.\r\nSaturday 10.00am - 12.30pm","opening":"Mo 10:00-12:30; Tu 14:00-17:30; We 10:00-12:30; Fr 09:30-13:00; Sa 10:00-12:30"},"title":"Cwmafan Library"},"type":"Feature"},
		{"geometry":{"coordinates":[-3.78486,51.59712],"type":"Point"},"properties":{"_source":"neath_port_talbot_council","address":"Port Talbot Library, Aberafan Shopping Centre, Port Talbot, Port Talbot, SA13 1PB","hours":{"_text":"Monday-Friday 9:00am - 5:30pm\r\nSaturdays 9.00am - 4:30pm","opening":"Mo-Fr 09:00-17:30; Sa 09:00-16:30"},"title":"Port Talbot Library"},"type":"Feature"},
		{"geometry":{"coordinates":[-3.81003,51.59826],"type":"Point"},"properties":{"_source":"neath_port_talbot_council","address":"Sandfields Library, Morrison Road, Sandfields, Port Talbot, SA12 6TG","hours":{"_text":"Monday 9.30am -12.30pm then 2.00pm - 5.00pm.\r\nTuesday - Friday 9.30am -12.30pm then 2.00 pm - 5.30pm.\r\nSaturday 9.30am - 12.30pm","opening":"Tu-Fr 09:30-12:30; Mo 09:30-12:30; Sa 09:30-12:30"},"title":"Sandfields Library"},"type":"Feature"},
		{"geometry":{"coordinates":[-3.77174,51.58615],"type":"Point"},"properties":{"_source":"neath_port_talbot_council","address":"Taibach Library, 5 Commercial Road, Taibach, Port Talbot, SA13 1LN","hours":{"_text":"Monday 10:00-16:00\r\nTuesday 10:00-16:00\r\nThursday 10:00-16:00\r\nSaturday 10:00am -13:00pm","opening":"Mo 10:00-16:00; Tu 10:00-16:00; Th 10:00-16:00; Sa 10:00-13:00"},"title":"Taibach Community Library"},"type":"Feature"},
		{"geometry":{"coordinates":[-3.81631,51.61149],"type":"Point"},"properties":{"_source":"neath_port_talbot_council","address":"Unit 20, Seaway Parade Industrial Estate, Baglan, Port Talbot, SA12 7BR","hours":{"_text":"Monday to Friday 8.00am to 18.00pm\r\nSaturday 9.00am to 18.00pm\r\nSunday 10.00am to 17.00pm","opening":"Mo-Fr 08:00-18:00; Sa 09:00-18:00; Su 10:00-17:00"},"title":"Thrive Group Wales"},"type":"Feature"},
		{"geometry":{"coordinates":[-3.80947,51.60425],"type":"Point"},"properties":{"_source":"neath_port_talbot_council","address":"Baglan Bay Retail Park, Christchurch Road, Aberavon, Port Talbot, SA12 7BZ","hours":{"_text":"Mondays 1.00pm - 3.30pm","opening":"Mo 13:00-15:30"},"title":"Your Voice Advocacy"},"type":"Feature"},
		{"geometry":{"coordinates":[-3.79594,51.59578],"type":"Point"},"properties":{"_source":"neath_port_talbot_council","address":"Bethel Community Church, Sandfields Road, Aberavon","hours":{"_text":"Tuesdays and Thursday 12pm - 3pm\r\nFriday 10.30am - 1.00pm","opening":"Tu 12:00-15:00; Th 12:00-15:00; Fr 10:30-13:00"},"title":"Bethel Community Church"},"type":"Feature"},
		{"geometry":{"coordinates":[-3.82218,51.60657],"type":"Point"},"properties":{"_source":"neath_port_talbot_council","address":"Sandfields Methodist Church, Western Avenue, Sandfields, Port Talbot, SA12 7NF","hours":{"_text":"Daily 10.00am - 12.00pm","opening":"Mo-Su 10:00-12:00"},"title":"Sandfields Methodist Church"},"type":"Feature"},
		{"geometry":{"coordinates":[-3.81633,51.59791],"type":"Point"},"properties":{"_source":"neath_port_talbot_council","address":"Fitzclarence Presbyterian Church Of Wales, Western Avenue, Sandfields, Port Talbot, SA12 7LS","hours":{"_text":"Every Thursday 1200-1400","opening":"Th 12:00-14:00"},"title":"Sandfields Presbyterian Church"},"type":"Feature"},
		{"geometry":{"coordinates":[-3.81155,51.61240],"type":"Point"},"properties":{"_source":"neath_port_talbot_council","address":"Bulldogs Gym, Fenbrook Close, Aberavon, Port Talbot, SA12 7PA","hours":{"_text":"Monday 10.30am - 12.30pm\r\nTuesday 10am-1pm and 3.30pm-5pm\r\nWednesday 10.30am - 12.30pm\r\nThursday 10.30am - 12.30pm\r\nFriday 10am - 1pm","opening":"Mo 10:30-12:30; Tu 10:00-13:00,15:30-17:00; We 10:30-12:30; Th 10:30-12:30; Fr 10:00-13:00"},"title":"Bulldogs Development Centre"},"type":"Feature"},
		{"geometry":{"coordinates":[-3.78203,51.59484],"type":"Point"},"properties":{"_source":"neath_port_talbot_council","address":"56 Station Road, Port Talbot","hours":{"_text":"Monday - Friday 9am to 5pm","opening":"Mo-Fr 09:00-17:00"},"title":"The Business Community @ Glan Afan"},"type":"Feature"},
		{"geometry":{"coordinates":[-3.77889,51.59130],"type":"Point"},"properties":{"_source":"neath_port_talbot_council","address":"18 Talbot Road, Port Talbot, Port Talbot, SA13 1DN","hours":{"_text":"Mondays 10.00am to 1.00pm","opening":"Mo 10:00-13:00"},"title":"Thrive Women\"s Aid"},"type":"Feature"},
		{"geometry":{"coordinates":[-3.81162,51.60165],"type":"Point"},"properties":{"_source":"neath_port_talbot_council","address":"3 Acacia Avenue, Sandfields, Port Talbot, SA12 7DP","hours":{"_text":"Monday - Friday 6am - 9pm.\r\nSaturday and Sunday 8am-6pm","opening":"Mo-Fr 06:00-21:00; Sa 08:00-18:00; Su 08:00-18:00"},"title":"Vitality Health and Fitness"},"type":"Feature"},
		{"geometry":{"coordinates":[-3.55161,51.43620],"type":"Point"},"properties":{"_source":"vale_of_glamorgan_council","address":"Wick Sports Pavilion, Crwrt y Felon, Wick, Cowbridge, CF71 7QT","contact":"Facebook: Wick Youth Club Vale of Glamorgan.\n07710209437\nWickyouthclub@live.co.uk","description":"Offering a warm place for young people aged 7 to 21 to attend youth club activities every Wednesday.\nAt the same time parents who wish to stay for a warm cup of tea/coffee or hot chocolate are welcome to do so.","hours":{"_text":"Wednesday 16:00 - 19:00\n","opening":"We 16:00-19:00"},"title":"Wick Youth Club"},"type":"Feature"},
		{"geometry":{"coordinates":[-3.59318,51.45934],"type":"Point"},"properties":{"_source":"vale_of_glamorgan_council","address":"St Brides Major Church Hall\nSt Brides Major\nSoutherndown Road\nCF32 0SD","contact":"St Bride's Major Labour (Facebook)","description":"Coffee morning.\nLibrary Service.","hours":{"_text":"Saturday 10:30 - 12:00\n","opening":"Sa 10:30-12:00"},"title":"St Brides Major Church Hall"},"type":"Feature"},
		{"geometry":{"coordinates":[-3.52657,51.47103],"type":"Point"},"properties":{"_source":"vale_of_glamorgan_council","address":"Colwinston village Hall, Colwinston, Cowbridge CF71 7NL","description":"Offering a warm place for young people aged 7 to 21 to attend youth club activities every Wednesday.\nAt the same time parents who wish to stay for a warm cup of tea/coffee or hot chocolate are welcome to do so.","hours":{"_text":"Friday 18:00 – 21:00","opening":"Fr 18:00-21:00"},"title":"Colwinston Youth Club","url":"https://www.colwinston.info/village_hall.html"},"type":"Feature"}
	]
}
