{
	"type": "FeatureCollection",
	"features": [
		{"geometry":{"coordinates":[-3.75837,51.61598],"type":"Point"},"properties":{"_source":"warm_welcome","address":"Cwmafan Evangelical Church, SA12 9DF","description":"SPACE OPENING ON 2nd November 2023** The space is open to all","hours":{"_text":"Thursday: 10:00 - 13:00","opening":"Th 10:00-13:00"},"title":"Cwmafan Evangelical Church"},"type":"Feature"},
		{"geometry":{"coordinates":[-3.75837,51.61598],"type":"Point"},"properties":{"_source":"warm_welcome","address":"County Borough Of Neath & Port Talbot, Port Talbot, Neath Port Talbot SA12 9DF","description":"Public library space open to all.","hours":{"_text":"Monday: 10:00 - 12:30 / 14:00 - 17:30, Tuesday: 14:00 - 17:30, Wednesday: 10:00 - 12:30 / 14:00 - 17:30, Friday: 09:30 - 13:00 / 14:00 - 17:30, Saturday: 10:00 - 12:30","opening":"Mo 10:00-12:30,14:00-17:30; Tu 14:00-17:30; We 10:00-12:30,14:00-17:30; Fr 09:30-13:00,14:00-17:30; Sa 10:00-12:30"},"title":"Cwmafan Library"},"type":"Feature"},
		{"geometry":{"coordinates":[-3.78556,51.59695],"type":"Point"},"properties":{"_source":"warm_welcome","address":"Port Talbot Library, Port Talbot, Neath Port Talbot SA13 1PB","description":"Public library space, open to all.","hours":{"_text":"Monday: 09:00 - 17:30, Tuesday: 09:00 - 17:30, Wednesday: 09:00 - 17:30, Thursday: 09:00 - 17:30, Friday: 09:00 - 17:30, Saturday: 09:00 - 16:30","opening":"Mo 09:00-17:30; Tu 09:00-17:30; We 09:00-17:30; Th 09:00-17:30; Fr 09:00-17:30; Sa 09:00-16:30"},"title":"Port Talbot Library"},"type":"Feature"},
		{"geometry":{"coordinates":[-3.81057,51.59873],"type":"Point"},"properties":{"_source":"warm_welcome","address":"Sandfields Library, Port Talbot, Neath Port Talbot SA12 6TG","description":"Public library space, open to all.","hours":{"_text":"Monday: 09:30 - 12:30 / 14:00 - 17:30, Tuesday: 09:30 - 12:30 / 14:00 - 17:30, Wednesday: 09:30 - 12:30 / 14:00 - 17:30, Thursday: 09:30 - 12:30 / 14:00 - 17:30, Friday: 09:30 - 12:30 / 14:00 - 17:30, Saturday: 09:30 - 12:30","opening":"Mo 09:30-12:30,14:00-17:30; Tu 09:30-12:30,14:00-17:30; We 09:30-12:30,14:00-17:30; Th 09:30-12:30,14:00-17:30; Fr 09:30-12:30,14:00-17:30; Sa 09:30-12:30"},"title":"Sandfields Library"},"type":"Feature"},
		{"geometry":{"coordinates":[-3.59070,51.57242],"type":"Point"},"properties":{"_source":"warm_welcome","address":"Tanio, Bridgend, Mid Glamorgan CF32 8SU","description":"Celf a Cinio / Craft and Lunch - Drop in Warm Hub for over 18's. Free warm lunch and some creative activities.","hours":{"_text":"Wednesday: 13:00 - 16:00","opening":"We 13:00-16:00"},"title":"Tanio HQ"},"type":"Feature"},
		{"geometry":{"coordinates":[-3.65077,51.53163],"type":"Point"},"properties":{"_source":"warm_welcome","address":"Cefn Cribwr Community Centre, Mid Glamorgan CF32 0AW","description":"Free cafe (donations welcome) cards dominoes books run alongside Community Pantry","hours":{"_text":"Tuesday: 12:30 - 01:45","opening":"Tu 12:30-01:45"},"title":"The Greenhall Cefn Cribwr Community Centre"},"type":"Feature"},
		{"geometry":{"coordinates":[-3.55791,51.50689],"type":"Point"},"properties":{"_source":"bridgend_association_of_voluntary_organisations","address":"Brackla Community Centre, Oak Tree Surgery, Whitehorn Drive, Brackla, Bridgend, CF31 2PQ","description":"What to expect: Warm space with drinks and snacks. Opportunities to meet others, socialise, and participate in a book exchange","hours":{"_text":"Tuesday Morning (contact for times)"},"loc_pcd":true,"title":"Brackla Community Council"},"type":"Feature"},
		{"geometry":{"coordinates":[-3.57932,51.50610],"type":"Point"},"properties":{"_source":"bridgend_association_of_voluntary_organisations","address":"46-48 Dunraven Place, Bridgend, CF31 1JB","description":"What to expect:. Interactive games and free activities","hours":{"_text":"Monday – Friday, 9 AM – 4 PM","opening":"Mo-Fr 09:00-16:00"},"loc_pcd":true,"title":"The Bridge"},"type":"Feature"},
		{"geometry":{"coordinates":[-3.57634,51.50114],"type":"Point"},"properties":{"_source":"bridgend_association_of_voluntary_organisations","address":"12 Ewenny Road, Bridgend, CF31 3HP","description":"What to expect: Socialising, light lunch, refreshments. Pool table, darts, games, newspapers, TV","hours":{"_text":"Wednesdays, 10 AM – 2 PM","opening":"We 10:00-14:00"},"loc_pcd":true,"title":"Bridgend Athletic RFC"},"type":"Feature"},
		{"geometry":{"coordinates":[-3.57635,51.50269],"type":"Point"},"properties":{"_source":"bridgend_association_of_voluntary_organisations","address":"77A Nolton St, CF31 3AE","description":"What to expect: Warmth and social interaction. Cooking skills and free food. First aid lessons","hours":{"_text":"Tuesday, Thursday &amp; Sunday, 10 AM – 2 PM","opening":"Tu 10:00-14:00; Th 10:00-14:00; Su 10:00-14:00"},"loc_pcd":true,"title":"Compassion Network"},"type":"Feature"},
		{"geometry":{"coordinates":[-3.58235,51.50320],"type":"Point"},"properties":{"_source":"bridgend_association_of_voluntary_organisations","address":"Bridgend Life Centre, Indoor Bowls Club, Angel St, Bridgend, CF31 4AH","description":"What to expect: Indoor bowling and refreshments","hours":{"_text":"7 days a week"},"loc_pcd":true,"title":"Ogwr Indoor Bowls Club"},"type":"Feature"},
		{"geometry":{"coordinates":[-3.57763,51.50180],"type":"Point"},"properties":{"_source":"bridgend_association_of_voluntary_organisations","address":"Oldcastle Primary School, South Street, Bridgend, CF31 3ED","description":"What to expect: Food and refreshments, hot meals. Exercise, art, and cultural activities","hours":{"_text":"School hours during term time"},"loc_pcd":true,"title":"Oldcastle Primary School"},"type":"Feature"},
		{"geometry":{"coordinates":[-3.58482,51.51963],"type":"Point"},"properties":{"_source":"bridgend_association_of_voluntary_organisations","address":"7, The Precinct, Wildmill, Bridgend, CF31 1SP","description":"What to expect: Arts and crafts. Vegetable and flower planting. Activities for children","hours":{"_text":"Every Wednesday, 4:30 PM – 6:30 PM","opening":"We 16:30-06:30"},"loc_pcd":true,"title":"Wildmill Youth Club"},"type":"Feature"},
		{"geometry":{"coordinates":[-3.59295,51.51098],"type":"Point"},"properties":{"_source":"bridgend_association_of_voluntary_organisations","address":"West Ward Community Centre, Llangewydd Road, Bridgend, CF31 4JR","description":"Location: Bridgend. What to expect: Family-friendly activities after school (please note: parents must stay with children). Arts and crafts, reading area, Wi-Fi. Outdoor games available","hours":{"_text":"Friday afternoon, 3:30 PM – 6 PM","opening":"Fr 15:30-06:00"},"loc_pcd":true,"title":"West Ward Community Centre"},"type":"Feature"},
		{"geometry":{"coordinates":[-3.57812,51.50393],"type":"Point"},"properties":{"_source":"bridgend_association_of_voluntary_organisations","address":"St Mary’s Church, Nolton, Bridgend, CF31 3NH","description":"What to expect: Hot drinks and snacks. Socialising in a warm environment","hours":{"_text":"Last Friday of every month, commencing January 31st"},"loc_pcd":true,"title":"St Mary’s Nolton Church"},"type":"Feature"},
		{"geometry":{"coordinates":[-3.60837,51.51014],"type":"Point"},"properties":{"_source":"bridgend_association_of_voluntary_organisations","address":"Bryntirion Community Centre, Mount Pleasant, Bryntirion, Bridgend, CF31 4EF","description":"What to expect: Socialising and making new friends. Games like Bingo. Refreshments and food. Guest speakers and music events. Open to anyone in the local community","hours":{"_text":"Friday afternoon, 1pm-4pm","opening":"Fr 13:00-16:00"},"loc_pcd":true,"title":"Young at Heart"},"type":"Feature"},
		{"geometry":{"coordinates":[-3.60954,51.52507],"type":"Point"},"properties":{"_source":"bridgend_association_of_voluntary_organisations","address":"Heol Eglwys, Pen-Y-Fai, Bridgend, CF31 4NG","description":"What to expect: Free light lunch. Good company and conversation","hours":{"_text":"Final Thursday of each month"},"loc_pcd":true,"title":"All Saints Church"},"type":"Feature"},
		{"geometry":{"coordinates":[-3.68344,51.48568],"type":"Point"},"properties":{"_source":"bridgend_association_of_voluntary_organisations","address":"42 Newton Road, Porthcawl, CF36 5RR","hours":{"_text":"Thursday&#8217;s, 1pm– 2:30pm"},"loc_pcd":true,"title":"Gwella CBC"},"type":"Feature"},
		{"geometry":{"coordinates":[-3.69192,51.52966],"type":"Point"},"properties":{"_source":"bridgend_association_of_voluntary_organisations","address":"Off Pyle Inn Way, Pyle, Bridgend, CF33 6AB","description":"What to expect: Free hot drinks. Warm packs. Affordable food","hours":{"_text":"Wednesdays, 2:00 PM &#8211; 5:00 PM"},"loc_pcd":true,"title":"KPC Youth &amp; Community"},"type":"Feature"},
		{"geometry":{"coordinates":[-3.69814,51.52609],"type":"Point"},"properties":{"_source":"bridgend_association_of_voluntary_organisations","address":"Pyle RFC, Brynglas Terrace, CF33 6AR","description":"Location: Pyle. What to expect: A warm, safe space to socialise","hours":{"_text":"Monday morning &amp; Wednesday evening"},"loc_pcd":true,"title":"Pyle RFC"},"type":"Feature"},
		{"geometry":{"coordinates":[-3.68760,51.52922],"type":"Point"},"properties":{"_source":"bridgend_association_of_voluntary_organisations","address":"Community-Based Centre, North Avenue, Pyle, Bridgend, CF33 6ND","description":"What to expect: Comfortable, warm space. Warm drinks. Device charging. Socialise &amp; play games","hours":{"_text":"Wednesday afternoon, 1:00 PM &#8211; 3:00 PM"},"loc_pcd":true,"title":"SPLICE"},"type":"Feature"},
		{"geometry":{"coordinates":[-3.69250,51.52774],"type":"Point"},"properties":{"_source":"bridgend_association_of_voluntary_organisations","address":"St James’ Church, Pyle Road, Pyle, Bridgend, CF33 6PG","description":"What to expect: Warm, welcoming atmosphere. Breakfast. Homemade soup. Food pantry. Visits from organisations that can support people","hours":{"_text":"Saturday morning"},"loc_pcd":true,"title":"Rectorial Benefice of Margam (Pyle Family Breakfast)"},"type":"Feature"},
		{"geometry":{"coordinates":[-3.69550,51.52020],"type":"Point"},"properties":{"_source":"bridgend_association_of_voluntary_organisations","address":"1 Llwyn, North Cornelly, CF33 4EA","description":"What to expect: Warm food. A safe space for the community","hours":{"_text":"Weekdays, 11:30 AM – 1:30 PM","opening":"Mo-Fr 11:30-13:30"},"loc_pcd":true,"title":"Cornelly Outreach Group"},"type":"Feature"},
		{"geometry":{"coordinates":[-3.70595,51.52181],"type":"Point"},"properties":{"_source":"bridgend_association_of_voluntary_organisations","address":"45/47 Heol Fach, North Cornelly, Bridgend, CF33 4LN","description":"What to expect: Wifi, computers, books, and games. Befriending services and crafts. Device charging, free hygiene products. Breakfast, lunch, and light refreshments available","hours":{"_text":"6th January 2025 – 31st March 2025, Monday to Friday, 9:15 AM – 4 PM","opening":"Mo-Fr 09:15-16:00"},"loc_pcd":true,"title":"AMDANI"},"type":"Feature"},
		{"geometry":{"coordinates":[-3.67757,51.53423],"type":"Point"},"properties":{"_source":"bridgend_association_of_voluntary_organisations","address":"The Talbot Community Institute, Prince Road, Kenfig Hill, CF33 6ED","description":"What to expect: Space offering free drinks and snacks. Crafting activities, games, and quiet time. Signposting support available","hours":{"_text":"Weekdays, 9 AM – 8 PM","opening":"Mo-Fr 09:00-20:00"},"loc_pcd":true,"title":"Future Focus"},"type":"Feature"},
		{"geometry":{"coordinates":[-3.67757,51.53423],"type":"Point"},"properties":{"_source":"bridgend_association_of_voluntary_organisations","address":"9 Prince Road, Kenfig Hill, CF33 6ED","description":"When/What to expect: Monday &amp; Friday: Bingo, 1 PM – 3 PM. Monday &amp; Tuesday: Coffee morning, 10 AM – 12 PM. Wednesday AM: Tots &amp; Toddlers, 10 AM – 1 PM","loc_pcd":true,"title":"Talbot Community Centre"},"type":"Feature"},
		{"geometry":{"coordinates":[-3.56851,51.54832],"type":"Point"},"properties":{"_source":"bridgend_association_of_voluntary_organisations","address":"Bryncethin Community Centre, Ogmore Terrace, Bryncethin, Bridgend, CF32 9YF","description":"What to expect: Hot soup. Refreshments. Bingo. Games. Internet advice. How to apply for grants. Signpost support","hours":{"_text":"Thursday afternoon, 1:00 PM &#8211; 4:00 PM, starting February"},"loc_pcd":true,"title":"Bryncethin RFC"},"type":"Feature"},
		{"geometry":{"coordinates":[-3.59585,51.54493],"type":"Point"},"properties":{"_source":"bridgend_association_of_voluntary_organisations","address":"Unit 40, Tondu Enterprise Park, Tondu, Bridgend, CF32 9BS","description":"What to expect: Hot meal. Refreshments. Warm, safe environment. Open to new members","hours":{"_text":"Every Friday between 9:00 AM &amp; 1:00 PM"},"loc_pcd":true,"title":"Squirrels Nest"},"type":"Feature"},
		{"geometry":{"coordinates":[-3.60891,51.48571],"type":"Point"},"properties":{"_source":"bridgend_association_of_voluntary_organisations","address":"St Teilo&#8217;s Church, Merthyr Mawr, Bridgend, CF32 0LS","description":"What to expect: Hot drinks. Homemade cakes. Arts and crafts","hours":{"_text":"Second Thursday of each month, 10:30 AM – 12:30 PM","opening":"Th[2] 10:30-12:30"},"loc_pcd":true,"title":"St Teilo’s Church"},"type":"Feature"},
		{"geometry":{"coordinates":[-3.66177,51.60844],"type":"Point"},"properties":{"_source":"bridgend_association_of_voluntary_organisations","address":"Hartshorn House, 1st Floor, Health &amp; Well Being Centre, Neath Road, CF34 9EE","description":"What to expect: Parent/carer coffee morning. Crafts, activities, teas, coffees, biscuits, cakes. Help and information available","hours":{"_text":"Friday, 10 AM – 1 PM","opening":"Fr 10:00-13:00"},"loc_pcd":true,"title":"SEN-Sational Bonds"},"type":"Feature"},
		{"geometry":{"coordinates":[-3.65625,51.60609],"type":"Point"},"properties":{"_source":"bridgend_association_of_voluntary_organisations","address":"4 Station Street, Maesteg, CF34 9AL","description":"When: TBD (please contact BAVO for more information). What to expect: For young people aged 11-25. Games, pool, music, kitchen, relaxation, food, and drinks","loc_pcd":true,"title":"Llynfi 11-25 Project"},"type":"Feature"},
		{"geometry":{"coordinates":[-3.60249,51.55626],"type":"Point"},"properties":{"_source":"bridgend_association_of_voluntary_organisations","address":"Philip Squire Community Centre, Bridgend Road, Coytrahen, Bridgend, CF32 0DN","description":"What to expect: Games and quizzes. TV and music centre. Warm, safe space to relax","hours":{"_text":"Every Monday morning"},"loc_pcd":true,"title":"Coytrahen Community Centre"},"type":"Feature"},
		{"geometry":{"coordinates":[-3.60304,51.56491],"type":"Point"},"properties":{"_source":"bridgend_association_of_voluntary_organisations","address":"The Barn, Pentwyn Farm, Coytrahen, Bridgend, CF32 0EE","description":"What to expect: Socialising and playing games. Woodworking activities. Refreshments available","hours":{"_text":"Monday – Friday, 9 AM – 12 PM","opening":"Mo-Fr 09:00-12:00"},"loc_pcd":true,"title":"Housemartins"},"type":"Feature"},
		{"geometry":{"coordinates":[-3.59076,51.57231],"type":"Point"},"properties":{"_source":"bridgend_association_of_voluntary_organisations","address":"Sardis Media Centre, Heol Dewi Sant, Bettws, Bridgend, CF32 8SU","description":"What to expect: Device charging and hot food. Creative activities","hours":{"_text":"Wednesday afternoons, 1:00 PM &#8211; 4:00 PM"},"loc_pcd":true,"title":"Tanio"},"type":"Feature"},
		{"geometry":{"coordinates":[-3.59076,51.57231],"type":"Point"},"properties":{"_source":"bridgend_association_of_voluntary_organisations","address":"Sardis Media Centre, Heol Dewi Sant, Bettws, Bridgend, CF32 8SU","description":"When: Monday to Sunday (daytime), 8:30 AM &#8211; 2:00 PM. Monday to Friday (evenings), from 6:00 PM","loc_pcd":true,"title":"Bettws Café"},"type":"Feature"},
		{"geometry":{"coordinates":[-3.56674,51.57705],"type":"Point"},"properties":{"_source":"bridgend_association_of_voluntary_organisations","address":"Richard Price Community Centre, Bettws Road, Llangeinor, CF32 8PF","description":"What to expect: Social activities, games, and exercise. Wellbeing sessions and refreshments. Access to WiFi","hours":{"_text":"Weekdays, 9:30 AM &#8211; 12:00 PM (running until February 25th)","opening":"Mo-Fr 09:30-12:00"},"loc_pcd":true,"title":"Richard Price Community Centre"},"type":"Feature"},
		{"geometry":{"coordinates":[-3.79588,51.59575],"type":"Point"},"properties":{"_source":"neath_port_talbot_council","address":"Bethel Community Church, Sandfields Road, Aberavon, Port Talbot, SA12 6LR","hours":{"_text":"Tuesdays and Thursday 12pm - 3pm Friday 10.30am - 1.00pm","opening":"Tu 12:00-15:00; Th 12:00-15:00; Fr 10:30-13:00"},"title":"Bethel Community Church","url":"https://www.npt.gov.uk/business/npt-warm-spaces/business-profile/?b=30"},"type":"Feature"},
		{"geometry":{"coordinates":[-3.81149,51.61237],"type":"Point"},"properties":{"_source":"neath_port_talbot_council","address":"Bulldogs Gym, Fenbrook Close, Aberavon, Port Talbot, SA12 7PA","hours":{"_text":"Monday 10.30am - 12.30pm Tuesday 10am-1pm and 3.30pm-5pm Wednesday 10.30am - 12.30pm Thursday 10.30am - 12.30pm Friday 10am - 1pm","opening":"Mo 10:30-12:30; Tu 10:00-13:00,15:30-17:00; We 10:30-12:30; Th 10:30-12:30; Fr 10:00-13:00"},"title":"Bulldogs Development Centre","url":"https://www.npt.gov.uk/business/npt-warm-spaces/business-profile/?b=40"},"type":"Feature"},
		{"geometry":{"coordinates":[-3.75815,51.61625],"type":"Point"},"properties":{"_source":"neath_port_talbot_council","address":"Cwmavon Library, Depot Road, Cwmavon, Port Talbot, SA12 9DF","hours":{"_text":"Monday 10.00am - 12.30pm then 2.00pm - 5.30pm. Tuesday 2.00pm - 5.30pm. Wednesday 10.00am - 12.30pm then 2.00pm - 5.30pm. Friday 9.30am – 1.00pm then 2.00pm - 5.30pm. Saturday 10.00am - 12.30pm","opening":"Mo 10:00-12:30; Tu 14:00-17:30; We 10:00-12:30; Fr 09:30-13:00; Sa 10:00-12:30"},"title":"Cwmafan Library","url":"https://www.npt.gov.uk/business/npt-warm-spaces/business-profile/?b=15"},"type":"Feature"},
		{"geometry":{"coordinates":[-3.78480,51.59709],"type":"Point"},"properties":{"_source":"neath_port_talbot_council","address":"Port Talbot Library, Aberafan Shopping Centre, Port Talbot, Port Talbot, SA13 1PB","hours":{"_text":"Monday-Friday 9:00am - 5:30pm Saturdays 9.00am - 4:30pm","opening":"Mo-Fr 09:00-17:30; Sa 09:00-16:30"},"title":"Port Talbot Library","url":"https://www.npt.gov.uk/business/npt-warm-spaces/business-profile/?b=13"},"type":"Feature"},
		{"geometry":{"coordinates":[-3.80997,51.59823],"type":"Point"},"properties":{"_source":"neath_port_talbot_council","address":"Sandfields Library, Morrison Road, Sandfields, Port Talbot, SA12 6TG","hours":{"_text":"Monday 9.30am -12.30pm then 2.00pm - 5.00pm. Tuesday - Friday 9.30am -12.30pm then 2.00 pm - 5.30pm. Saturday 9.30am - 12.30pm","opening":"Tu-Fr 09:30-12:30; Mo 09:30-12:30; Sa 09:30-12:30"},"title":"Sandfields Library","url":"https://www.npt.gov.uk/business/npt-warm-spaces/business-profile/?b=9"},"type":"Feature"},
		{"geometry":{"coordinates":[-3.82211,51.60654],"type":"Point"},"properties":{"_source":"neath_port_talbot_council","address":"Sandfields Methodist Church, Western Avenue, Sandfields, Port Talbot, SA12 7NF","hours":{"_text":"Daily 10.00am - 12.00pm","opening":"Mo-Su 10:00-12:00"},"title":"Sandfields Methodist Church","url":"https://www.npt.gov.uk/business/npt-warm-spaces/business-profile/?b=5"},"type":"Feature"},
		{"geometry":{"coordinates":[-3.81627,51.59788],"type":"Point"},"properties":{"_source":"neath_port_talbot_council","address":"Fitzclarence Presbyterian Church Of Wales, Western Avenue, Sandfields, Port Talbot, SA12 7LS","hours":{"_text":"Every Thursday 1200-1400","opening":"Th 12:00-14:00"},"title":"Sandfields Presbyterian Church","url":"https://www.npt.gov.uk/business/npt-warm-spaces/business-profile/?b=201"},"type":"Feature"},
		{"geometry":{"coordinates":[-3.77168,51.58613],"type":"Point"},"properties":{"_source":"neath_port_talbot_council","address":"Taibach Library, 5 Commercial Road, Taibach, Port Talbot, SA13 1LN","hours":{"_text":"Monday 10:00-16:00 Tuesday 10:00-16:00 Thursday 10:00-16:00 Saturday 10:00am -13:00pm","opening":"Mo 10:00-16:00; Tu 10:00-16:00; Th 10:00-16:00; Sa 10:00-13:00"},"title":"Taibach Community Library","url":"https://www.npt.gov.uk/business/npt-warm-spaces/business-profile/?b=22"},"type":"Feature"},
		{"geometry":{"coordinates":[-3.78197,51.59482],"type":"Point"},"properties":{"_source":"neath_port_talbot_council","address":"56 Station Road, Port Talbot","hours":{"_text":"Monday - Friday 9am to 5pm","opening":"Mo-Fr 09:00-17:00"},"title":"The Business Community @ Glan Afan","url":"https://www.npt.gov.uk/business/npt-warm-spaces/business-profile/?b=31"},"type":"Feature"},
		{"geometry":{"coordinates":[-3.81624,51.61146],"type":"Point"},"properties":{"_source":"neath_port_talbot_council","address":"Unit 20, Seaway Parade Industrial Estate, Baglan, Port Talbot, SA12 7BR","hours":{"_text":"Monday to Friday 8.00am to 18.00pm Saturday 9.00am to 18.00pm Sunday 10.00am to 17.00pm","opening":"Mo-Fr 08:00-18:00; Sa 09:00-18:00; Su 10:00-17:00"},"title":"Thrive Group Wales","url":"https://www.npt.gov.uk/business/npt-warm-spaces/business-profile/?b=202"},"type":"Feature"},
		{"geometry":{"coordinates":[-3.77883,51.59127],"type":"Point"},"properties":{"_source":"neath_port_talbot_council","address":"18 Talbot Road, Port Talbot, Port Talbot, SA13 1DN","hours":{"_text":"Mondays 10.00am to 1.00pm","opening":"Mo 10:00-13:00"},"title":"Thrive Women\"s Aid","url":"https://www.npt.gov.uk/business/npt-warm-spaces/business-profile/?b=3"},"type":"Feature"},
		{"geometry":{"coordinates":[-3.81156,51.60162],"type":"Point"},"properties":{"_source":"neath_port_talbot_council","address":"3 Acacia Avenue, Sandfields, Port Talbot, SA12 7DP","hours":{"_text":"Monday - Friday 6am - 9pm. Saturday and Sunday 8am-6pm","opening":"Mo-Fr 06:00-21:00; Sa 08:00-18:00; Su 08:00-18:00"},"title":"Vitality Health and Fitness","url":"https://www.npt.gov.uk/business/npt-warm-spaces/business-profile/?b=17"},"type":"Feature"},
		{"geometry":{"coordinates":[-3.80941,51.60423],"type":"Point"},"properties":{"_source":"neath_port_talbot_council","address":"Baglan Bay Retail Park, Christchurch Road, Aberavon, Port Talbot, SA12 7BZ","hours":{"_text":"Mondays 1.00pm - 3.30pm","opening":"Mo 13:00-15:30"},"title":"Your Voice Advocacy","url":"https://www.npt.gov.uk/business/npt-warm-spaces/business-profile/?b=4"},"type":"Feature"},
		{"geometry":{"coordinates":[-3.55161,51.43620],"type":"Point"},"properties":{"_source":"vale_of_glamorgan_council","address":"Wick Sports Pavilion, Crwrt y Felon, Wick, Cowbridge, CF71 7QT","description":"Wick Food Hub and Warm Space – Food for people to share and take away, and free refreshments, alternate Saturday mornings (2nd and 4th each month)\nWick Youth Club - Offering a warm place for young people aged 7 to 21 to attend youth club activities every Wednesday. At the same time parents who wish to stay for a warm cup of tea/coffee or hot chocolate are welcome to do so.","hours":{"_text":"Wednesday 16:00 - 19:00\nSaturday 10:00 - 12:00","opening":"We 16:00-19:00; Sa 10:00-12:00"},"title":"Wick Sports Pavilion"},"type":"Feature"},
		{"geometry":{"coordinates":[-3.52657,51.47103],"type":"Point"},"properties":{"_source":"vale_of_glamorgan_council","address":"Colwinston village Hall, Colwinston, Cowbridge CF71 7NL","description":"Offering a warm place for young people aged 7 to 21 to attend youth club activities every Wednesday.\nAt the same time parents who wish to stay for a warm cup of tea/coffee or hot chocolate are welcome to do so.","hours":{"_text":"Friday 18:00 – 21:00","opening":"Fr 18:00-21:00"},"title":"Colwinston Youth Club","url":"https://www.colwinston.info/village_hall.html"},"type":"Feature"}
	]
}
