{
	"type": "FeatureCollection",
	"features": [
		{"geometry":{"coordinates":[-3.58027,51.50365],"type":"Point"},"properties":{"_source":"warm_welcome","address":"Bridgend Library, Halo Leisure Centre, Angel Street, Bridgend , Bridgend CF31 4AH","description":"We cater to all ages and are passionate about inclusivity. Our facilities and events are completely free, and we are also offering free hot drinks to all users this winter.","hours":{"_text":"Monday: 9:00 - 6:00, Tuesday: 9:00 - 8:00, Wednesday: 9:00 - 6:00, Thursday: 9:00 - 8:00, Friday: 9:00 - 6:00, Saturday: 9:00 - 5:00","opening":"Mo 09:00-06:00; Tu 09:00-08:00; We 09:00-06:00; Th 09:00-08:00; Fr 09:00-06:00; Sa 09:00-05:00"},"title":"Bridgend Library"},"type":"Feature"},
		{"geometry":{"coordinates":[-3.65070,51.53158],"type":"Point"},"properties":{"_source":"warm_welcome","address":"Cefn Cribwr Community Centre, Cefn Road , Cefn Cribwr , Bridgend cf32 0aw","description":"also includes community pantry","hours":{"_text":"Tuesday: 13:00 - 14:00","opening":"Tu 13:00-14:00"},"title":"Cefn Cribwr Community Association"},"type":"Feature"},
		{"geometry":{"coordinates":[-3.70509,51.47776],"type":"Point"},"properties":{"_source":"warm_welcome","address":"16-18, Porthcawl Town Council, Bridgend CF36 3YA","hours":{"_text":"Wednesday: 10:00 - 16:00, Sunday: 10:00 - 16:00","opening":"We 10:00-16:00; Su 10:00-16:00"},"title":"Porthcawl Town council"},"type":"Feature"},
		{"geometry":{"coordinates":[-3.77079,51.58564],"type":"Point"},"properties":{"_source":"warm_welcome","address":"5 Commercial Road, Taibach, Port Talbot SA13 1LN","hours":{"_text":"Monday: 10:00 - 16:00, Tuesday: 10:00 - 16:00, Thursday: 10:00 - 16:00, Saturday: 10:00 - 13:00","opening":"Mo 10:00-16:00; Tu 10:00-16:00; Th 10:00-16:00; Sa 10:00-13:00"},"title":"Taibach Community Library"},"type":"Feature"},
		{"geometry":{"coordinates":[-3.59060,51.57281],"type":"Point"},"properties":{"_source":"warm_welcome","address":"Sardis Media Centre,, Heol Dewi Sant,, Bettws, Bridgend CF32 8SU","description":"Open from 09-01=2023. The Wednesday afternoon session is for Young people (10-18) Our session will have an artist on site, so you can do some crafts, make some arts or just play board games and hangout","hours":{"_text":"Monday: 10:30 - 15:30, Wednesday: 16:00 - 18:00","opening":"Mo 10:30-15:30; We 16:00-18:00"},"title":"Tanio Limited"},"type":"Feature"},
		{"geometry":{"coordinates":[-3.55161,51.43620],"type":"Point"},"properties":{"_source":"vale_of_glamorgan_council","address":"Wick Sports Pavilion, Crwrt y Felon, Wick, Cowbridge, CF71 7QT","contact":"Facebook: Wick Youth Club Vale of Glamorgan.\n07710209437\nWickyouthclub@live.co.uk","description":"Offering a warm place for young people aged 7 to 21 to attend youth club activities every Wednesday.\nAt the same time parents who wish to stay for a warm cup of tea/coffee or hot chocolate are welcome to do so.","hours":{"_text":"Wednesday 16:00 - 19:00\n","opening":"We 16:00-19:00"},"title":"Wick Youth Club"},"type":"Feature"},
		{"geometry":{"coordinates":[-3.59318,51.45934],"type":"Point"},"properties":{"_source":"vale_of_glamorgan_council","address":"St Brides Major Church Hall\nSt Brides Major\nSoutherndown Road\nCF32 0SD","contact":"St Bride's Major Labour (Facebook)","description":"Coffee morning.\nLibrary Service.","hours":{"_text":"Saturday 10:30 - 12:00\n","opening":"Sa 10:30-12:00"},"title":"St Brides Major Church Hall"},"type":"Feature"}
	]
}
