{
	"type": "FeatureCollection",
	"features": [
		{"geometry":{"coordinates":[-3.83310,51.01813],"type":"Point"},"properties":{"_source":"north_devon_council","address":"Amory House, 125 East St, EX36 3BU","description":"Pop in during their opening hours to enjoy a free tea, coffee, biscuits and (until they run out!) apples! You can relax in their warm and welcoming space with a newspaper, one of their books or a puzzle.","loc_pcd":true,"title":"South Molton Library."},"type":"Feature"},
		{"geometry":{"coordinates":[-3.83211,51.01535],"type":"Point"},"properties":{"_source":"north_devon_council","address":"Mill Street, EX36 4AS.","description":"Monday to Wednesday. 9am until 12pm. Thursday from 3:30pm until 5pm. Friday from 8am until 1pm.","hours":{"_text":"Monday to Wednesday. 9am until 12pm. Thursday from 3:30pm until 5pm. Friday from 8am until 1pm.","opening":"Mo-We 09:00-12:00; Th 15:30-17:00; Fr 08:00-13:00"},"loc_pcd":true,"title":"YMCA Community Centre"},"type":"Feature"},
		{"geometry":{"coordinates":[-3.83238,51.01930],"type":"Point"},"properties":{"_source":"north_devon_council","address":"North Street, EX36 3AW","description":"Saturday afternoons between 2pm and 5pm when there will be tea, coffee and biscuits and option to play table tennis or do some jigsaw puzzles, word puzzles and board games.","hours":{"_text":"Saturday afternoons between 2pm and 5pm when there will be tea, coffee and biscuits and option to play table tennis or do some jigsaw puzzles, word puzzles and board games.","opening":"Sa 14:00-17:00"},"loc_pcd":true,"title":"South Molton Methodist Church."},"type":"Feature"},
		{"geometry":{"coordinates":[-3.83185,51.01749],"type":"Point"},"properties":{"_source":"north_devon_council","address":"9 New Road, EX36 4BH","description":"Wednesdays and Sundays 2pm to 5pm. Tea and coffee provided.","hours":{"_text":"Wednesdays and Sundays 2pm to 5pm. Tea and coffee provided.","opening":"We 14:00-17:00; Su 14:00-17:00"},"loc_pcd":true,"title":"South Molton Baptist Church."},"type":"Feature"},
		{"geometry":{"coordinates":[-3.55093,51.04013],"type":"Point"},"properties":{"_source":"spark_somerset","address":"7-9 Fore Street, Dulverton, TA22 9EX","contact":"Email: dullib@somerset.gov.uk","hours":{"_text":"Tues, Thurs, Fri 10am-1pm and 1:30pm-4pm, Sat 10am-12:30pm","opening":"Tu 10:00-13:00,13:30-16:00; Th 10:00-13:00,13:30-16:00; Fr 10:00-13:00,13:30-16:00; Sa 10:00-12:30"},"title":"Dulverton Library"},"type":"Feature"},
		{"geometry":{"coordinates":[-3.54485,51.03848],"type":"Point"},"properties":{"_source":"spark_somerset","address":"Fishers Mead Community Room, 12 Fishers Mead, Dulverton, TA22 9EN","contact":"Telephone: 01823 331222; Email: info@somersetrcc.org.uk","hours":{"_text":"Thursday 10:30am-12:30pm","opening":"Th 10:30-12:30"},"title":"Talking Café @ MAGNA, Dulverton"},"type":"Feature"}
	]
}
