{
	"type": "FeatureCollection",
	"features": [
		{"geometry":{"coordinates":[-3.67477,50.59360],"type":"Point"},"properties":{"_source":"warm_welcome","address":"37 Fore Street, Bovey Tracey, Newton Abbot TQ13 9AD","description":"","hours":{"_text":"Monday: 10:00 - 16:00, Tuesday: 10:00 - 16:00, Wednesday: 10:00 - 16:00, Thursday: 10:00 - 16:00, Friday: 10:00 - 16:00","opening":"Mo 10:00-16:00; Tu 10:00-16:00; We 10:00-16:00; Th 10:00-16:00; Fr 10:00-16:00"},"title":"Angel Home Care"},"type":"Feature"},
		{"geometry":{"coordinates":[-3.76349,50.66113],"type":"Point"},"properties":{"_source":"warm_welcome","address":"Moretonhampstead Library, Moretonhampstead, Devon TQ13 8LL","description":"Everyone welcome Accessible spaces, WIFI, computers and a variety of activities. Your library is the perfect place to escape the cold, relax. socialise and have a hot drink.","hours":{"_text":"Tuesday: 10:00 - 12:00, Wednesday: 14:00 - 18:00, Saturday: 10:00 - 13:00","opening":"Tu 10:00-12:00; We 14:00-18:00; Sa 10:00-13:00"},"title":"Moretonhampstead Library"},"type":"Feature"},
		{"geometry":{"coordinates":[-3.53038,50.72112],"type":"Point"},"properties":{"_source":"warm_welcome","address":"3 Palace Gate, Exeter, Devon EX1 1JA","description":"Dove Cafe is open to all. Renew Refresh is for adults. Dove Cafe is a community cafe offering a safe and welcoming space for all. We're open every Tuesday from 10:30 - 2pm. Renew Refresh is a safe space in which it's ok not to be ok. This space is open every Thursday from 1:30 - 4pm.","hours":{"_text":"Tuesday: 10:30 - 14:00, Wednesday: 18:30 - 20:30, Thursday: 13:30 - 16:00","opening":"Tu 10:30-14:00; We 18:30-20:30; Th 13:30-16:00"},"title":"South Street Baptist Church"},"type":"Feature"},
		{"geometry":{"coordinates":[-3.53066,50.72094],"type":"Point"},"properties":{"_source":"warm_welcome","address":"South Street , Exeter, Exeter EX1 1EB","description":"Open from 30 Nov 22. We are open to all but especially those feeling lonely Our Chatter Cafe offers a cuppa, warmth, a listening ear and a chat","hours":{"_text":"Wednesday: 10:30 - 12:30","opening":"We 10:30-12:30"},"title":"SVP Chatter Cafe, Sacred Heart RC Church"},"type":"Feature"},
		{"geometry":{"coordinates":[-3.60858,50.52930],"type":"Point"},"properties":{"_source":"warm_welcome","address":"30-32 Union St, Newton Abbot, Devon TQ12 2JS","description":"","hours":{"_text":"Wednesday: 10:00 - 16:00, Friday: 10:00 - 16:00","opening":"We 10:00-16:00; Fr 10:00-16:00"},"title":"The Salvation Army Church & Community Centre"},"type":"Feature"},
		{"geometry":{"coordinates":[-3.53676,50.72722],"type":"Point"},"properties":{"_source":"warm_welcome","address":"St David's Church , Exeter, Devon EX4 4HR","description":"You will be welcome Free music, snacks, and talks, plus djembe drums and kids' zone with soft play","hours":{"_text":"Sunday: 16:00 - 17:30","opening":"Su 16:00-17:30"},"title":"Thrive at St David's Church Exeter"},"type":"Feature"},
		{"geometry":{"coordinates":[-3.53888,50.71830],"type":"Point"},"properties":{"_source":"warm_spaces","address":"Riverside Church, 13-14 Okehampton Street, Exeter, England, EX4 1DU","hours":{"_text":"6pm-9pm"},"title":"Cafe Connect Riverside Church","url":"https://www.loveexeter.com"},"type":"Feature"},
		{"geometry":{"coordinates":[-3.52582,50.72291],"type":"Point"},"properties":{"_source":"warm_spaces","address":"Barnfield Road, Exeter, England, EX1 1SN","hours":{"_text":"Mon-Sat, 10am-4pm (except bank hols)","opening":"Mo-Sa 10:00-16:00"},"title":"The Barnfield Theatre","url":"https://www.exeternorthcott.co.uk"},"type":"Feature"},
		{"geometry":{"coordinates":[-3.60419,50.53068],"type":"Point"},"properties":{"_source":"warm_spaces","address":"96 Queen Street, Newton Abbot, England, TQ12 2ET","hours":{"_text":"Monday 10am-4pm","opening":"Mo 10:00-16:00"},"title":"St Josephs Church","url":"https://www.stjosephsnewtonabbot.org"},"type":"Feature"},
		{"geometry":{"coordinates":[-3.60878,50.52944],"type":"Point"},"properties":{"_source":"warm_spaces","address":"30 Union Street, Newton Abbot, England, TQ12","hours":{"_text":"Wednesday 10am-4pm &amp; Friday 10am-4pm","opening":"We 10:00-16:00; Fr 10:00-16:00"},"title":"The Salvation Army Church &amp; Community Centre","url":"https://www.salvationarmy.org.uk/newton-abbot-church-community-centre"},"type":"Feature"},
		{"geometry":{"coordinates":[-3.67475,50.59351],"type":"Point"},"properties":{"_source":"warm_spaces","address":"37 Fore Street, Newton Abbot, England, TQ13 9AD","hours":{"_text":"Monday - Friday, 10am - 4pm","opening":"Mo-Fr 10:00-16:00"},"title":"Angel Home Care","url":"https://angelhomecare.co.uk"},"type":"Feature"},
		{"geometry":{"coordinates":[-3.67993,50.59287],"type":"Point"},"properties":{"_source":"warm_spaces","address":"Bovey Scout Hut, Mill Marsh Park, Newton Abbot, England, TQ13 9FF","hours":{"_text":"Tue, 12pm-1pm","opening":"Tu 12:00-13:00"},"title":"Bovey Food Hub","url":"https://www.feedingdevon.org.uk"},"type":"Feature"}
	]
}
