{
	"type": "FeatureCollection",
	"features": [
		{"geometry":{"coordinates":[-3.67477,50.59360],"type":"Point"},"properties":{"_source":"warm_welcome","address":"37 Fore Street, Bovey Tracey, Newton Abbot TQ13 9AD","hours":{"_text":"Monday: 10:00 - 16:00, Tuesday: 10:00 - 16:00, Wednesday: 10:00 - 16:00, Thursday: 10:00 - 16:00, Friday: 10:00 - 16:00","opening":"Mo 10:00-16:00; Tu 10:00-16:00; We 10:00-16:00; Th 10:00-16:00; Fr 10:00-16:00"},"title":"Angel Home Care"},"type":"Feature"},
		{"geometry":{"coordinates":[-3.51709,50.71784],"type":"Point"},"properties":{"_source":"warm_welcome","address":"Wonford Road, , Exeter,, Devon, EX2 4UD.","description":"Open from 08-12-2022.","hours":{"_text":"Thursday: 12:00 - 16:00","opening":"Th 12:00-16:00"},"title":"Church of Jesus Christ of Latter-Day Saints"},"type":"Feature"},
		{"geometry":{"coordinates":[-3.52608,50.72069],"type":"Point"},"properties":{"_source":"warm_welcome","address":"Friends Meeting House, Wynards Lane, Exeter EX2 4HU","hours":{"_text":"Thursday: 10:00 - 16:00","opening":"Th 10:00-16:00"},"title":"Exeter Quakers"},"type":"Feature"},
		{"geometry":{"coordinates":[-3.54764,50.73174],"type":"Point"},"properties":{"_source":"warm_welcome","address":"Exwick Parish Hall, Station Road, Exeter, Devon EX4 2FD","description":"Open to all! Term-time only. A warm, friendly space with hot drinks, toys for toddlers, and people with time to chat.","hours":{"_text":"Friday: 10:00 - 12:00","opening":"Fr 10:00-12:00"},"title":"Exwick Community Church"},"type":"Feature"},
		{"geometry":{"coordinates":[-3.76349,50.66113],"type":"Point"},"properties":{"_source":"warm_welcome","address":"Moretonhampstead Library, Moretonhampstead, Devon TQ13 8LL","description":"Everyone welcome Accessible spaces, WIFI, computers and a variety of activities. Your library is the perfect place to escape the cold, relax. socialise and have a hot drink.","hours":{"_text":"Tuesday: 10:00 - 12:00, Wednesday: 14:00 - 18:00, Saturday: 10:00 - 13:00","opening":"Tu 10:00-12:00; We 14:00-18:00; Sa 10:00-13:00"},"title":"Moretonhampstead Library"},"type":"Feature"},
		{"geometry":{"coordinates":[-3.53038,50.72112],"type":"Point"},"properties":{"_source":"warm_welcome","address":"3 Palace Gate, Exeter, Devon EX1 1JA","description":"Dove Cafe is open to all. Renew Refresh is for adults. Dove Cafe is a community cafe offering a safe and welcoming space for all. We're open every Tuesday from 10:30 - 2pm. Renew Refresh is a safe space in which it's ok not to be ok. This space is open every Thursday from 1:30 - 4pm.","hours":{"_text":"Tuesday: 10:30 - 14:00, Wednesday: 18:30 - 20:30, Thursday: 13:30 - 16:00","opening":"Tu 10:30-14:00; We 18:30-20:30; Th 13:30-16:00"},"title":"South Street Baptist Church"},"type":"Feature"},
		{"geometry":{"coordinates":[-3.53676,50.72722],"type":"Point"},"properties":{"_source":"warm_welcome","address":"St David's Church , Exeter, Devon EX4 4HR","description":"You will be welcome Free music, snacks, and talks, plus kids' zone with soft play. Building open to the public most days 9-5","hours":{"_text":"Tuesday: 10:30 - 12:00, Thursday: 10:30 - 12:00, Sunday: 09:30 - 18:00 / 16:00 - 18:30","opening":"Tu 10:30-12:00; Th 10:30-12:00; Su 09:30-18:00,16:00-18:30"},"title":"St David's Church Exeter"},"type":"Feature"},
		{"geometry":{"coordinates":[-3.55341,50.71394],"type":"Point"},"properties":{"_source":"warm_welcome","address":"St Thomas Baptist Church, Dorset Avenue, Exeter, Exeter EX4 1LZ","description":"Open from 15/12/2022. We offer a warm space to enjoy company from those in the community. We always provide hot drinks and biscuits. Twice a month a warm meal is provided also.","hours":{"_text":"Thursday: 10:00 - 13:00","opening":"Th 10:00-13:00"},"title":"St Thomas Baptist Church"},"type":"Feature"},
		{"geometry":{"coordinates":[-3.54088,50.71663],"type":"Point"},"properties":{"_source":"warm_welcome","address":"Cowick Street, Exeter, Devon EX4 1AP","description":"A warm and friendly welcome in a warm space.","hours":{"_text":"Thursday: 15:00 - 17:00","opening":"Th 15:00-17:00"},"title":"St Thomas Parish Church, Exeter"},"type":"Feature"},
		{"geometry":{"coordinates":[-3.53066,50.72094],"type":"Point"},"properties":{"_source":"warm_welcome","address":"South Street , Exeter, Exeter EX1 1EB","description":"Open from 30 Nov 22. We are open to all but especially those feeling lonely Our Chatter Cafe offers a cuppa, warmth, a listening ear and a chat","hours":{"_text":"Wednesday: 10:30 - 12:30","opening":"We 10:30-12:30"},"title":"SVP Chatter Cafe, Sacred Heart RC Church"},"type":"Feature"},
		{"geometry":{"coordinates":[-3.53055,50.72503],"type":"Point"},"properties":{"_source":"warm_spaces","address":"Castle Street, Exeter, England, EX4 3PQ","hours":{"_text":"Mon 9am-6pm, Tue 9am-7pm, Wed 10am-6pm, Thu 9am-7pm, Fri 9am-6pm, Sat 9am-5pm, Sun 12pm-4pm ","opening":"Mo 09:00-18:00; Tu 09:00-19:00; We 10:00-18:00; Th 09:00-19:00; Fr 09:00-18:00; Sa 09:00-17:00; Su 12:00-16:00"},"title":"Exeter Library","url":"https://www.devonlibraries.org.uk/web/arena/exeterlibrary"},"type":"Feature"},
		{"geometry":{"coordinates":[-3.54751,50.73186],"type":"Point"},"properties":{"_source":"warm_spaces","address":"66 Station Road, Exeter, England, EX4 2AB","hours":{"_text":"Fridays in term time, 10am-12pm"},"title":"Exwick Community Church, Friday Friendship","url":"https://www.exwickcommunitychurch.org.uk"},"type":"Feature"},
		{"geometry":{"coordinates":[-3.76428,50.66102],"type":"Point"},"properties":{"_source":"warm_spaces","address":"10 Fore Street, Newton Abbot, England, TQ13 8LL","hours":{"_text":"12.30pm-2pm"},"title":"Teignmouth Baptist Church 'Warm Soup Wednesday'","url":"https://www.teignmouthbaptist.org"},"type":"Feature"},
		{"geometry":{"coordinates":[-3.53888,50.71830],"type":"Point"},"properties":{"_source":"warm_spaces","address":"Riverside Church, 13-14 Okehampton Street, Exeter, England, EX4 1DU","hours":{"_text":"6pm-9pm"},"title":"Cafe Connect Riverside Church","url":"https://www.loveexeter.com"},"type":"Feature"},
		{"geometry":{"coordinates":[-3.52582,50.72291],"type":"Point"},"properties":{"_source":"warm_spaces","address":"Barnfield Road, Exeter, England, EX1 1SN","hours":{"_text":"Mon-Sat, 10am-4pm (except bank hols)","opening":"Mo-Sa 10:00-16:00"},"title":"The Barnfield Theatre","url":"https://www.exeternorthcott.co.uk"},"type":"Feature"},
		{"geometry":{"coordinates":[-3.60419,50.53068],"type":"Point"},"properties":{"_source":"warm_spaces","address":"96 Queen Street, Newton Abbot, England, TQ12 2ET","hours":{"_text":"Monday 10am-4pm","opening":"Mo 10:00-16:00"},"title":"St Josephs Church","url":"https://www.stjosephsnewtonabbot.org"},"type":"Feature"},
		{"geometry":{"coordinates":[-3.60878,50.52944],"type":"Point"},"properties":{"_source":"warm_spaces","address":"30 Union Street, Newton Abbot, England, TQ12","hours":{"_text":"Wednesday 10am-4pm &amp; Friday 10am-4pm","opening":"We 10:00-16:00; Fr 10:00-16:00"},"title":"The Salvation Army Church &amp; Community Centre","url":"https://www.salvationarmy.org.uk/newton-abbot-church-community-centre"},"type":"Feature"},
		{"geometry":{"coordinates":[-3.67475,50.59351],"type":"Point"},"properties":{"_source":"warm_spaces","address":"37 Fore Street, Newton Abbot, England, TQ13 9AD","hours":{"_text":"Monday - Friday, 10am - 4pm","opening":"Mo-Fr 10:00-16:00"},"title":"Angel Home Care","url":"https://angelhomecare.co.uk"},"type":"Feature"},
		{"geometry":{"coordinates":[-3.67554,50.59233],"type":"Point"},"properties":{"_source":"warm_spaces","address":"Bovey Tracey Methodist Church, Newton Abbot, England, TQ13 9AL","hours":{"_text":"Tue, 11:30am-1pm","opening":"Tu 11:30-13:00"},"title":"Bovey Food Hub","url":"https://www.feedingdevon.org.uk"},"type":"Feature"}
	]
}
