{
	"type": "FeatureCollection",
	"features": [
		{"geometry":{"coordinates":[-3.86288,50.27100],"type":"Point"},"properties":{"_source":"warm_welcome","address":"Church Meeting Room, Eddystone Road, Thurlestone, Kingsbridge TQ7 3AS","description":"Open from 4/1/2023. We cater for a range of groups at different events, see church website There are a range of activities open to different groups through the week. Details are on the web site","hours":{"_text":"Wednesday: 10:30 - 12:00","opening":"We 10:30-12:00"},"title":"Thurlestone Church ( Meeting Room )"},"type":"Feature"},
		{"geometry":{"coordinates":[-3.77606,50.28330],"type":"Point"},"properties":{"_source":"warm_spaces","address":"Promenade, Kingsbridge, England, TQ7 1JD","hours":{"_text":"Thursdays, 11.30am-1.30pm","opening":"Th 11:30-13:30"},"title":"Harbour House","url":"https://www.harbourhouse.org.uk"},"type":"Feature"},
		{"geometry":{"coordinates":[-3.65789,50.27402],"type":"Point"},"properties":{"_source":"warm_spaces","address":"Tap House at Stokeley Farm Shop, Stokeley Barton Farms, Stokenham, Devon, England, TQ7 2SE","hours":{"_text":"See website below for details"},"title":"South Hams Brewery Ltd","url":"https://stokeleyfarmshop.co.uk"},"type":"Feature"},
		{"geometry":{"coordinates":[-3.66355,50.27383],"type":"Point"},"properties":{"_source":"west_devon_council","address":"Tap House at Stokeley Farm Shop, Stokeley Barton Farms Stokenham, TQ7 2SE","description":"Category: Hospitality Facilities: People to chat to, food/drink for sale, Organised &apos;Warm Space&apos; gatherings held in the Tap House with fire lit, board games, music playing, one-pot food available at an affordable price.","hours":{"_text":"Please see the website here"},"loc_pcd":true,"title":"South Hams Brewery Ltd","url":"https://goo.gl/maps/nyU6s73Li79qs9ai8"},"type":"Feature"},
		{"geometry":{"coordinates":[-3.77647,50.28351],"type":"Point"},"properties":{"_source":"west_devon_council","address":"Amrita Room, Harbour House, The Promenade, Kingsbridge, TQ7 1JD.","description":"Category: Community Space Facilities: Warm space where people can relax, enjoy a hot drink, Wi-Fi","hours":{"_text":"Thursday 11.30 a.m. - 1.30 p.m.","opening":"Th 11:30-13:30"},"loc_pcd":true,"title":"Harbour House, Kingsbridge","url":"https://goo.gl/maps/Rabzie7oL25y3ZMB7"},"type":"Feature"},
		{"geometry":{"coordinates":[-3.77738,50.28476],"type":"Point"},"properties":{"_source":"west_devon_council","address":"41 Fore Street, Kingsbridge, TQ7 1PG","description":"Category: Shop Opening Hours: Monday to Friday 10 a.m. to 4 p.m. Facilities: Warm space, hot drinks available, toilets, people to talk to","hours":{},"loc_pcd":true,"title":"Wordwise","url":"https://goo.gl/maps/xLhU7GkxKD2mVtSM9"},"type":"Feature"},
		{"geometry":{"coordinates":[-3.77747,50.28292],"type":"Point"},"properties":{"_source":"west_devon_council","address":"Quay House, 4 Ilbert Road, Kingsbridge, TQ7 1DZ","description":"Category: Community Space Opening Hours: Monday to Saturday 9 a.m. to 2 p.m. Facilities: Warm space, hot drinks available, toilets, people to talk to","hours":{},"loc_pcd":true,"title":"Kingsbridge Care Hub and Age Concern","url":"https://goo.gl/maps/Xo1aQ2Xb5BojQv4F8"},"type":"Feature"},
		{"geometry":{"coordinates":[-3.77768,50.28286],"type":"Point"},"properties":{"_source":"west_devon_council","address":"Library Court, Ilbert Road, Kingsbridge, TQ7 1EB","description":"Category: Community Space Opening Hours: Please see the website here Facilities: Warm space, toilets, Wi-Fi","hours":{},"loc_pcd":true,"title":"Kingsbridge Library","url":"https://goo.gl/maps/WMkPMCSA7VheEP886"},"type":"Feature"},
		{"geometry":{"coordinates":[-3.77796,50.28784],"type":"Point"},"properties":{"_source":"west_devon_council","address":"100B Fore Street, Kingsbridge, TQ7 1AW","description":"Category: Church Opening Hours: Friday 10 a.m. to 4 p.m. Facilities: Warm space, hot drinks available, toilets, people to talk to","hours":{},"loc_pcd":true,"title":"Methodist Church","url":"https://goo.gl/maps/KH3mAjssYQokY4ED6"},"type":"Feature"},
		{"geometry":{"coordinates":[-3.77738,50.28476],"type":"Point"},"properties":{"_source":"west_devon_council","address":"The Chapel, between 33 and 35 Fore Street, Kingsbridge, TQ7 1PG","description":"Category: Church Opening Hours: Thursday 1 p.m. to 3:30 p.m. Facilities: Warm space, hot drinks available, toilets, people to talk to","hours":{},"loc_pcd":true,"title":"South Hams Christian Fellowship","url":"https://www.south-hams-christian-fellowship.org/about-us"},"type":"Feature"}
	]
}
