{
	"type": "FeatureCollection",
	"features": [
		{"geometry":{"coordinates":[-1.78422,53.65811],"type":"Point"},"properties":{"_source":"warm_welcome","address":"Lee Street, Hillhouse, Huddersfield, West Yorkshire HD1 6HF","description":"All our libraries are heated, comfortable to stay in for long periods of time - they have a range of both comfy seating, and more functional furniture for study or computer use. A place to keep warm, meet friends, sit and read and take part in activities.","hours":{"_text":"Tuesday: 10:00 - 13:00, Wednesday: 13:00 - 17:00, Friday: 14:00 - 18:00, Saturday: 11:00 - 15:00","opening":"Tu 10:00-13:00; We 13:00-17:00; Fr 14:00-18:00; Sa 11:00-15:00"},"title":"Birkby Fartown Library"},"type":"Feature"},
		{"geometry":{"coordinates":[-1.91283,53.70882],"type":"Point"},"properties":{"_source":"warm_welcome","address":"Sowerby Bridge Library, Hollins Mill Lane , Sowerby Bridge HX6 2QG","description":"Calderdale Libraries will be closed for the Christmas period from 1pm on Sat24th Dec and reopen on Tues 3rd Jan. s","hours":{"_text":"Monday: 10:00 - 17:00, Tuesday: 10:00 - 18:00, Thursday: 10:00 - 17:00, Friday: 10:00 - 17:00, Saturday: 10:00 - 16:00","opening":"Mo 10:00-17:00; Tu 10:00-18:00; Th 10:00-17:00; Fr 10:00-17:00; Sa 10:00-16:00"},"title":"Calderdale MBC"},"type":"Feature"},
		{"geometry":{"coordinates":[-2.09783,53.71367],"type":"Point"},"properties":{"_source":"warm_welcome","address":"Todmorden Library, Todmorden, West Yorkshire OL14 7UD","description":"Hot drinks available daily with games & activities for all & family films every Saturday. Different groups & events through the week, for more information call in or see Calderdale Libraries on Facebook. We will be closed from 1pm on 24th Dec to 3rd Jan.","hours":{"_text":"Monday: 10:00 - 18:30, Tuesday: 10:00 - 17:00, Wednesday: 10:00 - 17:00, Friday: 10:00 - 18:30, Saturday: 10:00 - 16:00","opening":"Mo 10:00-18:30; Tu 10:00-17:00; We 10:00-17:00; Fr 10:00-18:30; Sa 10:00-16:00"},"title":"Calderdale MBC"},"type":"Feature"},
		{"geometry":{"coordinates":[-1.83783,53.68489],"type":"Point"},"properties":{"_source":"warm_welcome","address":"Elland Library, Coronation Street, Elland HX5 0DF","description":"Please note Elland Library will close at 1pm on Saturday 24th December and reopen on Tuesday 3rd January 2023","hours":{"_text":"Monday: 10:00 - 17:00, Tuesday: 10:00 - 17:00, Wednesday: 10:00 - 13:00, Thursday: 10:00 - 18:00, Friday: 10:00 - 17:00, Saturday: 10:00 - 16:00","opening":"Mo 10:00-17:00; Tu 10:00-17:00; We 10:00-13:00; Th 10:00-18:00; Fr 10:00-17:00; Sa 10:00-16:00"},"title":"Calderdale MBC"},"type":"Feature"},
		{"geometry":{"coordinates":[-1.79361,53.68939],"type":"Point"},"properties":{"_source":"warm_welcome","address":"Rastrick Library, Crowtrees Lane Rastrick , Brighouse HD6 3NE","description":"We will be closed for Christmas from 1pm Christmas Eve until 10am Tuesday 3rd January. We are closed for lunch 1 - 2pm every day.","hours":{"_text":"Monday: 10:00 - 17:00 / 14:00 - 17:00, Tuesday: 10:00 - 17:00 / 14:00 - 17:00, Wednesday: 10:00 - 13:00, Thursday: 10:00 - 17:00 / 14:00 - 17:00, Friday: 10:00 - 17:00 / 14:00 - 17:00, Saturday: 10:00 - 13:00","opening":"Mo 10:00-17:00,14:00-17:00; Tu 10:00-17:00,14:00-17:00; We 10:00-13:00; Th 10:00-17:00,14:00-17:00; Fr 10:00-17:00,14:00-17:00; Sa 10:00-13:00"},"title":"Calderdale MBC"},"type":"Feature"},
		{"geometry":{"coordinates":[-1.88415,53.74703],"type":"Point"},"properties":{"_source":"warm_welcome","address":"Beechwood Road Library, Beechwood Road, Illingworth., Halifax HX2 9BU","description":"Everyone is welcome. We have a local history display of North Halifax. We have a display of local events. We offer free children's crafts and a very warm welcome.","hours":{"_text":"Monday: 10:00 - 17:00, Thursday: 10:00 - 17:00, Friday: 10:00 - 17:00, Saturday: 10:00 - 13:00","opening":"Mo 10:00-17:00; Th 10:00-17:00; Fr 10:00-17:00; Sa 10:00-13:00"},"title":"Calderdale MBC"},"type":"Feature"},
		{"geometry":{"coordinates":[-1.85542,53.72221],"type":"Point"},"properties":{"_source":"warm_welcome","address":"Halifax Central Library and Archives, Halifax HX1 1QG","description":"Board Games available","hours":{"_text":"Monday: 10:00 - 18:30 / -, Tuesday: 10:00 - 17:30 / -, Wednesday: 10:00 - 17:30 / -, Thursday: 10:00 - 18:30 / -, Friday: 10:00 - 17:30 / -, Saturday: 10:00 - 16:00 / -","opening":"Mo 10:00-18:30; Tu 10:00-17:30; We 10:00-17:30; Th 10:00-18:30; Fr 10:00-17:30; Sa 10:00-16:00"},"title":"Calderdale MBC"},"type":"Feature"},
		{"geometry":{"coordinates":[-1.88045,53.71487],"type":"Point"},"properties":{"_source":"warm_welcome","address":"King Cross Library Library, 151 Haugh Shaw Road , Halifax HX1 3BG","hours":{"_text":"Monday: 10:00 - 17:00 / -, Tuesday: 10:00 - 18:30 / -, Thursday: 10:00 - 18:30 / -, Friday: 10:00 - 17:00 / -, Saturday: 10:00 - 16:00 / -","opening":"Mo 10:00-17:00; Tu 10:00-18:30; Th 10:00-18:30; Fr 10:00-17:00; Sa 10:00-16:00"},"title":"Calderdale MBC"},"type":"Feature"},
		{"geometry":{"coordinates":[-1.78692,53.70371],"type":"Point"},"properties":{"_source":"warm_welcome","address":"Brighouse Library, Halifax Road, Brighouse HD6 2AF","description":"We are closed from 1pm on Christmas Eve until 10am 4th January 2023","hours":{"_text":"Monday: 10:00 - 18:30, Tuesday: 10:00 - 17:00, Thursday: 10:00 - 17:00, Friday: 10:00 - 18:30, Saturday: 10:00 - 16:00","opening":"Mo 10:00-18:30; Tu 10:00-17:00; Th 10:00-17:00; Fr 10:00-18:30; Sa 10:00-16:00"},"title":"Calderdale MBC"},"type":"Feature"},
		{"geometry":{"coordinates":[-2.01201,53.74112],"type":"Point"},"properties":{"_source":"warm_welcome","address":"Hebden Bridge Library, Hebden Bridge, West Yorkshire HX7 8EP","description":"Closed for Christmas from 1pm 24th Dec & reopen Wed 4th Jan at 10am. We have free tea & coffee, board games, jigsaw puzzles, book clubs, storytots and Bounce & Rhymee","hours":{"_text":"Monday: 10:00 - 18:30, Wednesday: 10:00 - 17:00, Thursday: 10:00 - 18:30, Friday: 10:00 - 17:00, Saturday: 10:00 - 16:00","opening":"Mo 10:00-18:30; We 10:00-17:00; Th 10:00-18:30; Fr 10:00-17:00; Sa 10:00-16:00"},"title":"Calderdale MBC"},"type":"Feature"},
		{"geometry":{"coordinates":[-1.82993,53.74010],"type":"Point"},"properties":{"_source":"warm_welcome","address":"Northowram Library, Lydgate Northowram , Halifax HX3 7EJ","description":"Please note the library closes between 13:00 and 14:00 on Monday, Tuesday and Thursday. We are closed from 1pm on Christmas Eve, we will reopen at 10am on Tuesday 4th January","hours":{"_text":"Monday: 10:00 - 17:00, Tuesday: 10:00 - 17:00, Thursday: 10:00 - 17:00, Friday: 14:00 - 17:00, Saturday: 10:00 - 13:00","opening":"Mo 10:00-17:00; Tu 10:00-17:00; Th 10:00-17:00; Fr 14:00-17:00; Sa 10:00-13:00"},"title":"Calderdale MBC"},"type":"Feature"},
		{"geometry":{"coordinates":[-1.85521,53.72189],"type":"Point"},"properties":{"_source":"warm_welcome","address":"Square Road , Halifax, West Yorkshire HX1 1QG","hours":{"_text":"Monday: 10:00 - 18:30, Tuesday: 10:00 - 17:30, Wednesday: 10:00 - 17:30, Thursday: 10:00 - 18:30, Friday: 10:00 - 17:30, Saturday: 10:00 - 16:00","opening":"Mo 10:00-18:30; Tu 10:00-17:30; We 10:00-17:30; Th 10:00-18:30; Fr 10:00-17:30; Sa 10:00-16:00"},"title":"Central Library and Archives"},"type":"Feature"},
		{"geometry":{"coordinates":[-1.76876,53.66840],"type":"Point"},"properties":{"_source":"warm_welcome","address":"2a Chestnut Street, Sheepbridge, Huddersfield, West Yorkshire HD2 1HJ","description":"All our libraries are heated, comfortable to stay in for long periods of time - they have a range of both comfy seating, and more functional furniture for study or computer use. A place to keep warm, meet friends, sit and read and take part in activities.","hours":{"_text":"Monday: 9:00 - 17:00, Tuesday: 9:00 - 17:00, Wednesday: 9:00 - 17:00, Thursday: 9:00 - 17:00, Friday: 9:00 - 17:00","opening":"Mo 09:00-17:00; Tu 09:00-17:00; We 09:00-17:00; Th 09:00-17:00; Fr 09:00-17:00"},"title":"Chestnut Centre"},"type":"Feature"},
		{"geometry":{"coordinates":[-2.09463,53.57633],"type":"Point"},"properties":{"_source":"warm_welcome","address":"Farrow Street East, Shaw, Oldham OL2 8QY","description":"Open from 03/10/2022.","hours":{"_text":"Monday: 9:00 - 19:00, Tuesday: 9:00 - 19:00, Wednesday: 9:00 - 19:00, Thursday: 9:00 - 19:00, Friday: 9:00 - 17:00, Saturday: 9:30 - 13:00","opening":"Mo 09:00-19:00; Tu 09:00-19:00; We 09:00-19:00; Th 09:00-19:00; Fr 09:00-17:00; Sa 09:30-13:00"},"title":"Crompton Library"},"type":"Feature"},
		{"geometry":{"coordinates":[-1.85614,53.63925],"type":"Point"},"properties":{"_source":"warm_welcome","address":"Town End, Golcar, Huddersfield, West Yorkshire HD7 4QD","description":"All our libraries are heated, comfortable to stay in for long periods of time - they have a range of both comfy seating, and more functional furniture for study or computer use. A place to keep warm, meet friends, sit and read and take part in activities.","hours":{"_text":"Monday: 13:00 - 18:00, Tuesday: 10:00 - 13:00, Thursday: 13:00 - 17:00, Saturday: 10:00 - 13:00","opening":"Mo 13:00-18:00; Tu 10:00-13:00; Th 13:00-17:00; Sa 10:00-13:00"},"title":"Golcar Library"},"type":"Feature"},
		{"geometry":{"coordinates":[-1.86635,53.72280],"type":"Point"},"properties":{"_source":"warm_welcome","address":"Hall St, Halifax , Calerdale HX1 5AY","description":"Open from 29-11-22.","hours":{},"title":"Halifax Elim Church"},"type":"Feature"},
		{"geometry":{"coordinates":[-1.78503,53.57359],"type":"Point"},"properties":{"_source":"warm_welcome","address":"Huddersfield Road, Holmfirth, West Yorkshire HD9 3JH","description":"All our libraries are heated, comfortable to stay in for long periods of time - they have a range of both comfy seating, and more functional furniture for study or computer use. A place to keep warm, meet friends, sit and read and take part in activities.","hours":{"_text":"Monday: 9:30 - 19:00, Tuesday: 9:30 - 13:30, Wednesday: 1:00 - 17:30, Thursday: 9:30 - 17:30, Friday: 9:30 - 17:30, Saturday: 10:00 - 16:00","opening":"Mo 09:30-19:00; Tu 09:30-13:30; We 01:00-17:30; Th 09:30-17:30; Fr 09:30-17:30; Sa 10:00-16:00"},"title":"Holmfirth Library"},"type":"Feature"},
		{"geometry":{"coordinates":[-1.79671,53.60205],"type":"Point"},"properties":{"_source":"warm_welcome","address":"West Avenue, Honley, Holmfirth, West Yorkshire HD9 6HF","description":"All our libraries are heated, comfortable to stay in for long periods of time - they have a range of both comfy seating, and more functional furniture for study or computer use. A place to keep warm, meet friends, sit and read and take part in activities.","hours":{"_text":"Tuesday: 13:00 - 18:00, Wednesday: 10:00 - 13:00, Friday: 13:00 - 17:00, Saturday: 10:00 - 13:00","opening":"Tu 13:00-18:00; We 10:00-13:00; Fr 13:00-17:00; Sa 10:00-13:00"},"title":"Honley Library"},"type":"Feature"},
		{"geometry":{"coordinates":[-2.01161,53.74057],"type":"Point"},"properties":{"_source":"warm_welcome","address":"New Road, Hebden Bridge, West Yorkshire HX7 8AD","hours":{"_text":"Monday: 13:30 - 15:00, Wednesday: 17:00 - 19:00, Thursday: 10:00 - 13:00","opening":"Mo 13:30-15:00; We 17:00-19:00; Th 10:00-13:00"},"title":"Hope Baptist Church"},"type":"Feature"},
		{"geometry":{"coordinates":[-1.78164,53.64422],"type":"Point"},"properties":{"_source":"warm_welcome","address":"Princess Alexandra Walk,, Huddersfield, West Yorkshire HD1 2SU","description":"All our libraries are heated, comfortable to stay in for long periods of time - they have a range of both comfy seating, and more functional furniture for study or computer use. A place to keep warm, meet friends, sit and read and take part in activities.","hours":{"_text":"Monday: 9:30 - 19:00, Tuesday: 9:00 - 17:00, Wednesday: 9:00 - 17:00, Thursday: 9:00 - 19:00, Friday: 9:00 - 17:00, Saturday: 9:30 - 16:00","opening":"Mo 09:30-19:00; Tu 09:00-17:00; We 09:00-17:00; Th 09:00-19:00; Fr 09:00-17:00; Sa 09:30-16:00"},"title":"Huddersfield Library"},"type":"Feature"},
		{"geometry":{"coordinates":[-1.82348,53.66051],"type":"Point"},"properties":{"_source":"warm_welcome","address":"Lidget Street, Lindley, Huddersfield , West Yorkshire HD3 3JP","description":"All our libraries are heated, comfortable to stay in for long periods of time - they have a range of both comfy seating, and more functional furniture for study or computer use. A place to keep warm, meet friends, sit and read and take part in activities.","hours":{"_text":"Monday: 10:00 - 13:00 / 14:00 - 17:00, Tuesday: 10:00 - 13:00 / 14:00 - 17:00, Thursday: 10:00 - 13:00 / 14:00 - 19:00, Friday: 10:00 - 13:00 / 14:00 - 17:00, Saturday: 10:00 - 14:00","opening":"Mo 10:00-13:00,14:00-17:00; Tu 10:00-13:00,14:00-17:00; Th 10:00-13:00,14:00-19:00; Fr 10:00-13:00,14:00-17:00; Sa 10:00-14:00"},"title":"Lindley Library"},"type":"Feature"},
		{"geometry":{"coordinates":[-1.82321,53.66275],"type":"Point"},"properties":{"_source":"warm_welcome","address":"Lindley Methodist Church, East Street, Lindley, Huddersfield, West Yorkshire HD3 3ND","description":"Open from 03/11/2022.","hours":{"_text":"Thursday: 10:00 - 17:00","opening":"Th 10:00-17:00"},"title":"Lindley Methodist Church"},"type":"Feature"},
		{"geometry":{"coordinates":[-1.87504,53.62130],"type":"Point"},"properties":{"_source":"warm_welcome","address":"Stones Lane, , Linthwaite , Huddersfield HD7 5LN","hours":{},"title":"Linthwaite Methodist Church Centre"},"type":"Feature"},
		{"geometry":{"coordinates":[-1.92635,53.60038],"type":"Point"},"properties":{"_source":"warm_welcome","address":"Mechanics Hall, Peel Street, Marsden, Huddersfield , West Yorkshire HD7 6BW","description":"All our libraries are heated, comfortable to stay in for long periods of time - they have a range of both comfy seating, and more functional furniture for study or computer use. A place to keep warm, meet friends, sit and read and take part in activities.","hours":{"_text":"Tuesday: 10:00 - 13:00, Wednesday: 13:00 - 18:00, Thursday: 10:00 - 13:00, Friday: 13:00 - 17:00, Saturday: 10:00 - 15:00","opening":"Tu 10:00-13:00; We 13:00-18:00; Th 10:00-13:00; Fr 13:00-17:00; Sa 10:00-15:00"},"title":"Marsden Library"},"type":"Feature"},
		{"geometry":{"coordinates":[-1.84825,53.59251],"type":"Point"},"properties":{"_source":"warm_welcome","address":"Carlisle Institute, 54 Huddersfield Road, Meltham, Holmfirth, West Yorkshire HD9 4AG","description":"All our libraries are heated, comfortable to stay in for long periods of time - they have a range of both comfy seating, and more functional furniture for study or computer use. A place to keep warm, meet friends, sit and read and take part in activities.","hours":{"_text":"Monday: 10:00 - 14:00, Tuesday: 13:00 - 17:00, Thursday: 13:30 - 17:30, Friday: 10:00 - 14:00, Saturday: 10:00 - 14:00","opening":"Mo 10:00-14:00; Tu 13:00-17:00; Th 13:30-17:30; Fr 10:00-14:00; Sa 10:00-14:00"},"title":"Meltham Library"},"type":"Feature"},
		{"geometry":{"coordinates":[-1.82408,53.65513],"type":"Point"},"properties":{"_source":"warm_welcome","address":"Oakes Road, Huddersfield, West Yorkshire HD3 3EW","description":"Thursday - open to all for Coffee and Chat Wednesday - open as a Renew Wellbeing quiet space with option of table activities","hours":{"_text":"Wednesday: 10:00 - 12:00, Thursday: 10:00 - 12:00","opening":"We 10:00-12:00; Th 10:00-12:00"},"title":"Oakes Baptist Church, Huddersfield"},"type":"Feature"},
		{"geometry":{"coordinates":[-1.78311,53.64699],"type":"Point"},"properties":{"_source":"warm_welcome","address":"Proper Job Theatre Company, Huddersfield, West Yorkshire HD1 1ND","description":"Anyone over 19 yrs We offer free courses for adults","hours":{"_text":"Monday: 10:00 - 15:00, Tuesday: 10:00 - 15:00, Wednesday: 10:00 - 15:00, Thursday: 10:00 - 15:00, Friday: 10:00 - 15:00","opening":"Mo 10:00-15:00; Tu 10:00-15:00; We 10:00-15:00; Th 10:00-15:00; Fr 10:00-15:00"},"title":"Proper Job"},"type":"Feature"},
		{"geometry":{"coordinates":[-2.08989,53.71469],"type":"Point"},"properties":{"_source":"warm_welcome","address":"Halifax Road, Todmorden, West Yorkshire OL14 5BE","hours":{"_text":"Monday: 14:00 - 17:00","opening":"Mo 14:00-17:00"},"title":"Roomfield Baptist Church"},"type":"Feature"},
		{"geometry":{"coordinates":[-1.87785,53.62460],"type":"Point"},"properties":{"_source":"warm_welcome","address":"Slaithwaite Town Hall, Cross Street, Slaithwaite, Huddersfield, West Yorkshire HD7 5AF","description":"All our libraries are heated, comfortable to stay in for long periods of time - they have a range of both comfy seating, and more functional furniture for study or computer use. A place to keep warm, meet friends, sit and read and take part in activities.","hours":{"_text":"Monday: 10:00 - 13:00, Wednesday: 10:00 - 13:00 / 14:00 - 18:00, Thursday: 10:00 - 12:00, Friday: 10:00 - 13:00","opening":"Mo 10:00-13:00; We 10:00-13:00,14:00-18:00; Th 10:00-12:00; Fr 10:00-13:00"},"title":"Slaithwaite Library"},"type":"Feature"},
		{"geometry":{"coordinates":[-1.85646,53.70734],"type":"Point"},"properties":{"_source":"warm_welcome","address":"Stafford Square, Halifax, West Yorkshire HX3 0AT","description":"Open from 15/11/2022. All welcome A friendly welcome awaits in the Moore Hall time for a chat over a cuppa, maybe a jigsaw, puzzles or sit quietly. It's up to you","hours":{"_text":"Tuesday: 13:00 - 17:00","opening":"Tu 13:00-17:00"},"title":"St Andrews Methodist Church"},"type":"Feature"},
		{"geometry":{"coordinates":[-1.78807,53.65634],"type":"Point"},"properties":{"_source":"warm_welcome","address":"75 St. Johns Road, Birkby, Huddersfield, West Yorkshire HD1 5EA","hours":{"_text":"Thursday: 12:30 - 14:30","opening":"Th 12:30-14:30"},"title":"ST JOHN'S CHURCH, BIRKBY"},"type":"Feature"},
		{"geometry":{"coordinates":[-2.02440,53.56742],"type":"Point"},"properties":{"_source":"warm_welcome","address":"Church Street, Delph, Oldham OL3 5DR","hours":{"_text":"Monday: 10:00 - 12:00","opening":"Mo 10:00-12:00"},"title":"St Thomas Church"},"type":"Feature"},
		{"geometry":{"coordinates":[-1.80211,53.64206],"type":"Point"},"properties":{"_source":"warm_welcome","address":"Jubilee Centre, Market Street, Huddersfield, West Yorkshire HD1 4SH","hours":{"_text":"Monday: 10:30 - 12:00","opening":"Mo 10:30-12:00"},"title":"The Branch"},"type":"Feature"},
		{"geometry":{"coordinates":[-2.09746,53.71604],"type":"Point"},"properties":{"_source":"warm_welcome","address":"St Mary’s Church, Burnley Rd, Todmorden OL14 7BD","description":"Open from 8th November 2022. Over 60’s Soup and Social, come along and enjoy a warm space, homemade soup and roll, plus homemade cake.","hours":{"_text":"Tuesday: 12:00 - 14:00","opening":"Tu 12:00-14:00"},"title":"Todmorden United Benefice and St Joseph’s RC Church"},"type":"Feature"},
		{"geometry":{"coordinates":[-1.76960,53.74266],"type":"Point"},"properties":{"_source":"warm_welcome","address":"Appleton Academy School Grounds, Woodside Road, Bradford BD12 8AL","hours":{"_text":"Monday: 09:30 - 19:00, Tuesday: 09:30 - 17:30, Wednesday: 09:30 - 13:00, Thursday: 09:30 - 19:00, Friday: 09:30 - 17:30, Saturday: 09:30 - 16:00","opening":"Mo 09:30-19:00; Tu 09:30-17:30; We 09:30-13:00; Th 09:30-19:00; Fr 09:30-17:30; Sa 09:30-16:00"},"title":"Wyke Library"},"type":"Feature"},
		{"geometry":{"coordinates":[-1.78091,53.64726],"type":"Point"},"properties":{"_source":"warm_spaces","address":"Byram Street, Huddersfield, England, HD1 1BU","hours":{"_text":"Mon-Fri 9am-4pm (warm space), Saturday 10:30am-1:30pm (warm space and food)","opening":"Mo-Fr 09:00-16:00; Sa 10:30-13:30"},"title":"Huddersfield Parish Church","url":"https://huddersfieldparishchurch.org"},"type":"Feature"},
		{"geometry":{"coordinates":[-1.88796,53.72824],"type":"Point"},"properties":{"_source":"warm_spaces","address":"Spring Hall Lane, Halifax, England, HX1 4UA","hours":{"_text":"Thursdays 2pm-4pm","opening":"Th 14:00-16:00"},"title":"Pellon Baptist Church"},"type":"Feature"},
		{"geometry":{"coordinates":[-1.88220,53.71456],"type":"Point"},"properties":{"_source":"warm_spaces","address":"151 Haugh Shaw Road, Halifax, England, HX1 3BG","hours":{"_text":"Mon &amp; Fri 10am-5pm, Tues &amp; Thurs 10am-6.30pm; Saturday 10am-4pm. Closed Wed &amp; Sun.","opening":"Mo 10:00-17:00; Fr 10:00-17:00; Tu 10:00-18:30; Th 10:00-18:30; Sa 10:00-16:00"},"title":"King Cross Library","url":"https://www.calderdale.gov.uk/v2/residents/leisure-and-culture/libraries/your-local-library/king-cross-library"},"type":"Feature"},
		{"geometry":{"coordinates":[-1.90674,53.74867],"type":"Point"},"properties":{"_source":"warm_spaces","address":"Sunny Bank Road, Halifax, England, HX2 8RX","hours":{"_text":"Monday 1pm-4pm ","opening":"Mo 13:00-16:00"},"title":"Holy Nativity Church","url":"https://www.holynativity.co.uk"},"type":"Feature"},
		{"geometry":{"coordinates":[-1.91270,53.70894],"type":"Point"},"properties":{"_source":"warm_spaces","address":"Hollins Mill Lane, Sowerby Bridge, England, HX6 2QG","hours":{"_text":"Mon, Thu &amp; Fri 10am-5pm, Tues 10am-6pm &amp; Sat 10am-4om. Closed Wed &amp; Sun","opening":"Mo 10:00-17:00; Th 10:00-17:00; Fr 10:00-17:00; Tu 10:00-18:00; Sa 10:00-04:00"},"title":"Sowerby Bridge Library","url":"https://www.calderdale.gov.uk/v2/residents/leisure-and-culture/libraries/your-local-library/sowerby-bridge-library"},"type":"Feature"},
		{"geometry":{"coordinates":[-2.01826,53.74109],"type":"Point"},"properties":{"_source":"warm_spaces","address":"Hebden Royd Methodist Church, Market St, Hebden Bridge, England, HX7 6AA","hours":{"_text":"Friday 10am-2pm","opening":"Fr 10:00-14:00"},"title":"Cozy Cafe","url":"https://www.calderdalemethodistcircuit.org.uk/churches/hebden-royd.html"},"type":"Feature"},
		{"geometry":{"coordinates":[-1.83769,53.68443],"type":"Point"},"properties":{"_source":"warm_spaces","address":"Coronation Street, Elland, England, HX5 0DF","hours":{"_text":"Mon, Tue, Fri 10am-5pm; Wed 10am-1pm, Thurs 10am-6pm, Sat 10am-4pm","opening":"Mo 10:00-17:00; Tu 10:00-17:00; Fr 10:00-17:00; We 10:00-13:00; Th 10:00-18:00; Sa 10:00-16:00"},"title":"Elland Library"},"type":"Feature"},
		{"geometry":{"coordinates":[-1.76840,53.73943],"type":"Point"},"properties":{"_source":"warm_spaces","address":"51 Town Gate, Bradford, England, BD12 9JD","hours":{"_text":"Wednesday &amp; Thursday 11am-5pm","opening":"We 11:00-17:00; Th 11:00-17:00"},"title":"Frill and Flounce","url":"https://frillandflounce.co.uk/warm-space"},"type":"Feature"},
		{"geometry":{"coordinates":[-2.09833,53.71369],"type":"Point"},"properties":{"_source":"warm_spaces","address":"Burnley Road, Todmorden, England, OL14 7BD","hours":{"_text":"Tuesday 12pm-2pm","opening":"Tu 12:00-14:00"},"title":"Over 60’s Soup and Social","url":"https://www.achurchnearyou.com/church/18018/"},"type":"Feature"},
		{"geometry":{"coordinates":[-1.82275,53.66278],"type":"Point"},"properties":{"_source":"warm_spaces","address":"45 East Street, Huddersfield, England, HD3 3ND","hours":{"_text":"Thursday 10am-5pm","opening":"Th 10:00-17:00"},"title":"Lindley Methodist Church","url":"https://www.lindleymethodist.org"},"type":"Feature"},
		{"geometry":{"coordinates":[-1.81032,53.72552],"type":"Point"},"properties":{"_source":"warm_spaces","address":"Wakefield Road, Halifax, England, HX3 8AA","hours":{"_text":"10am-12noon"},"title":"Christ Church 'Call in for coffee'","url":"https://www.christchurchhalifax.co.uk/"},"type":"Feature"},
		{"geometry":{"coordinates":[-2.09877,53.71269],"type":"Point"},"properties":{"_source":"warm_spaces","address":"8 Rochdale Road, Todmorden, England, OL14 5AA","hours":{"_text":"Mon 10am-6pm, Tue, Wed, Fri 10am-5pm","opening":"Tu 10:00-17:00; We 10:00-17:00; Fr 10:00-17:00; Mo 10:00-18:00"},"title":"Todmorden Library","url":"https://www.calderdale.gov.uk/v2/residents/leisure-and-culture/libraries/your-local-library/todmorden-library"},"type":"Feature"},
		{"geometry":{"coordinates":[-1.79284,53.69012],"type":"Point"},"properties":{"_source":"warm_spaces","address":"Crowtrees Lane, Brighouse, England, HD6","hours":{"_text":"Mon, Tue, Wed &amp; Fri 10am-1pm &amp; 2pm-5pm, Wed, Sat 10am-1pm, Sunday Closed","opening":"Mo 10:00-13:00; Tu 10:00-13:00; We 10:00-13:00; Fr 10:00-13:00; We 10:00-13:00; Sa 10:00-13:00; Su 14:00-17:00"},"title":"Rastrick Library","url":"https://www.calderdale.gov.uk/v2/residents/leisure-and-culture/libraries/your-local-library/rastrick-library"},"type":"Feature"},
		{"geometry":{"coordinates":[-1.83058,53.74008],"type":"Point"},"properties":{"_source":"warm_spaces","address":"1 Saint Matthew&#39;s Drive, Halifax, England, HX3 7EL","hours":{"_text":"Mon, Tue, Thu 10am-1pm and 2pm-5pm, Wednesday Closed, Friday\t2pm-5pm, Saturday 10am-1pm, Sunday Closed","opening":"Mo 10:00-13:00,14:00-17:00; Tu 10:00-13:00,14:00-17:00; Th 10:00-13:00,14:00-17:00; Fr 14:00-17:00; Sa 10:00-13:00"},"title":"Northowram Library","url":"https://www.calderdale.gov.uk/v2/residents/leisure-and-culture/libraries/your-local-library/northowram-library"},"type":"Feature"},
		{"geometry":{"coordinates":[-1.83771,53.68489],"type":"Point"},"properties":{"_source":"warm_spaces","address":"Coronation Street, Elland, England, HX5 0DF","hours":{"_text":"Mon, Tue, Fri 10am-5pm, Wed 10am-1pm, Thu 10am-6pm, Sat 10am-4pm, Sun Closed","opening":"Mo 10:00-17:00; Tu 10:00-17:00; Fr 10:00-17:00; We 10:00-13:00; Th 10:00-18:00; Sa 10:00-16:00"},"title":"Elland Library","url":"https://www.calderdale.gov.uk/v2/residents/leisure-and-culture/libraries/your-local-library/elland-library"},"type":"Feature"},
		{"geometry":{"coordinates":[-1.78620,53.70397],"type":"Point"},"properties":{"_source":"warm_spaces","address":"Halifax Road, Brighouse, England, HD6 2AF","hours":{"_text":"Monday &amp; Friday 10am-6:30pm, Tuesday &amp; Thursday 10am-5pm, Wednesday: Closed, Saturday 10am-4pm, Sunday: Closed","opening":"Mo 10:00-18:30; Fr 10:00-18:30; Tu 10:00-17:00; Th 10:00-17:00; Sa 10:00-16:00"},"title":"Brighouse Library","url":"https://www.calderdale.gov.uk"},"type":"Feature"},
		{"geometry":{"coordinates":[-1.85509,53.72240],"type":"Point"},"properties":{"_source":"warm_spaces","address":"Square Road, Halifax, England, HX1 1QG","hours":{"_text":"Mon &amp; Thu 10am-6:30pm, Tue, Wed &amp; Fri 10am-5:30pm, Sat 10am-4pm","opening":"Mo 10:00-18:30; Th 10:00-18:30; Tu 10:00-17:30; We 10:00-17:30; Fr 10:00-17:30; Sa 10:00-16:00"},"title":"Central Library and Archives","url":"https://calderdale.gov.uk/v2/residents/leisure-and-culture/libraries"},"type":"Feature"},
		{"geometry":{"coordinates":[-1.86309,53.73253],"type":"Point"},"properties":{"_source":"warm_spaces","address":"Akroyd Library, Bankfield Museum, Boothtown Road, Halifax, England, HX3 6HG","hours":{"_text":"Monday to Saturday, 10am- 4pm (Closed Sunday &amp; Monday)","opening":"Mo-Sa 10:00-16:00"},"title":"Akroyd Library","url":"https://www.calderdale.gov.uk/v2/residents/leisure-and-culture/libraries/your-local-library/akroyd-library"},"type":"Feature"},
		{"geometry":{"coordinates":[-2.01289,53.74134],"type":"Point"},"properties":{"_source":"warm_spaces","address":"Cheetham Street, Hebden Bridge, England, HX7 8EP","hours":{"_text":"Mon &amp; Thur, 10am-6.30pm, Wed &amp; Fri 10am- 5pm &amp; Sat 10am - 4pm (Closed Tue &amp; Sun)","opening":"Mo 10:00-18:30; Th 10:00-18:30; We 10:00-17:00; Fr 10:00-17:00; Sa 10:00-16:00"},"title":"Hebden Bridge Library","url":"https://www.calderdale.gov.uk/v2/residents/leisure-and-culture/libraries/your-local-library/hebden-bridge-library"},"type":"Feature"},
		{"geometry":{"coordinates":[-2.02251,53.56654],"type":"Point"},"properties":{"_source":"warm_spaces","address":"Delph Library, Millgate, Oldham, England, OL3","hours":{"_text":"Tuesday, Wednesday &amp; Thursday 2pm–5pm, Friday &amp; Saturday 10am–1pm","opening":"Tu 14:00-17:00; We 14:00-17:00; Th 14:00-17:00; Fr 10:00-13:00; Sa 10:00-13:00"},"title":"Delph Library","url":"https://www.oldham.gov.uk/info/200395/find_a_library/1173/delph_library"},"type":"Feature"},
		{"geometry":{"coordinates":[-2.00639,53.54804],"type":"Point"},"properties":{"_source":"warm_spaces","address":"Uppermill Library Street, Chad&#39;s High Street, Oldham, England, OL3 6AZ","hours":{"_text":"Mon-Thu 9am–7pm, Fri 9am–5pm, Sat 9.30am-1pm","opening":"Mo-Th 09:00-19:00; Fr 09:00-17:00; Sa 09:30-13:00"},"title":"Uppermill Library","url":"https://www.oldham.gov.uk/info/200395/find_a_library/724/uppermill_library"},"type":"Feature"},
		{"geometry":{"coordinates":[-1.88842,53.72985],"type":"Point"},"properties":{"_source":"warm_spaces","address":"Fountain Head Inn, 45 Mount Pellon Road, Halifax, England, HX2 0EE","hours":{"_text":"11am-11pm"},"title":"Fountain Community Organisation Ltd","url":"https://m.facebook.com/profile.php?_rdr&amp;eav=AfatPV-7qSB3nynDuNvSlai3_SxkQ6Eaqn1GS4L6bezMM8yQWe3Cf8oB5kTI-rqWkZA&amp;id=100047988896151&amp;paipv=0&amp;ref=py_c"},"type":"Feature"},
		{"geometry":{"coordinates":[-1.77377,53.74709],"type":"Point"},"properties":{"_source":"bradford_council","address":"BD12 8DL","hours":{},"title":"Royds Community Assotiation","url":"https://costoflivingbradford.co.uk/warm-spaces-directory-old/royds-community-assotiation/"},"type":"Feature"},
		{"geometry":{"coordinates":[-1.76863,53.73604],"type":"Point"},"properties":{"_source":"bradford_council","address":"BD12 9JP","hours":{},"title":"Wyke Christian Community Church","url":"https://costoflivingbradford.co.uk/warm-spaces-directory-old/wyke-christian-community-church/"},"type":"Feature"},
		{"geometry":{"coordinates":[-1.77139,53.74251],"type":"Point"},"properties":{"_source":"bradford_council","address":"BD12 8AL","hours":{},"title":"Wyke Library","url":"https://costoflivingbradford.co.uk/warm-spaces-directory-old/wyke-library/"},"type":"Feature"}
	]
}
