{
	"type": "FeatureCollection",
	"features": [
		{"geometry":{"coordinates":[-1.86473,53.73359],"type":"Point"},"properties":{"_source":"warm_welcome","address":"Akoroyd Library, Bankfield Museum, West Yorkshire HX3 6HG","description":"The space is open to all.","hours":{"_text":"Tuesday: 10:00 - 16:00, Wednesday: 10:00 - 16:00, Thursday: 10:00 - 16:00, Friday: 10:00 - 16:00, Saturday: 10:00 - 16:00","opening":"Tu 10:00-16:00; We 10:00-16:00; Th 10:00-16:00; Fr 10:00-16:00; Sa 10:00-16:00"},"title":"Akroyd Library"},"type":"Feature"},
		{"geometry":{"coordinates":[-1.78723,53.57399],"type":"Point"},"properties":{"_source":"warm_welcome","address":"Netherthong Community Space, Holmfirth, West Yorkshire HD9 3ED","description":"Netherthong Community Space is run by Netherthong Community Partnership (NCP). It is located within All Saints Church. We are a non religious, non-political charity space, which is entirely run by volunteers & trustees for the benefit of the community.","hours":{"_text":"Monday: 09:30 - 11:30, Tuesday: 14:00 - 16:00, Friday: 12:00 - 14:00 / 13:30 - 16:30 Monthly","opening":"Mo 09:30-11:30; Tu 14:00-16:00; Fr 12:00-14:00,13:30-16:30"},"title":"All Saints Church"},"type":"Feature"},
		{"geometry":{"coordinates":[-1.87144,53.71684],"type":"Point"},"properties":{"_source":"warm_welcome","address":"Arch-Way Project, Halifax, WEST YORKSHIRE HX1 3AG","description":"Our space is a welcoming environment where you can come for a cup of tea or coffee and chat with other people, you can also take part in many of the interventions we have on offer. There are terms involved in this but we are a drop-in centre and pride ourselves on being a warm and welcoming space within the community.","hours":{"_text":"Monday: 13:00 - 16:00, Tuesday: 10:00 - 16:00, Wednesday: 10:00 - 16:00, Thursday: 10:00 - 16:00","opening":"Mo 13:00-16:00; Tu 10:00-16:00; We 10:00-16:00; Th 10:00-16:00"},"title":"Arch-Way Project Warm Space"},"type":"Feature"},
		{"geometry":{"coordinates":[-1.88411,53.74757],"type":"Point"},"properties":{"_source":"warm_welcome","address":"Beechwood Road Library, Halifax, West Yorkshire HX2 9BU","description":"SPACE OPENING ON 1st October 2024** Library","hours":{"_text":"Monday: 10:00 - 17:00, Tuesday: 00:00 - 00:00, Wednesday: 00:00 - 00:00, Thursday: 10:00 - 17:00, Friday: 10:00 - 17:00, Saturday: 10:00 - 13:00","opening":"Mo 10:00-17:00; Tu 00:00-00:00; We 00:00-00:00; Th 10:00-17:00; Fr 10:00-17:00; Sa 10:00-13:00"},"title":"Beechwood Road Public Library"},"type":"Feature"},
		{"geometry":{"coordinates":[-1.78420,53.65810],"type":"Point"},"properties":{"_source":"warm_welcome","address":"Hillhouse, Huddersfield, West Yorkshire HD1 6HF","description":"All our libraries are heated, comfortable to stay in for long periods of time - they have a range of both comfy seating, and more functional furniture for study or computer use. A place to keep warm, meet friends, sit and read and take part in activities.","hours":{"_text":"Tuesday: 10:00 - 13:00, Wednesday: 13:00 - 17:00, Friday: 14:00 - 18:00, Saturday: 11:00 - 15:00","opening":"Tu 10:00-13:00; We 13:00-17:00; Fr 14:00-18:00; Sa 11:00-15:00"},"title":"Birkby Fartown Library"},"type":"Feature"},
		{"geometry":{"coordinates":[-1.78124,53.70232],"type":"Point"},"properties":{"_source":"warm_welcome","address":"Brighouse Methodist Church, Brighouse, Calderdale HD6 1AQ","description":"We provide a warm space, including a hot meal and drinks available on a Friday morning 10:00pm till 2:pm","hours":{"_text":"Friday: 10:00 - 02:00","opening":"Fr 10:00-02:00"},"title":"Brighouse Central Methodist Church"},"type":"Feature"},
		{"geometry":{"coordinates":[-1.78692,53.70371],"type":"Point"},"properties":{"_source":"warm_welcome","address":"Brighouse Library, Halifax Road, Brighouse","description":"We are closed from 4pm on 23rd December 2023 until 10am 4th January 2024","hours":{"_text":"Monday: 10:00 - 18:30, Tuesday: 10:00 - 17:00, Thursday: 10:00 - 17:00, Friday: 10:00 - 18:30, Saturday: 10:00 - 16:00","opening":"Mo 10:00-18:30; Tu 10:00-17:00; Th 10:00-17:00; Fr 10:00-18:30; Sa 10:00-16:00"},"title":"Brighouse Library"},"type":"Feature"},
		{"geometry":{"coordinates":[-1.77871,53.70747],"type":"Point"},"properties":{"_source":"warm_welcome","address":"Brighouse Pool & Fitness Centre, Brighouse, West Yorkshire HD6 4AX","description":"SPACE OPENING ON 28th November 2024** *SPACE OPENING ON THURSDAY 28TH NOV 2024* A social warm space for anyone in our community. Come along to our warm space for a cup of tea, make new friends, some fun board games, table tennis or just to have a chat.","hours":{"_text":"Thursday: 13:00 - 17:00, Friday: 11:00 - 12:30","opening":"Th 13:00-17:00; Fr 11:00-12:30"},"title":"Brighouse pool and fitness centre"},"type":"Feature"},
		{"geometry":{"coordinates":[-1.88228,53.71454],"type":"Point"},"properties":{"_source":"warm_welcome","address":"Calderdale Borough Council, Halifax, West Yorkshire HX1 3BG","description":"Hot drinks available 10am-3pm. For more information on groups and events, call in and see us or visit Calderdale Libraries on Facebook.","hours":{"_text":"Monday: 10:00 - 17:00, Tuesday: 10:00 - 18:30, Thursday: 10:00 - 18:30, Friday: 10:00 - 17:00, Saturday: 10:00 - 16:00","opening":"Mo 10:00-17:00; Tu 10:00-18:30; Th 10:00-18:30; Fr 10:00-17:00; Sa 10:00-16:00"},"title":"Calderdale MBC"},"type":"Feature"},
		{"geometry":{"coordinates":[-1.85521,53.72189],"type":"Point"},"properties":{"_source":"warm_welcome","address":"Square Road, Halifax, West Yorkshire HX1 1QG","description":"Housed in an award-winning building, the library is in Halifax just through Piece Hall's east gate.","hours":{"_text":"Monday: 10:00 - 18:30, Tuesday: 10:00 - 17:30, Wednesday: 10:00 - 17:30, Thursday: 10:00 - 18:30, Friday: 10:00 - 17:30, Saturday: 10:00 - 16:00","opening":"Mo 10:00-18:30; Tu 10:00-17:30; We 10:00-17:30; Th 10:00-18:30; Fr 10:00-17:30; Sa 10:00-16:00"},"title":"Central Library and Archives"},"type":"Feature"},
		{"geometry":{"coordinates":[-1.76750,53.66861],"type":"Point"},"properties":{"_source":"warm_welcome","address":"The Chestnut Centre, Huddersfield, West Yorkshire HD2 1HJ","description":"All our libraries are heated, comfortable to stay in for long periods of time - they have a range of both comfy seating, and more functional furniture for study or computer use. A place to keep warm, meet friends, sit and read and take part in activities.","hours":{"_text":"Monday: 09:00 - 17:00, Tuesday: 09:00 - 17:00, Wednesday: 09:00 - 17:00, Thursday: 09:00 - 17:00, Friday: 09:00 - 17:00","opening":"Mo 09:00-17:00; Tu 09:00-17:00; We 09:00-17:00; Th 09:00-17:00; Fr 09:00-17:00"},"title":"Chestnut Centre"},"type":"Feature"},
		{"geometry":{"coordinates":[-1.87043,53.71983],"type":"Point"},"properties":{"_source":"warm_welcome","address":"The Kings Church, West Yorkshire HX1 2TS","description":"Aimed at students and staff from nearby Calderdale College, Chilli Tuesdays offers free lunch, warm welcome, chill out space, opportunity to chat, connections to local organisations on Tuesday (term time) between 12pm and 2pm.","hours":{"_text":"Tuesday: 12:00 - 02:00","opening":"Tu 12:00-02:00"},"title":"Chilli Tuesdays"},"type":"Feature"},
		{"geometry":{"coordinates":[-1.84689,53.59250],"type":"Point"},"properties":{"_source":"warm_welcome","address":"The Crossroads Centre 26 Huddersfield road, Meltham, Holmfirth HD9 4AG","description":"The Centre has a number of rooms which are used by local organisations where groups meet. On Wednesday Warm and Welcoming takes place from 10am to 1pm with the purpose providing hot beverages, the opportunity to meet new people and share thoughts on keeping warm and coping in the winter months.","hours":{"_text":"Wednesday: 10:00 - 13:00","opening":"We 10:00-13:00"},"title":"Crossroads Centre"},"type":"Feature"},
		{"geometry":{"coordinates":[-2.09109,53.57736],"type":"Point"},"properties":{"_source":"warm_welcome","address":"Dovetales Christian Centre, Oldham, Lancashire OL2 8UY","description":"We are open Wednesday and Thursday 10.30 am to 12 noon","hours":{"_text":"Wednesday: 10:30 - 12:00, Thursday: 10:30 - 12:00","opening":"We 10:30-12:00; Th 10:30-12:00"},"title":"Dovetales International Trust"},"type":"Feature"},
		{"geometry":{"coordinates":[-1.79599,53.63247],"type":"Point"},"properties":{"_source":"warm_welcome","address":"Eachstep Lockwood, Huddersfield, West Yorkshire HD1 3XH","description":"Coffee morning every Wednesday 10.30am - 12pm. Join us in our warm, cosy lounge for coffee, cake & a chat. Everyone welcome.","hours":{"_text":"Wednesday: 10:30 - 12:00","opening":"We 10:30-12:00"},"title":"Eachstep Lockwood"},"type":"Feature"},
		{"geometry":{"coordinates":[-1.83771,53.68488],"type":"Point"},"properties":{"_source":"warm_welcome","address":"Calderdale Metropolitan Borough Council, West Yorkshire HX5 0DF","description":"The space is open to all and free warm drinks are available during opening hours","hours":{"_text":"Monday: 10:00 - 17:00, Tuesday: 10:00 - 17:00, Wednesday: 10:00 - 13:00, Thursday: 10:00 - 18:00, Friday: 10:00 - 17:00, Saturday: 10:00 - 16:00","opening":"Mo 10:00-17:00; Tu 10:00-17:00; We 10:00-13:00; Th 10:00-18:00; Fr 10:00-17:00; Sa 10:00-16:00"},"title":"Elland Library"},"type":"Feature"},
		{"geometry":{"coordinates":[-1.78651,53.64787],"type":"Point"},"properties":{"_source":"warm_welcome","address":"National Childrens Centre, West Yorkshire, West Yorkshire HD1 5JP","description":"Open from 8th January 2024 We are an inclusive space, open to all. A warm and welcoming place offering nutritious homecooked food and local connection.","hours":{"_text":"Monday: 09:30 - 14:30 / 14:00 - 16:00, Tuesday: 09:30 - 14:30 / 16:00 - 18:00, Wednesday: 09:30 - 14:30 / 14:30 - 16:30, Thursday: 09:30 - 14:30 / 14:00 - 16:00, Friday: 12:00 - 16:00","opening":"Mo 09:30-14:30,14:00-16:00; Tu 09:30-14:30,16:00-18:00; We 09:30-14:30,14:30-16:30; Th 09:30-14:30,14:00-16:00; Fr 12:00-16:00"},"title":"Full Circle Community Cafe"},"type":"Feature"},
		{"geometry":{"coordinates":[-1.80083,53.65188],"type":"Point"},"properties":{"_source":"warm_welcome","address":"Gledholt Methodist Church, Huddersfield, West Yorkshire HD1 5QX","description":"Wednesdays @ Gledholt during term time. Join us for a friendly welcome with free hot drinks and toast with chat and support from various agencies through the local Hub. Crafting for Wellbeing session from 9.30-11.30am organised by Kirklees College Community Learning (registration required). Supported by Community Plus, with a grant from the UK Government Prosperity Fund and Yorkshire West Methodist District.","hours":{"_text":"Wednesday: 09:30 - 11:30","opening":"We 09:30-11:30"},"title":"Gledholt Methodist Church"},"type":"Feature"},
		{"geometry":{"coordinates":[-1.85555,53.63988],"type":"Point"},"properties":{"_source":"warm_welcome","address":"Town End, Huddersfield, West Yorkshire HD7 4QD","description":"All our libraries are heated, comfortable to stay in for long periods of time - they have a range of both comfy seating, and more functional furniture for study or computer use. A place to keep warm, meet friends, sit and read and take part in activities.","hours":{"_text":"Monday: 13:00 - 18:00, Tuesday: 10:00 - 13:00, Thursday: 13:00 - 17:00, Saturday: 10:00 - 13:00","opening":"Mo 13:00-18:00; Tu 10:00-13:00; Th 13:00-17:00; Sa 10:00-13:00"},"title":"Golcar Library"},"type":"Feature"},
		{"geometry":{"coordinates":[-1.93607,53.70399],"type":"Point"},"properties":{"_source":"warm_welcome","address":"St. Peter's Community Centre, West Yorkshire, West Yorkshire HX6 1HB","description":"Community drop in provision to provide warm space and signposting every Monday & Wednesday, 10 - 2. Homemade soup and refreshments provided without charge and community pantry available if required.","hours":{"_text":"Monday: 10:00 - 14:00, Wednesday: 10:00 - 14:00","opening":"Mo 10:00-14:00; We 10:00-14:00"},"title":"Grassroots Family CIC"},"type":"Feature"},
		{"geometry":{"coordinates":[-2.07934,53.54598],"type":"Point"},"properties":{"_source":"warm_welcome","address":"Greenacres Community Centre, Oldham, Grt Manchester OL4 3EU","description":"A community space to benefit the neighbourhood and it's surrounding areas. We listen to what the users needs are and adapt to meet with the help from external funders. Come along and find like minded people to chat and hobbie/learn with, plus help and advice on any concerns you may have.","hours":{"_text":"Monday: 09:30 - 21:00, Tuesday: 09:30 - 21:00, Wednesday: 09:30 - 21:00, Thursday: 09:30 - 21:00, Friday: 09:30 - 21:00, Saturday: 09:00 - 19:00, Sunday: 09:00 - 19:00","opening":"Mo 09:30-21:00; Tu 09:30-21:00; We 09:30-21:00; Th 09:30-21:00; Fr 09:30-21:00; Sa 09:00-19:00; Su 09:00-19:00"},"title":"Greenacres Community Centre"},"type":"Feature"},
		{"geometry":{"coordinates":[-2.09805,53.64578],"type":"Point"},"properties":{"_source":"warm_welcome","address":"Hare Hill Park Bowling Club, Littleborough, Greater Manchester OL15 9HE","description":"Large, warm clubhouse with car park, seating for around 30 . Well equipped kitchen, books, indoor games (pool, dominoes, cards.","title":"Hare Hill Park Bowling Club"},"type":"Feature"},
		{"geometry":{"coordinates":[-2.01206,53.74124],"type":"Point"},"properties":{"_source":"warm_welcome","address":"Calderdale Metropolitan Borough Council, West Yorkshire HX7 8EP","description":"A public library and open to all.","hours":{"_text":"Monday: 10:00 - 18:30, Wednesday: 10:00 - 17:00, Thursday: 10:00 - 18:30, Friday: 10:00 - 17:00, Saturday: 10:00 - 16:00","opening":"Mo 10:00-18:30; We 10:00-17:00; Th 10:00-18:30; Fr 10:00-17:00; Sa 10:00-16:00"},"title":"Hebden Bridge Library"},"type":"Feature"},
		{"geometry":{"coordinates":[-2.01311,53.74234],"type":"Point"},"properties":{"_source":"warm_welcome","address":"Town Hall,, Hebden Bridge, West Yorkshire HX7 7BY","description":"Welcome to our Public Living Room in our reception area at the Town Hall. We have a comfy sofa & chairs, plenty to read, and games to play. Watch the busy life of the Town Hall unfold and join some of the diverse groups and activities taking place here.","hours":{"_text":"Monday: 08:30 - 16:00, Tuesday: 08:30 - 16:00, Wednesday: 08:30 - 16:00, Thursday: 08:30 - 16:00, Friday: 08:30 - 16:00, Saturday: 09:00 - 16:00","opening":"Mo 08:30-16:00; Tu 08:30-16:00; We 08:30-16:00; Th 08:30-16:00; Fr 08:30-16:00; Sa 09:00-16:00"},"title":"Hebden Bridge Town Hall"},"type":"Feature"},
		{"geometry":{"coordinates":[-1.78273,53.64813],"type":"Point"},"properties":{"_source":"warm_welcome","address":"46 John William Street, Huddersfield, West Yorkshire HD1 1ER","description":"Hive is a warm and inviting cafe and community hub in central Huddersfield, with easy access to transport and parking. Hive not only sells affordable hot drinks and food, but we also support our LGBTQ+ community (teens and adults) as well as been an inviting and open space for those requiring a little support who may be isolated or lonely. All are welcome in our safe space. Hive is a not for profit cafe and community hub. We are a #safespace. The cafe offers Wellbeing Wednesday, with support for a wide range of community members from 9.30am to 3.00pm. Every Wednesday the drinks are complimentary and we gather to enjoy warming soup. The afternoon sees us hosting a range of activities to support people's wellbeing.","hours":{"_text":"Monday: 09:00 - 16:00, Tuesday: 09:00 - 16:00, Wednesday: 09:30 - 15:00, Thursday: 09:00 - 16:00, Friday: 09:00 - 16:00, Saturday: 09:30 - 16:00","opening":"Mo 09:00-16:00; Tu 09:00-16:00; We 09:30-15:00; Th 09:00-16:00; Fr 09:00-16:00; Sa 09:30-16:00"},"title":"Hive Cafe and Community Hub"},"type":"Feature"},
		{"geometry":{"coordinates":[-1.78832,53.56990],"type":"Point"},"properties":{"_source":"warm_welcome","address":"47 Huddersfield Road, Holmfirth, West Yorkshire HD9 3JH","description":"All our libraries are heated, comfortable to stay in for long periods of time - they have a range of both comfy seating, and more functional furniture for study or computer use. A place to keep warm, meet friends, sit and read and take part in activities.","hours":{"_text":"Monday: 09:30 - 19:00, Tuesday: 09:30 - 13:30, Wednesday: 13:00 - 17:30, Thursday: 09:30 - 17:30, Friday: 09:30 - 17:30, Saturday: 10:00 - 16:00","opening":"Mo 09:30-19:00; Tu 09:30-13:30; We 13:00-17:30; Th 09:30-17:30; Fr 09:30-17:30; Sa 10:00-16:00"},"title":"Holmfirth Library Hub"},"type":"Feature"},
		{"geometry":{"coordinates":[-1.79388,53.64968],"type":"Point"},"properties":{"_source":"warm_welcome","address":"Holy Trinity Church, Huddersfield, West Yorkshire HD1 4DT","description":"Fridays 11am while 2pm we run an older persons lunch group for people in the local area. For more information contact 01484 515420","hours":{"_text":"Friday: 11:00 - 14","opening":"Fr 11:00-14:00"},"title":"Holy Trinity Church - Friday Lunch Group"},"type":"Feature"},
		{"geometry":{"coordinates":[-1.79677,53.60219],"type":"Point"},"properties":{"_source":"warm_welcome","address":"West Avenue, Holmfirth, West Yorkshire HD9 6HF","description":"All our libraries are heated, comfortable to stay in for long periods of time - they have a range of both comfy seating, and more functional furniture for study or computer use. A place to keep warm, meet friends, sit and read and take part in activities.","hours":{"_text":"Tuesday: 13:00 - 18:00, Wednesday: 10:00 - 13:00, Friday: 13:00 - 17:00, Saturday: 10:00 - 13:00","opening":"Tu 13:00-18:00; We 10:00-13:00; Fr 13:00-17:00; Sa 10:00-13:00"},"title":"Honley Library"},"type":"Feature"},
		{"geometry":{"coordinates":[-1.78590,53.64476],"type":"Point"},"properties":{"_source":"warm_welcome","address":"Civic Centre 3, Huddersfield, West Yorkshire HD1 2EY","description":"All our libraries are heated, comfortable to stay in for long periods of time - they have a range of both comfy seating, and more functional furniture for study or computer use. A place to keep warm, meet friends, sit and read and take part in activities.","hours":{"_text":"Monday: 09:00 - 19:00, Tuesday: 09:00 - 17:00, Wednesday: 09:00 - 17:00, Thursday: 10:00 - 19:00, Friday: 09:00 - 17:00, Saturday: 09:00 - 16:30","opening":"Mo 09:00-19:00; Tu 09:00-17:00; We 09:00-17:00; Th 10:00-19:00; Fr 09:00-17:00; Sa 09:00-16:30"},"title":"Huddersfield Library Hub"},"type":"Feature"},
		{"geometry":{"coordinates":[-1.82383,53.66115],"type":"Point"},"properties":{"_source":"warm_welcome","address":"Lidget Street, Huddersfield, West Yorkshire HD3 3JP","description":"All our libraries are heated, comfortable to stay in for long periods of time - they have a range of both comfy seating, and more functional furniture for study or computer use. A place to keep warm, meet friends, sit and read and take part in activities.","hours":{"_text":"Monday: 10:00 - 13:00 / 14:00 - 17:00, Tuesday: 10:00 - 13:00 / 14:00 - 17:00, Thursday: 10:00 - 13:00 / 14:00 - 19:00, Friday: 10:00 - 13:00 / 14:00 - 17:00, Saturday: 10:00 - 14:00","opening":"Mo 10:00-13:00,14:00-17:00; Tu 10:00-13:00,14:00-17:00; Th 10:00-13:00,14:00-19:00; Fr 10:00-13:00,14:00-17:00; Sa 10:00-14:00"},"title":"Lindley Library"},"type":"Feature"},
		{"geometry":{"coordinates":[-1.85856,53.62111],"type":"Point"},"properties":{"_source":"warm_welcome","address":"Linthwaite Methodist Church, West Yorkshire HD7 5PD","description":"SPACE OPENING ON 24th November 2023** A warm welcome is extended to everyone. Join us for company, shared activities, refreshments, light home made lunch,home baking and much more.","hours":{"_text":"Friday: 09:00 - 03:00","opening":"Fr 09:00-03:00"},"title":"Linthwaite Methodist Warm Welcome Space"},"type":"Feature"},
		{"geometry":{"coordinates":[-1.78208,53.64496],"type":"Point"},"properties":{"_source":"warm_welcome","address":"16a Victoria Lane, West Yorkshire HD1 2QF","hours":{"_text":"Monday: 09:00 - 19:00, Tuesday: 09:00 - 17:00, Wednesday: 09:00 - 17:00, Thursday: 10:00 - 19:00, Friday: 09:00 - 17:00, Saturday: 09:00 - 16:30","opening":"Mo 09:00-19:00; Tu 09:00-17:00; We 09:00-17:00; Th 10:00-19:00; Fr 09:00-17:00; Sa 09:00-16:30"},"title":"Local Studies Library"},"type":"Feature"},
		{"geometry":{"coordinates":[-1.92683,53.60070],"type":"Point"},"properties":{"_source":"warm_welcome","address":"Mechanics Hall, Huddersfield, West Yorkshire HD7 6BW","description":"All our libraries are heated, comfortable to stay in for long periods of time - they have a range of both comfy seating, and more functional furniture for study or computer use. A place to keep warm, meet friends, sit and read and take part in activities.","hours":{"_text":"Tuesday: 10:00 - 13:00, Wednesday: 13:00 - 18:00, Thursday: 10:00 - 13:00, Friday: 13:00 - 17:00, Saturday: 10:00 - 15:00","opening":"Tu 10:00-13:00; We 13:00-18:00; Th 10:00-13:00; Fr 13:00-17:00; Sa 10:00-15:00"},"title":"Marsden Library"},"type":"Feature"},
		{"geometry":{"coordinates":[-1.84689,53.59250],"type":"Point"},"properties":{"_source":"warm_welcome","address":"Carlisle Institute, Holmfirth, West Yorkshire HD9 4AG","description":"All our libraries are heated, comfortable to stay in for long periods of time - they have a range of both comfy seating, and more functional furniture for study or computer use. A place to keep warm, meet friends, sit and read and take part in activities.","hours":{"_text":"Monday: 10:00 - 14:00, Tuesday: 13:00 - 17:00, Thursday: 13:30 - 17:30, Friday: 10:00 - 14:00, Saturday: 10:00 - 14:00","opening":"Mo 10:00-14:00; Tu 13:00-17:00; Th 13:30-17:30; Fr 10:00-14:00; Sa 10:00-14:00"},"title":"Meltham Library"},"type":"Feature"},
		{"geometry":{"coordinates":[-1.82191,53.66291],"type":"Point"},"properties":{"_source":"warm_welcome","address":"Lindley Methodist Church, East Street, Lindley, Huddersfield, West Yorkshire","description":"Open from 15/11/2023 Lunches, board games books and occasional speakers.","hours":{"_text":"Wednesday: 13:00 - 16:00","opening":"We 13:00-16:00"},"title":"Neighbours, everybody needs good neighbours"},"type":"Feature"},
		{"geometry":{"coordinates":[-1.82993,53.74010],"type":"Point"},"properties":{"_source":"warm_welcome","address":"Northowram Library, Lydgate Northowram, Halifax HX3 7EJ","description":"Please note the library closes between 13:00 and 14:00 on Monday, Tuesday and Thursday.","hours":{"_text":"Monday: 10:00 - 17:00, Tuesday: 10:00 - 17:00, Thursday: 10:00 - 17:00, Friday: 14:00 - 17:00, Saturday: 10:00 - 13:00","opening":"Mo 10:00-17:00; Tu 10:00-17:00; Th 10:00-17:00; Fr 14:00-17:00; Sa 10:00-13:00"},"title":"Northowram Library"},"type":"Feature"},
		{"geometry":{"coordinates":[-1.86581,53.73408],"type":"Point"},"properties":{"_source":"warm_welcome","address":"freda wade hall, halifax, west yorkshire hx3 6lr","description":"Open to all on wednesdays, sundays and thursdays, providing refreshments, 2 course lunch, activities and entertinment, support and a wellbeing wall with winter supplies, foods, toiletries, clothing and other bits, the services are free","hours":{"_text":"Wednesday: 11:00 - 15:00, Thursday: 10:30 - 13:30, Sunday: 11:00 - 15:00","opening":"We 11:00-15:00; Th 10:30-13:30; Su 11:00-15:00"},"title":"Our Place"},"type":"Feature"},
		{"geometry":{"coordinates":[-1.84127,53.68831],"type":"Point"},"properties":{"_source":"warm_welcome","address":"Project Colt, Elland, West Yorkshire HX5 0SQ","description":"A social enterprise providing a safe space and community incorporating a cafe area, preloved shopping and therapeutic activities.","hours":{"_text":"Monday: 08:00 - 17:00, Tuesday: 08:00 - 17:00, Wednesday: 08:00 - 17:00, Thursday: 08:00 - 17:00, Friday: 08:00 - 17:00, Saturday: 08:00 - 17:00","opening":"Mo 08:00-17:00; Tu 08:00-17:00; We 08:00-17:00; Th 08:00-17:00; Fr 08:00-17:00; Sa 08:00-17:00"},"title":"Project Colt"},"type":"Feature"},
		{"geometry":{"coordinates":[-1.79492,53.68891],"type":"Point"},"properties":{"_source":"warm_welcome","address":"Rastrick Library, Brighouse, HD6 3NE","description":"One of Calderdale's Libraries, open to all, warm drinks on offer Monday to Friday between 10am -3pm , Saturday 10-1pm","hours":{"_text":"Monday: 10:00 - 13:00 / 14:00 - 17:00, Tuesday: 10:00 - 13:00 / 14:00 - 17:00, Wednesday: 10:00 - 13:00, Thursday: 10:00 - 13:00 / 14:00 - 17:00, Friday: 10:00 - 13:00 / 14:00 - 17:00, Saturday: 10:00 - 13:00","opening":"Mo 10:00-13:00,14:00-17:00; Tu 10:00-13:00,14:00-17:00; We 10:00-13:00; Th 10:00-13:00,14:00-17:00; Fr 10:00-13:00,14:00-17:00; Sa 10:00-13:00"},"title":"Rastrick Library"},"type":"Feature"},
		{"geometry":{"coordinates":[-1.87785,53.62460],"type":"Point"},"properties":{"_source":"warm_welcome","address":"Slaithwaite Town Hall, Cross Street, Slaithwaite, Huddersfield, West Yorkshire HD7 5AF","description":"All our libraries are heated, comfortable to stay in for long periods of time - they have a range of both comfy seating, and more functional furniture for study or computer use. A place to keep warm, meet friends, sit and read and take part in activities.","hours":{"_text":"Monday: 10:00 - 13:00, Wednesday: 13:00 - 17:00, Thursday: 13:00 - 18:00, Saturday: 10:00 - 13:00","opening":"Mo 10:00-13:00; We 13:00-17:00; Th 13:00-18:00; Sa 10:00-13:00"},"title":"Slaithwaite Library"},"type":"Feature"},
		{"geometry":{"coordinates":[-1.91020,53.70739],"type":"Point"},"properties":{"_source":"warm_welcome","address":"Sowerby Bridge Pool & Fitness Centre, Sowerby Bridge, West Yorkshire HX6 3AB","description":"SPACE OPENING ON 25th November 2024** A social warm space for anyone in our community. Come along to our warm space for a cup of tea, make new friends, some fun board games, table tennis or just to have a chat.","hours":{"_text":"Tuesday: 15:00 - 17:30, Thursday: 13:00 - 14:15","opening":"Tu 15:00-17:30; Th 13:00-14:15"},"title":"Sowerby Bridge Pool & Fitness Centre"},"type":"Feature"},
		{"geometry":{"coordinates":[-1.90897,53.70987],"type":"Point"},"properties":{"_source":"warm_welcome","address":"Sowerby Bridge Library, Sowerby Bridge, West Yorkshire HX6 2QG","description":"Public Library","hours":{"_text":"Monday: 10:00 - 17:00, Tuesday: 10:00 - 18:00, Wednesday: 00:00 - 00:00, Thursday: 10:00 - 17:00, Friday: 10:00 - 17:00, Saturday: 10:00 - 16:00","opening":"Mo 10:00-17:00; Tu 10:00-18:00; We 00:00-00:00; Th 10:00-17:00; Fr 10:00-17:00; Sa 10:00-16:00"},"title":"Sowerby Bridge Public Library"},"type":"Feature"},
		{"geometry":{"coordinates":[-1.78904,53.65586],"type":"Point"},"properties":{"_source":"warm_welcome","address":"75 St. Johns Road, Birkby, Huddersfield, West Yorkshire HD1 5EA HD1 5EA","description":"SPACE OPENING ON 2nd November 2023** Community room inside church","hours":{"_text":"Thursday: 12:30 - 14:30","opening":"Th 12:30-14:30"},"title":"ST JOHN'S CHURCH, BIRKBY"},"type":"Feature"},
		{"geometry":{"coordinates":[-1.91090,53.70902],"type":"Point"},"properties":{"_source":"warm_welcome","address":"St. Pauls Methodist Church, West Yorkshire HX6 2EQ","description":"A warm space on a Sunday afternoon 3pm - 6pm in Sowerby Bridge. Serving hot and cold drinks, biscuits, a hot meal and pudding. We usually have some food to take away at the end. All absolutely free.","hours":{"_text":"Sunday: 15:00 - 18:00","opening":"Su 15:00-18:00"},"title":"Sunday Get Together"},"type":"Feature"},
		{"geometry":{"coordinates":[-1.80210,53.64207],"type":"Point"},"properties":{"_source":"warm_welcome","address":"Jubilee Centre, Market Street,, Paddock, Huddersfield, West Yorkshire HD1 4SH HD1 4SH","description":"Everyone welcome, including children Monday drop in coffee session open to all, followed by our luncheon club. A mens only warm space from 13.00-14.30 with cooking and chatting. Saturday every first Saturday of the month our Breathe space with drinks & cake with mindfulness activities.","hours":{"_text":"Monday: 10:30 - 13:00, Saturday: 10:00 - 12:00 Monthly","opening":"Mo 10:30-13:00; Sa 10:00-12:00"},"title":"The Branch"},"type":"Feature"},
		{"geometry":{"coordinates":[-1.85448,53.71365],"type":"Point"},"properties":{"_source":"warm_welcome","address":"Everybody Arts (formerly Artworks), Halifax, West Yorkshire HX3 9ET","description":"The Everybody Gallery is part of Everybody Arts: a non profit organisation with learning, wellbeing and studio programmes. We believe that art is for everyone, and should be accessible to all. Our Winter Warmth series launches in November, and gives you the chance to access our spaces and art activities for free throughout Winter. All are welcome, whether you are an existing member of our community or a first time visitor- we have creative activities available for all ages and abilities and will always provide a warm welcome and a hot cuppa. Friday Warm Space Drop-In, 12-3pm 10th Nov- 15th Dec and 12th Jan-29th March Family Winter Warmth Drop In, Saturday 10-12pm 11th Nov, 9th Dec, 13th Jan, 10th Feb, 9th March","hours":{"_text":"Friday: 12:00 - 15:00, Saturday: 10:00 Monthly","opening":"Fr 12:00-15:00"},"title":"The Everybody Gallery"},"type":"Feature"},
		{"geometry":{"coordinates":[-1.87071,53.72053],"type":"Point"},"properties":{"_source":"warm_welcome","address":"The King's Centre, Halifax, Halifax HX1 2TS","description":"King's Coffee House is open Monday - Friday 8.30am - 2pm with reasonably priced meals and drinks. A pensioners 3 course meal is available on Monday and Thursday for £5. We have a reception area with tables and chairs people are welcome to use (depending on other room users) and games and a cuppa can be provided. This is open 10am - 2.30pm Mon - Fri.","hours":{"_text":"Monday: 08:30 - 14:30, Tuesday: 08:30 - 14:30, Wednesday: 08:30 - 14:30, Thursday: 08:30 - 14:30, Friday: 08:30 - 14:30, Sunday: 10:00 - 12:30","opening":"Mo 08:30-14:30; Tu 08:30-14:30; We 08:30-14:30; Th 08:30-14:30; Fr 08:30-14:30; Su 10:00-12:30"},"title":"The King's Church Halifax"},"type":"Feature"},
		{"geometry":{"coordinates":[-1.86133,53.70084],"type":"Point"},"properties":{"_source":"warm_welcome","address":"All Saints Church, Dudwell Lane, Halifax, West Yorkshire HX3 0SD","description":"A warm and welcoming space with hot drinks and good conversation","hours":{"_text":"Thursday: 10:00 - 11:30","opening":"Th 10:00-11:30"},"title":"Thursday coffee space"},"type":"Feature"},
		{"geometry":{"coordinates":[-2.09887,53.71272],"type":"Point"},"properties":{"_source":"warm_welcome","address":"Calderdale Metropolitan Borough Council, Todmorden, Lancashire OL14 7LB","description":"The space is open to all.","hours":{"_text":"Monday: 10:00 - 18:30, Tuesday: 10:00 - 17:00, Wednesday: 10:00 - 17:00, Friday: 10:00 - 18:30, Saturday: 10:00 - 16:00","opening":"Mo 10:00-18:30; Tu 10:00-17:00; We 10:00-17:00; Fr 10:00-18:30; Sa 10:00-16:00"},"title":"Todmorden Library"},"type":"Feature"},
		{"geometry":{"coordinates":[-2.09887,53.71272],"type":"Point"},"properties":{"_source":"warm_welcome","address":"Todmorden Public Library, Todmorden, West Yorkshire OL14 7LB","description":"SPACE OPENING ON 1st October 2024** Public Library","hours":{"_text":"Monday: 10:00 - 18:30, Tuesday: 10:00 - 17:00, Wednesday: 10:00 - 17:00, Friday: 10:00 - 18:30, Saturday: 10:00 - 16:00","opening":"Mo 10:00-18:30; Tu 10:00-17:00; We 10:00-17:00; Fr 10:00-18:30; Sa 10:00-16:00"},"title":"Todmorden Public Library"},"type":"Feature"},
		{"geometry":{"coordinates":[-1.78115,53.64717],"type":"Point"},"properties":{"_source":"warm_welcome","address":"Huddersfield Parish Church, Huddersfield, West Yorkshire HD1 1BU","description":"Warm and welcoming space in the heart of Huddersfield with hot food and drinks available, the chance to chat and signposting to other support.","hours":{"_text":"Saturday: 10:00 - 02:00","opening":"Sa 10:00-02:00"},"title":"Warm Space"},"type":"Feature"},
		{"geometry":{"coordinates":[-1.76879,53.73920],"type":"Point"},"properties":{"_source":"warm_welcome","address":"Town Gate, Wyke, Bradford, West Yorkshire BD12 9JP","description":"You will receive a warm welcome and a choice of refreshments at our warm space. This of course is free of any charge, and simply a great place to keep warm and keep connected with other members of your local community. Thursdays 10am - 1pm during term-times. We look forward to serving you.","hours":{"_text":"Friday: 10:00 - 13:00","opening":"Fr 10:00-13:00"},"title":"Warm Welcome"},"type":"Feature"},
		{"geometry":{"coordinates":[-1.79262,53.62110],"type":"Point"},"properties":{"_source":"warm_welcome","address":"Berry Brow Methodist Church, West Yorkshire HD4 7LP","description":"A home-made light lunch followed by quizzes, games and fellowship. From 12.30 to 3 pm. All welcome. No charge but donations welcome.","hours":{"_text":"Tuesday: 12:30 - 15:00","opening":"Tu 12:30-15:00"},"title":"Warm Welcome"},"type":"Feature"},
		{"geometry":{"coordinates":[-1.76085,53.64556],"type":"Point"},"properties":{"_source":"warm_welcome","address":"Moldgreen United Reformed Church, Huddersfield, West Yorkshire HD5 8AA","description":"Drop in for free refreshments, advice and join in some craft activities or games.","hours":{"_text":"Monday: 09:00 - 11:30 Monthly","opening":"Mo 09:00-11:30"},"title":"Warm Welcomes - Moldgreen URC"},"type":"Feature"},
		{"geometry":{"coordinates":[-1.81904,53.65304],"type":"Point"},"properties":{"_source":"warm_welcome","address":"Focal Community Centre, Huddersfield, West Yorkshire HD3 4DD","description":"Drop in any Thursday morning for a brew, biscuits and a chat. Open to all.","hours":{"_text":"Thursday: 10:00 - 12:00","opening":"Th 10:00-12:00"},"title":"Waverley URC @ The FOCAL centre"},"type":"Feature"},
		{"geometry":{"coordinates":[-1.90730,53.70992],"type":"Point"},"properties":{"_source":"warm_welcome","address":"Christ Church, Halifax, West Yorkshire HX3 8AA","description":"This space can is open to all","hours":{"_text":"Wednesday: 10:00 - 12:00","opening":"We 10:00-12:00"},"title":"Wednesday coffee morning"},"type":"Feature"},
		{"geometry":{"coordinates":[-1.77128,53.74285],"type":"Point"},"properties":{"_source":"warm_welcome","address":"Wyke Library, Bradford, West Yorkshire BD12 8AL","description":"We can offer a safe place to keep warm, sit and enjoy a hot drink or maybe some soup at certain times. You can read newspapers or books and use the computers or WiFi. You can also do a jigsaw or take part in activities and events in the library. Warm Libraries provision times: Mondays 10am – 4pm, Wednesdays 10am – 1.30pm Saturdays 10am – 3pm Library opening times: Monday: 9.30am to 5pm Tuesday: 9.30am to 5pm Wednesday: 9.30am to 2pm Thursday: 9.30am to 7pm Friday: 9.30am to 5pm Saturday: 9.30am to 4pm Bradford Libraries are closed on public holidays.","hours":{"_text":"Monday: 10:00 - 16:00, Wednesday: 10:00 - 13:30, Saturday: 10:00 - 15:00","opening":"Mo 10:00-16:00; We 10:00-13:30; Sa 10:00-15:00"},"title":"Wyke Library"},"type":"Feature"},
		{"geometry":{"coordinates":[-1.76855,53.73932],"type":"Point"},"properties":{"_source":"bradford_council","address":"51 Town Gate Wyke, BD12 9JD","description":"You can expect a comfortable, warm space to sit. Free hot drinks, free phone/tablet or laptop charging, free access to our Wi-Fi hotspot.","hours":{"_text":"Thursday 9:30-14:30","opening":"Th 09:30-14:30"},"postcode":"BD12 9JD","title":"Frill and Flounce","url":"https://costoflivingbradford.co.uk/warm-spaces-directory-old/frill-and-flounce/"},"type":"Feature"},
		{"geometry":{"coordinates":[-1.76589,53.74208],"type":"Point"},"properties":{"_source":"bradford_council","address":"Wyke recreational ground Mayfield avenue Wyke Bradford, Bd12 9px","description":"Welcoming space with accessibility for all. Free tea and coffee.","hours":{"_text":"Saturday mornings 10am- 11am","opening":"Sa 10:00-11:00"},"postcode":"Bd12 9px","title":"Wyke ARLFC","url":"https://costoflivingbradford.co.uk/warm-spaces-directory-old/wyke-arlfc/"},"type":"Feature"},
		{"geometry":{"coordinates":[-1.76863,53.73604],"type":"Point"},"properties":{"_source":"bradford_council","address":"Town Gate, Wyke, Bradford , BD12 9JP","description":"Our warm space on a Friday is called ‘Warm Welcome.’ You will receive a warm welcome and a choice of refreshments and food, with a breakfast and lunch menu to choose from. This is all free of charge, and great place to keep warm and keep connected with other members of your local community.","hours":{"_text":"Fridays 10am – 1pm (term time only).","opening":"Fr 10:00-13:00"},"postcode":"BD12 9JP","title":"Wyke Christian Community Church","url":"https://costoflivingbradford.co.uk/warm-spaces-directory-old/wyke-christian-community-church/"},"type":"Feature"},
		{"geometry":{"coordinates":[-1.77139,53.74251],"type":"Point"},"properties":{"_source":"bradford_council","address":"Appleton academy, Huddersfield Road, BD12 8AL","description":"We can offer a safe place to keep warm, sit and enjoy a hot drink or maybe some soup at certain times. You can read newspapers or books and use the computers or Wi Fi. You can also do a jigsaw or take part in activities and events in the library.","hours":{"_text":"The library is open Monday, Tuesday and Friday 9:30 to 5:00, Wednesday 9:30 to 2:00, Thursday 9:30 to 7:00, Saturday 9:30 to 4:00 The Warm Space Provision is available: Monday 10:00 to 16:00, Wednesday 10:00 to 13:30, and Saturday 10:00 to 15:00. ","opening":"Mo 09:30-05:00; Tu 09:30-05:00; Fr 09:30-05:00; We 09:30-02:00; Th 09:30-07:00; Sa 09:30-04:00; Mo 10:00-16:00; We 10:00-13:30; Sa 10:00-15:00"},"postcode":"BD12 8AL","title":"Wyke Library","url":"https://costoflivingbradford.co.uk/warm-spaces-directory-old/wyke-library/"},"type":"Feature"},
		{"geometry":{"coordinates":[-1.86473,53.73359],"type":"Point"},"properties":{"_source":"calderdale_council","address":"Akroyd Park, Bankfield, Boothtown Road, Halifax, HX3 6HG","title":"Akroyd (Boothtown) Library"},"type":"Feature"},
		{"geometry":{"coordinates":[-1.86134,53.70102],"type":"Point"},"properties":{"_source":"calderdale_council","address":"Dudwell Lane, Halifax, HX3 0SD","title":"All Saints Church"},"type":"Feature"},
		{"geometry":{"coordinates":[-1.87142,53.71681],"type":"Point"},"properties":{"_source":"calderdale_council","address":"Arden Road, Halifax, HX1 3AG","title":"Arch Way Project"},"type":"Feature"},
		{"geometry":{"coordinates":[-1.87705,53.72466],"type":"Point"},"properties":{"_source":"calderdale_council","address":"Outback Community Garden, Lightowler Lane, Halifax, HX1 5NB","title":"Bahai Community of Calderdale"},"type":"Feature"},
		{"geometry":{"coordinates":[-1.86394,53.72048],"type":"Point"},"properties":{"_source":"calderdale_council","address":"10 Carlton Street, Halifax, HX1 2AL","title":"Basement Recovery Project (The)"},"type":"Feature"},
		{"geometry":{"coordinates":[-1.88411,53.74757],"type":"Point"},"properties":{"_source":"calderdale_council","address":"Beechwood Road, Illingworth, Halifax, HX2 9BU","title":"Beechwood Library"},"type":"Feature"},
		{"geometry":{"coordinates":[-1.86648,53.73711],"type":"Point"},"properties":{"_source":"calderdale_council","address":"Simpson Street, Claremount, Halifax, HX3 6PA","title":"Boothtown Wellbeing Centre"},"type":"Feature"},
		{"geometry":{"coordinates":[-1.78112,53.70180],"type":"Point"},"properties":{"_source":"calderdale_council","address":"Commercial Street, Brighouse, HD6 1AP","title":"Brighouse Central Methodists Church"},"type":"Feature"},
		{"geometry":{"coordinates":[-1.78604,53.70398],"type":"Point"},"properties":{"_source":"calderdale_council","address":"Halifax Road, Brighouse, HD6 2AF","title":"Brighouse Library"},"type":"Feature"},
		{"geometry":{"coordinates":[-1.78105,53.70953],"type":"Point"},"properties":{"_source":"calderdale_council","address":"Woodvale Road, Brighouse, HD6 4AS","title":"Brighouse Pool"},"type":"Feature"},
		{"geometry":{"coordinates":[-2.01094,53.74404],"type":"Point"},"properties":{"_source":"calderdale_council","address":"Hebden Bridge Medical Centre, Valley Road, Hebden Bridge, HX7 7BZ","title":"Calder Food Support Hebden Bridge"},"type":"Feature"},
		{"geometry":{"coordinates":[-1.86555,53.73420],"type":"Point"},"properties":{"_source":"calderdale_council","address":"Boothtown Methodist Church, Freda Wade Centre, Beverly Place, Halifax, HX3 6LP","title":"Calderdale Our Place, Boothtown"},"type":"Feature"},
		{"geometry":{"coordinates":[-1.85507,53.72240],"type":"Point"},"properties":{"_source":"calderdale_council","address":"Square Road, Halifax, HX1 1QG","title":"Central Halifax Library"},"type":"Feature"},
		{"geometry":{"coordinates":[-1.89031,53.72042],"type":"Point"},"properties":{"_source":"calderdale_council","address":"St Hilda's Church, Gibraltar Road, Halifax, HX1 4HE","title":"Children's Corner Pre-school"},"type":"Feature"},
		{"geometry":{"coordinates":[-1.81032,53.72552],"type":"Point"},"properties":{"_source":"calderdale_council","address":"Brighouse Road, Hipperholme, HX3 8AA","title":"Christ Church Hipperholme"},"type":"Feature"},
		{"geometry":{"coordinates":[-1.76225,53.70423],"type":"Point"},"properties":{"_source":"calderdale_council","address":"Towngate, Clifton, Brighouse, HD6 4HX","title":"Clifton Methodist Church"},"type":"Feature"},
		{"geometry":{"coordinates":[-2.01699,53.74139],"type":"Point"},"properties":{"_source":"calderdale_council","address":"Hebden Bridge Methodist Church, Market Street Hebden Bridge, HX7 6AA","title":"Cozy Cafe"},"type":"Feature"},
		{"geometry":{"coordinates":[-1.99992,53.70529],"type":"Point"},"properties":{"_source":"calderdale_council","address":"St Johns Church, Church Bank, Cragg Vale, HX7 5TF","title":"Cragg Vale Community Hubbub"},"type":"Feature"},
		{"geometry":{"coordinates":[-2.01387,53.74603],"type":"Point"},"properties":{"_source":"calderdale_council","address":"Suite 38, Windsor Works, Victoria Road, Hebden Bridge, HX7 8LN","title":"Disability Support Calderdale"},"type":"Feature"},
		{"geometry":{"coordinates":[-2.00431,53.74214],"type":"Point"},"properties":{"_source":"calderdale_council","address":"54 Hirst Grove, Hebden Bridge, HX7 8DN","title":"Dodnaze Community Association"},"type":"Feature"},
		{"geometry":{"coordinates":[-1.86268,53.72127],"type":"Point"},"properties":{"_source":"calderdale_council","address":"7 Harrison Road, Halifax, HX1 2AG","title":"EdShift"},"type":"Feature"},
		{"geometry":{"coordinates":[-1.83258,53.68107],"type":"Point"},"properties":{"_source":"calderdale_council","address":"Newcombe Street, Elland, HX5 0EG","title":"Elland Christian Centre"},"type":"Feature"},
		{"geometry":{"coordinates":[-1.83811,53.68488],"type":"Point"},"properties":{"_source":"calderdale_council","address":"Coronation Street, Elland, HX5 0DF","title":"Elland Library"},"type":"Feature"},
		{"geometry":{"coordinates":[-1.85448,53.71365],"type":"Point"},"properties":{"_source":"calderdale_council","address":"Shaw Lodge Mills, Shaw Lane, Halifax, HX3 9ET","title":"Everybody Arts"},"type":"Feature"},
		{"geometry":{"coordinates":[-1.77944,53.70113],"type":"Point"},"properties":{"_source":"calderdale_council","address":"12 Huddersfield Road, Brighouse, HS6 1JZ","title":"Focus4Hope"},"type":"Feature"},
		{"geometry":{"coordinates":[-1.93607,53.70399],"type":"Point"},"properties":{"_source":"calderdale_council","address":"St Peter's Community Centre, St Peter's Avenue, Sowerby, HX6 1HB","title":"Grass Roots Family CIC"},"type":"Feature"},
		{"geometry":{"coordinates":[-1.86618,53.72279],"type":"Point"},"properties":{"_source":"calderdale_council","address":"Hall Street, Halifax, HX1 5AY","title":"Halifax Elim Church"},"type":"Feature"},
		{"geometry":{"coordinates":[-2.01311,53.74234],"type":"Point"},"properties":{"_source":"calderdale_council","address":"The Town Hall, St George's Street, Hebden Bridge, HX7 7BY","title":"Hebden Bridge Community Association"},"type":"Feature"},
		{"geometry":{"coordinates":[-2.01206,53.74124],"type":"Point"},"properties":{"_source":"calderdale_council","address":"Cheetham Street, Hebden Bridge, HX7 8EP","title":"Hebden Bridge Library"},"type":"Feature"},
		{"geometry":{"coordinates":[-1.88089,53.72401],"type":"Point"},"properties":{"_source":"calderdale_council","address":"Raven Street Centre - Lower Floor, Raven Street, Halifax, HX1 4NB","title":"Himmat Limited"},"type":"Feature"},
		{"geometry":{"coordinates":[-1.86869,53.71273],"type":"Point"},"properties":{"_source":"calderdale_council","address":"Free School Lane, Savile Park, Halifax, HX1 2XE","title":"Holy Trinity & St Jude's Church"},"type":"Feature"},
		{"geometry":{"coordinates":[-2.01018,53.74013],"type":"Point"},"properties":{"_source":"calderdale_council","address":"Hope Street, Hebden Bridge, HX7 8AD","title":"Hope Baptist Church"},"type":"Feature"},
		{"geometry":{"coordinates":[-1.88228,53.71454],"type":"Point"},"properties":{"_source":"calderdale_council","address":"151 Haugh Shaw Road, Halifax, HX1 3BG","title":"King Cross Library"},"type":"Feature"},
		{"geometry":{"coordinates":[-1.82998,53.73990],"type":"Point"},"properties":{"_source":"calderdale_council","address":"Lydgate Northowram Halifax, HX3 7EJ","title":"Northowram Library"},"type":"Feature"},
		{"geometry":{"coordinates":[-1.88897,53.72776],"type":"Point"},"properties":{"_source":"calderdale_council","address":"Springhall Lane, Long Lover Lane, Halifax, HX1 4UA","title":"Pellon Baptist Church"},"type":"Feature"},
		{"geometry":{"coordinates":[-1.79358,53.68961],"type":"Point"},"properties":{"_source":"calderdale_council","address":"Crowtrees Lane, Rastrick, Brighouse, HD6 3NE","title":"Rastrick Library"},"type":"Feature"},
		{"geometry":{"coordinates":[-2.08987,53.71452],"type":"Point"},"properties":{"_source":"calderdale_council","address":"Halifax Road, Todmorden, OL14 5BE","title":"Roomfield Baptist Church"},"type":"Feature"},
		{"geometry":{"coordinates":[-1.77840,53.70279],"type":"Point"},"properties":{"_source":"calderdale_council","address":"33 King Street, Brighouse, HD6 1NX","title":"Salvation Army Brighouse"},"type":"Feature"},
		{"geometry":{"coordinates":[-1.91270,53.70894],"type":"Point"},"properties":{"_source":"calderdale_council","address":"Hollins Mill Lane, Sowerby Bridge, HX6 2QG","title":"Sowerby Bridge Library"},"type":"Feature"},
		{"geometry":{"coordinates":[-1.91078,53.70713],"type":"Point"},"properties":{"_source":"calderdale_council","address":"Station Road, Sowerby Bridge","title":"Sowerby Bridge Pool & Fitness Centre"},"type":"Feature"},
		{"geometry":{"coordinates":[-1.89559,53.72362],"type":"Point"},"properties":{"_source":"calderdale_council","address":"Huddersfield Road, Halifax, HX3 0AT","title":"St Andrews Methodist Church"},"type":"Feature"},
		{"geometry":{"coordinates":[-1.87789,53.72439],"type":"Point"},"properties":{"_source":"calderdale_council","address":"Hanson Lane, Halifax, HX1 5PG","title":"St Augustines Centre"},"type":"Feature"},
		{"geometry":{"coordinates":[-1.87242,53.73195],"type":"Point"},"properties":{"_source":"calderdale_council","address":"St George's House, 2 Lilac Street, Lee Mount HX3 5BT","title":"St George's Community Trust"},"type":"Feature"},
		{"geometry":{"coordinates":[-2.09784,53.71409],"type":"Point"},"properties":{"_source":"calderdale_council","address":"Burnley Road, Todmorden, OL14 7BD","title":"St Marys Church (Over 60s Soup and Social)"},"type":"Feature"},
		{"geometry":{"coordinates":[-1.91090,53.70902],"type":"Point"},"properties":{"_source":"calderdale_council","address":"Tower Hill, Sowerby Bridge, HX6 2EQ","title":"St Paul's Methodist Church Sowerby Bridge"},"type":"Feature"},
		{"geometry":{"coordinates":[-1.87043,53.71983],"type":"Point"},"properties":{"_source":"calderdale_council","address":"Park Lane, Halifax, HX1 2TS","title":"The Kings Church (Kings Centre - Park Road)"},"type":"Feature"},
		{"geometry":{"coordinates":[-1.80300,53.69009],"type":"Point"},"properties":{"_source":"calderdale_council","address":"The Space at Field Lane, Burnsall Road, Rastrick, HD6 3JT","title":"The Space @ Field Lane"},"type":"Feature"},
		{"geometry":{"coordinates":[-2.09554,53.71368],"type":"Point"},"properties":{"_source":"calderdale_council","address":"Lower George Street, Todmorden, OL14 5QG","title":"Todmorden Health Centre"},"type":"Feature"},
		{"geometry":{"coordinates":[-2.09884,53.71268],"type":"Point"},"properties":{"_source":"calderdale_council","address":"The Strand, Rochdale Road, Todmorden, OL14 7LB","title":"Todmorden Library"},"type":"Feature"},
		{"geometry":{"coordinates":[-1.87789,53.72439],"type":"Point"},"properties":{"_source":"calderdale_council","address":"Hanson Lane, Halifax, HX1 5PG","title":"Unique Ways"},"type":"Feature"},
		{"geometry":{"coordinates":[-1.85587,53.63950],"type":"Point"},"properties":{"_source":"kirklees_council","address":"12-14, Town End, HD7 4QD","title":"Golcar Library","url":"http://www.kirklees.gov.uk/beta/libraries/library-locations-and-times.aspx"},"type":"Feature"},
		{"geometry":{"coordinates":[-1.78817,53.57000],"type":"Point"},"properties":{"_source":"kirklees_council","address":"47, Huddersfield Road, HD9 3JH","title":"Holmfirth Library","url":"http://www.kirklees.gov.uk/beta/libraries/library-locations-and-times.aspx"},"type":"Feature"},
		{"geometry":{"coordinates":[-1.79441,53.60270],"type":"Point"},"properties":{"_source":"kirklees_council","address":"West Avenue, HD9 6HF","title":"Honley Library","url":"http://www.kirklees.gov.uk/beta/libraries/library-locations-and-times.aspx"},"type":"Feature"},
		{"geometry":{"coordinates":[-1.78609,53.64430],"type":"Point"},"properties":{"_source":"kirklees_council","address":"Civic Centre 3, High Street, Huddersfield, HD1 2YZ","title":"Huddersfield Library","url":"http://www.kirklees.gov.uk/beta/libraries/library-locations-and-times.aspx"},"type":"Feature"},
		{"geometry":{"coordinates":[-1.82353,53.66090],"type":"Point"},"properties":{"_source":"kirklees_council","address":"Lidget Street, HD3 3JP","title":"Lindley Library and Information Centre","url":"http://www.kirklees.gov.uk/beta/libraries/library-locations-and-times.aspx"},"type":"Feature"},
		{"geometry":{"coordinates":[-1.92664,53.60100],"type":"Point"},"properties":{"_source":"kirklees_council","address":"Marsden Mechanics Hall, Peel Street, HD7 6BW","title":"Marsden Library","url":"http://www.kirklees.gov.uk/beta/libraries/library-locations-and-times.aspx"},"type":"Feature"},
		{"geometry":{"coordinates":[-1.84902,53.59220],"type":"Point"},"properties":{"_source":"kirklees_council","address":"Meltham Town Hall, Huddersfield Road, HD9 4AG","title":"Meltham Library and Information Centre","url":"http://www.kirklees.gov.uk/beta/libraries/library-locations-and-times.aspx"},"type":"Feature"},
		{"geometry":{"coordinates":[-1.87757,53.62430],"type":"Point"},"properties":{"_source":"kirklees_council","address":"Slaithwaite Town Hall, Cross Street, Slaithwaite, Huddersfield, HD7 5AF","title":"Slaithwaite Library","url":"http://www.kirklees.gov.uk/beta/libraries/library-locations-and-times.aspx"},"type":"Feature"},
		{"geometry":{"coordinates":[-1.76844,53.66820],"type":"Point"},"properties":{"_source":"kirklees_council","address":"2a, Chestnut Street, HD2 1HJ","title":"Chestnut Centre, Deighton Library and Information Centre","url":"http://www.kirklees.gov.uk/beta/libraries/library-locations-and-times.aspx"},"type":"Feature"},
		{"geometry":{"coordinates":[-1.78388,53.65800],"type":"Point"},"properties":{"_source":"kirklees_council","address":"Birkby and Fartown Library, 2 Lea Street, Fartown, Huddersfield, HD1 6HF","title":"Birkby and Fartown Library","url":"http://www.kirklees.gov.uk/beta/libraries/library-locations-and-times.aspx"},"type":"Feature"},
		{"geometry":{"coordinates":[-1.83704,53.68318],"type":"Point"},"properties":{"_source":"leeds_city_council","accessibility":"We are fully wheelchair accessible with a disability toilet and lift if needed.","address":"Space2, The Old Fire Station, Gipton Approach, Leeds","contact":"Tel: 0113 320 0159, Email: info@space2.org.uk","description":"Pay what you feel meal games","hours":{"_text":"Monday: 17.00 -20.00 ","opening":"Mo 17:00-20:00"},"title":"Space2","type":"Arts Centre","url":"Space2.org.uk"},"type":"Feature"},
		{"geometry":{"coordinates":[-2.09805,53.64727],"type":"Point"},"properties":{"_source":"rochdale_council","contact":"littleborough.library@rochdale.gov.uk","description":"Hare Hill Road, Littleborough OL15 9HE","title":"Warm Welcome Space at Littleborough Library"},"type":"Feature"},
		{"geometry":{"coordinates":[-2.10687,53.63207],"type":"Point"},"properties":{"_source":"rochdale_council","contact":"smithybridge.library@rochdale.gov.uk","description":"121 Smithy Bridge Road, Littleborough OL15 0BQ","title":"Warm Welcome Space at Smithy Bridge Library"},"type":"Feature"},
		{"geometry":{"coordinates":[-2.10456,53.60606],"type":"Point"},"properties":{"_source":"rochdale_council","title":"Warm Welcome Space at Milnrow Library"},"type":"Feature"}
	]
}
