{
	"type": "FeatureCollection",
	"features": [
		{"geometry":{"coordinates":[-2.09029,53.50097],"type":"Point"},"properties":{"_source":"warm_welcome","address":"Oasis Broadoak Hub, United Kingdom OL6 8QG","description":"A place for everyone. Daily activities, groups and drop in sessions ran by the community FOR the community.","hours":{"_text":"Monday: 09:00 - 15:00, Tuesday: 09:00 - 15:00, Thursday: 09:00 - 15:00, Friday: 09:00 - 15:00","opening":"Mo 09:00-15:00; Tu 09:00-15:00; Th 09:00-15:00; Fr 09:00-15:00"},"title":"Oasis Hub Broadoak"},"type":"Feature"},
		{"geometry":{"coordinates":[-2.07550,53.48746],"type":"Point"},"properties":{"_source":"warm_welcome","address":"St. Gabriels Church, Manchester OL6 6RB","description":"All welcome and all free Tea/Coffee and toast on arrival. Word search etc t get the brain going. Seated exercise class with qualified instructor for 45 mins. Unlimited drinks hot and cold. Mid morning snack of fruit and cake. Bingo session. Community garden activities. Every 4 weeks free lunch with film / exercise / other actvities in the afternoon","hours":{"_text":"Monday: 09:30 - 12","opening":"Mo 09:30-12:00"},"title":"Place of Welcome"},"type":"Feature"},
		{"geometry":{"coordinates":[-2.10018,53.44345],"type":"Point"},"properties":{"_source":"warm_welcome","address":"Irwell Valley Homes - The Oasis Community Resource Centre, Ma M34 7PL","description":"SPACE OPENING ON 2nd November 2023** This thriving community centre offers free access to: * Computers / printing service * WiFi * The free community library * Warm friendly centre with lots of activities and services * Hot drinks / soups * A place to go to get out of the cold, socialise and get involved in your community.","hours":{"_text":"Thursday: 10:30 - 12:30","opening":"Th 10:30-12:30"},"title":"Warm Welcome Space - The Oasis Community Resource Centre"},"type":"Feature"},
		{"geometry":{"coordinates":[-2.09153,53.48829],"type":"Point"},"properties":{"_source":"warm_spaces","address":"12 George Street, Ashton-under-Lyne, England, OL6 6AQ, United Kingdom","description":"Free Food/Drink, Device Charging, Advice, People to chat to, Toilets","hours":{"_text":"Monday-Friday, 1pm-3pm","opening":"Mo-Fr 13:00-15:00"},"title":"The Anthony Seddon Fund","url":"https://tasfund.org.uk"},"type":"Feature"},
		{"geometry":{"coordinates":[-2.09155,53.48817],"type":"Point"},"properties":{"_source":"warm_spaces","address":"12 George Street, Ashton-under-Lyne, England, OL6 6AQ, United Kingdom","description":"Free Food/Drink, Device Charging, Advice, People to chat to, Toilets, Accessible Toilet","hours":{"_text":"Monday-Friday 1pm-3pm","opening":"Mo-Fr 13:00-15:00"},"title":"The Anthony Seddon Fund","url":"https://tasfund.org.uk"},"type":"Feature"},
		{"geometry":{"coordinates":[-2.07670,53.44899],"type":"Point"},"properties":{"_source":"warm_spaces","address":"The Union Church, Union Street, Hyde, England, SK14 1ND, United Kingdom","description":"Free Food/Drink, Free Wi-Fi, Device Charging, Advice, People to chat to, Wheelchair Accessible, Toilets, Accessible Toilet, Parking, Child Friendly, Computer Access","hours":{"_text":"Monday 10.30am-12.30pm, Wednesday 10.30am-1.30pm","opening":"Mo 10:30-12:30; We 10:30-13:30"},"title":"The Chinwags","url":"https://unitedchurchhyde.org.uk/Groups/305155/The_Chinwags.aspx"},"type":"Feature"},
		{"geometry":{"coordinates":[-2.10162,53.52138],"type":"Point"},"properties":{"_source":"warm_spaces","address":"Fitton Hill Library, Fitton Hill Neighbourhood Centre, Fircroft Road, Oldham, England, OL8 2QD, United Kingdom","description":"People to chat to, Space to work, Free PC access, Free tea/coffee","hours":{"_text":"Tuesday 2pm-5pm, Wednesday &amp; Thursday 2pm-7pm, Friday &amp; Saturday 9:30am-1pm","opening":"We 14:00-19:00; Th 14:00-19:00; Fr 09:30-13:00; Sa 09:30-13:00; Tu 14:00-17:00"},"title":"Fitton Hill Library","url":"https://www.oldham.gov.uk/info/200395/find_a_library/1173/delph_library"},"type":"Feature"},
		{"geometry":{"coordinates":[-2.07179,53.53734],"type":"Point"},"properties":{"_source":"warm_spaces","address":"Lees Library Community Hub, Thomas Street, Oldham, England, OL4 5DA, United Kingdom","description":"Free Food/Drink, Free Wi-Fi, Device Charging, Advice, People to chat to, Space to work","hours":{"_text":"Mon-Thu 9am–7pm, Fri 9am–5pm, Sat 9.30am-1pm","opening":"Mo-Th 09:00-19:00; Fr 09:00-17:00; Sa 09:30-13:00"},"title":"Lees Library","url":"https://www.oldham.gov.uk/info/200395/find_a_library/719/lees_library_community_hub"},"type":"Feature"},
		{"geometry":{"coordinates":[-2.03823,53.35798],"type":"Point"},"properties":{"_source":"cheshire_east_council","title":"Disley Library","url":"https://livewellservices.cheshireeast.gov.uk"},"type":"Feature"},
		{"geometry":{"coordinates":[-1.95000,53.44396],"type":"Point"},"properties":{"_source":"high_peak_council","address":"22 Henry Street, Glossop SK13 8BW","description":"Refreshments will be available - Charging Points and also Free Wifi available","hours":{"_text":"Friday - 2pm - 4.30pm","opening":"Fr 14:00-16:30"},"loc_pcd":true,"title":"The Bureau","url":"http://www.thebureau.org.uk"},"type":"Feature"},
		{"geometry":{"coordinates":[-1.95283,53.44277],"type":"Point"},"properties":{"_source":"high_peak_council","address":"11-13 Chapel Street, Glossop, SK13 8AT","description":"Some refreshments and activities available - wheelchair / disabled access","hours":{"_text":"Sunday 11am - 3pm","opening":"Su 11:00-15:00"},"loc_pcd":true,"title":"Glossop Labour Club","url":"https://url6.mailanyone.net/scanner?m=1oniuZ-0008V9-5e&amp;d=4%7Cmail%2F90%2F1666800000%2F1oniuZ-0008V9-5e%7Cin6g%7C57e1b682%7C10609168%7C13286642%7C63595ADB1818DD5493CF17F09F32BAA9&amp;s=QxyyE0cbvom9SeAeeaVBLy245pY&amp;o=gphto%2F%2Flt%3Aopssrabuolgbcluor.u.%2Fk"},"type":"Feature"},
		{"geometry":{"coordinates":[-1.95009,53.44655],"type":"Point"},"properties":{"_source":"high_peak_council","address":"Victoria Hall, Talbot Street, Glossop, SK13 7DQ","description":"Free tea, coffee and biscuits - newspapers and magazines to read","hours":{"_text":"15 Nov - Bingo"},"loc_pcd":true,"title":"Friends of Victoria Hall","url":"mailto:fovhglossop@outlook.com"},"type":"Feature"},
		{"geometry":{"coordinates":[-1.95169,53.43797],"type":"Point"},"properties":{"_source":"high_peak_council","address":"The Vineyard, 18-20 Charlestown Rd, Whitfield, Glossop, SK13 8JN","description":"Some Refreshments available","hours":{"_text":"Wednesday - Grace Kitchen - Soup Lunch - 11.15am - 1pm"},"loc_pcd":true,"title":"Whitfield Parish","url":"http://www.whitfieldparish.org"},"type":"Feature"},
		{"geometry":{"coordinates":[-1.95105,53.44590],"type":"Point"},"properties":{"_source":"high_peak_council","address":"9 Fauvel Road, Glossop, SK13 7AR","description":"Coffee Pot Café","hours":{"_text":"Thursday - 10am - 11.30am","opening":"Th 10:00-11:30"},"loc_pcd":true,"title":"St Luke&apos;s Church","url":"http://www.whitfieldparish.org"},"type":"Feature"},
		{"geometry":{"coordinates":[-1.96342,53.47346],"type":"Point"},"properties":{"_source":"high_peak_council","address":"96-103 Old Road, Tintwistle, SK13 1JZ","hours":{"_text":"Monday - 1pm - 3pm","opening":"Mo 13:00-15:00"},"loc_pcd":true,"title":"United Reform Church"},"type":"Feature"},
		{"geometry":{"coordinates":[-1.97135,53.47102],"type":"Point"},"properties":{"_source":"high_peak_council","address":"Sexton Street (off New Road), Tintwistle, SK13 1JN","hours":{"_text":"Tuesday - 11am - 1pm","opening":"Tu 11:00-13:00"},"loc_pcd":true,"title":"Parish Council Office"},"type":"Feature"},
		{"geometry":{"coordinates":[-1.96342,53.47346],"type":"Point"},"properties":{"_source":"high_peak_council","address":"78 Old Road, Tintwistle, SK13 1JZ","hours":{"_text":"Friday - 1pm - 5pm","opening":"Fr 13:00-17:00"},"loc_pcd":true,"title":"The Bulls Head"},"type":"Feature"},
		{"geometry":{"coordinates":[-1.96762,53.46280],"type":"Point"},"properties":{"_source":"high_peak_council","address":"99 Station Road, Hadfield, SK13 1AR","description":"Thursday- Thursday Thought - 9.30am - 10am","hours":{"_text":"Thursdays"},"loc_pcd":true,"title":"Hadfield Methodist Church"},"type":"Feature"},
		{"geometry":{"coordinates":[-2.00120,53.36488],"type":"Point"},"properties":{"_source":"high_peak_council","address":"33-35 Union Road, New Mills, SK22 3EL","description":"Refreshments and activities available","hours":{"_text":"Monday - 10am - 4pm","opening":"Mo 10:00-16:00"},"loc_pcd":true,"title":"New Mills and District Volunteer Centre","url":"https://www.nmvc.org/"},"type":"Feature"},
		{"geometry":{"coordinates":[-2.00188,53.36736],"type":"Point"},"properties":{"_source":"high_peak_council","address":"34 Market Street, New Mills, High Peak, SK22 4AE","description":"Seated area and some activities (cards and puzzles) available","hours":{"_text":"Tuesday - Friday - 10am - 4pm","opening":"Tu-Fr 00:00-10:00"},"loc_pcd":true,"title":"Millers&apos; Refillers","url":"https://www.google.com/search?q=millers+refillers&amp;rlz=1C1CHBF_en-GBGB922GB922&amp;oq=millers+refillers+&amp;aqs=chrome..69i57j46i131i433i512j46i433i512j0i131i433i512j0i512j0i433i512j0i131i433i512j46i131i433i512j46i433i512j0i271.4483j0j4&amp;sourceid=chrome&amp;ie=UTF-8"},"type":"Feature"},
		{"geometry":{"coordinates":[-1.99407,53.36153],"type":"Point"},"properties":{"_source":"high_peak_council","address":"Hyde Bank Road, New Mills, SK22 4PB","description":"Tea and coffee available, board games, child friendly area, reading and colouring.","hours":{"_text":"Thursday - 1.30pm - 5.30pm","opening":"Th 13:30-17:30"},"loc_pcd":true,"title":"New Mills Leisure Centre"},"type":"Feature"},
		{"geometry":{"coordinates":[-1.99999,53.36875],"type":"Point"},"properties":{"_source":"high_peak_council","address":"High Street, New Mills, SK22 4BR","description":"Hot drinks available","hours":{"_text":"Monday &amp; Tuesday - 11.30am - 1pm (term time only)","opening":"Mo 11:30-13:00; Tu 11:30-13:00"},"loc_pcd":true,"title":"Revive Church","url":"http://www.revivechurch.uk"},"type":"Feature"},
		{"geometry":{"coordinates":[-2.10715,53.41736],"type":"Point"},"properties":{"_source":"stockport_council","address":"Highgate Centre, Bents Ave , Bredbury, SK6 2LF","contact":"07876 841977","description":"Accessible Access, Free Devices to use, Free Wi-Fi, Charging Facilities, Hot Tea and Coffee","hours":{"_text":"Tuesday 10am - 12pm\nEvery other Thursday 11am - 2pm","opening":"Tu 10:00-12:00; Th 11:00-14:00"},"title":"Jean Byers Community Hub"},"type":"Feature"},
		{"geometry":{"coordinates":[-2.05301,53.41508],"type":"Point"},"properties":{"_source":"stockport_council","address":"Etherow Park Café, George Street, Compstall, SK6 5JD","contact":"07841 013702","description":"Accessible Access, Free Wi-Fi, Charging Facilities, Hot Tea and Coffee","hours":{"_text":"Open every day 9am - 4pm","opening":"Mo-Su 09:00-16:00"},"title":"Pure Coffee - Etherow Park","url":"https://www.pureinnovations.co.uk"},"type":"Feature"},
		{"geometry":{"coordinates":[-2.10566,53.42374],"type":"Point"},"properties":{"_source":"stockport_council","address":"St Marks, Redhouse Lane, Bredbury, Stockport, SK6 1AT","contact":"07577 902205","description":"Accessible Access, Charging Facilities, Hot Tea and Coffee, Library Corner, Book Borrowing/Swapping","hours":{"_text":"Tuesday 12:30pm-7pm, Wednesday 9:30am-3:30pm","opening":"Tu 12:30-19:00; We 09:30-15:30"},"title":"St Marks Parish Hall","url":"http://stmarks-church.co.uk"},"type":"Feature"},
		{"geometry":{"coordinates":[-2.07125,53.36455],"type":"Point"},"properties":{"_source":"stockport_council","address":"Buxton Road, High Lane, Stockport, SK6 8DL","contact":"01663 766448","description":"Accessible Access, Free Wi-Fi, Hot Tea and Coffee, Magazines and Newspapers","hours":{"_text":"Once a month on Wednesday from 11am until 3pm","opening":"We 11:00-15:00"},"title":"St Thomas’ Church","url":"https://www.st-thomas-high-lane.org.uk/"},"type":"Feature"},
		{"geometry":{"coordinates":[-2.05525,53.41577],"type":"Point"},"properties":{"_source":"stockport_council","address":"St. Paul’s Church, Compstall Road, Compstall, Stockport, SK6 5HU","contact":"01614275612","description":"Accessible Access, Free Wi-Fi, Charging Facilities, Hot Tea and Coffee, Library Corner, Book Borrowing/Swapping","hours":{"_text":"1st Tuesday in month 1pm-3pm\nEvery Wednesday 2pm-4pm","opening":"Tu[1] 13:00-15:00; We 14:00-16:00"},"title":"St. Paul’s Church","url":"https://www.stpaulschurch.co.uk"},"type":"Feature"},
		{"geometry":{"coordinates":[-2.06112,53.39377],"type":"Point"},"properties":{"_source":"stockport_council","address":"Church Street, Marple, Stockport, SK6 6BS","contact":"0161 474 3773","description":"Accessible Access, Charging Facilities, Hot Tea and Coffee, Magazines and Newspapers","hours":{"_text":"Monday 2pm - 4pm","opening":"Mo 14:00-16:00"},"title":"Queens Court Brew and Biscuits","url":"https://www.stockporthomes.org"},"type":"Feature"},
		{"geometry":{"coordinates":[-2.06963,53.39298],"type":"Point"},"properties":{"_source":"stockport_council","address":"Leigh Avenue, Marple, Stockport, SK6 6DB","contact":"0161 474 3773","description":"Accessible Access, Free Wi-Fi, Charging Facilities, Hot Tea and Coffee, Magazines and Newspapers","hours":{"_text":"Friday 10.30am - 12.30pm","opening":"Fr 10:30-12:30"},"title":"Birch Court Coffee morning","url":"https://www.stockporthomes.org"},"type":"Feature"},
		{"geometry":{"coordinates":[-2.09978,53.42517],"type":"Point"},"properties":{"_source":"stockport_council","address":"9 Hipley Close, Bredbury, Stockport , SK6 1ES","contact":"0161 494 9947","description":"Accessible Access, Free Wi-Fi, Free Devices to use, Charging Facilities, Hot Tea and Coffee, Magazines and Newspapers","hours":{"_text":"Monday 10am-12pm","opening":"Mo 10:00-12:00"},"title":"Arthur Greenwood Lunch and Learn","url":"https://www.startpoint.org.uk"},"type":"Feature"},
		{"geometry":{"coordinates":[-2.10158,53.42576],"type":"Point"},"properties":{"_source":"stockport_council","address":"4 Woodley Precinct, Woodley, Stockport, SK6 1RJ","contact":"0161 494 9947","description":"Accessible Access, Free Wi-Fi, Charging Facilities, Hot Tea and Coffee, Book Borrowing/Swapping","hours":{"_text":"Monday to Saturday 9am-4:30pm\nSchool term days 8am-9am for free Breakfast Club","opening":"Mo-Sa 09:00-16:30"},"title":"Start Point Coffee Shop","url":"https://www.facebook.com/startingpointstockport"},"type":"Feature"},
		{"geometry":{"coordinates":[-2.06220,53.39569],"type":"Point"},"properties":{"_source":"stockport_council","address":"Memorial Park, Marple, Stockport, SK6 6BE","contact":"07809 473242","description":"Accessible Access, Free Wi-Fi, Free Devices to use, Charging Facilities, Hot Tea and Coffee","hours":{"_text":"Wednesday 4:30pm-6pm, Thursday 9.30am-10.30am, ","opening":"We 16:30-18:00; Th 09:30-10:30"},"title":"Marple Senior Citizen Centre","url":"https://www.helenmiddletonstudio.co.uk"},"type":"Feature"},
		{"geometry":{"coordinates":[-2.09946,53.42533],"type":"Point"},"properties":{"_source":"stockport_council","address":"Hipley Close, Woodley, Stockport, SK6 1ES","contact":"See activity","description":"Accessible Access, Free Wi-Fi, Hot Tea and Coffee","hours":{"_text":"For activities listed below only"},"title":"Arthur Greenwood Centre","url":"https://stockporthomes.communitybookings.co.uk/whats-on"},"type":"Feature"},
		{"geometry":{"coordinates":[-2.08867,53.41467],"type":"Point"},"properties":{"_source":"stockport_council","address":"The Guywood Centre, Guywood Lane, Romiley, SK6 4AN","contact":"07745 862557","description":"Accessible Access, Free Wi-Fi, Hot Tea and Coffee","hours":{"_text":"Wednesday & Saturday 12.45pm-3pm, Thursday 10am-12:45pm","opening":"We 12:45-15:00; Sa 12:45-15:00; Th 10:00-12:45"},"title":"The Guywood Centre","url":"https://www.stchadsromiley.co.uk"},"type":"Feature"},
		{"geometry":{"coordinates":[-2.06274,53.39252],"type":"Point"},"properties":{"_source":"stockport_council","address":"Marple Methodist Church, Church Lane, Marple, SK6 7AY","contact":"07717 221238","description":"Accessible Access, Free Wi-Fi, Free Devices to use, Charging Facilities, Hot Tea and Coffee, Book Borrowing/Swapping","hours":{"_text":"Thursday 10am-1pm\nFriday 2:30pm-5:30pm","opening":"Th 10:00-13:00; Fr 14:30-17:30"},"title":"The Seed Café @ Marple Methodist Church","url":"https://marplemethodistchurch.org.uk"},"type":"Feature"},
		{"geometry":{"coordinates":[-2.07410,53.41491],"type":"Point"},"properties":{"_source":"stockport_council","address":"The Hub, 2 Cherry Tree Lane, Romiley, SK6 4ER","description":"Free Wi-Fi, Free Devices to use, Charging Facilities, Hot Tea and Coffee, Accessible Access","hours":{"_text":"Tuesday 11am-1pm\nWednesday 11am-1pm\nFriday 2pm-3pm","opening":"Tu 11:00-13:00; We 11:00-13:00; Fr 14:00-15:00"},"title":"My Space @The Hub","url":"https://Facebook.com/cherrytreeproject"},"type":"Feature"},
		{"geometry":{"coordinates":[-2.05899,53.39157],"type":"Point"},"properties":{"_source":"stockport_council","address":"Brickbridge Road, Marple , Stockport, SK6 7BQ","contact":"07885 495082","description":"Accessible Access, Hot Tea and Coffee, Magazines and Newspapers","hours":{"_text":"Saturday 1pm-3.30pm","opening":"Sa 13:00-15:30"},"title":"Marple Guide Hut"},"type":"Feature"},
		{"geometry":{"coordinates":[-2.04709,53.38740],"type":"Point"},"properties":{"_source":"stockport_council","address":"Roman Lakes, Lakes Road, Marple, SK6 7HB","contact":"0161 427 2039","description":"Accessible Access, Hot Tea and Coffee","hours":{"_text":"10am-3pm, Every last Sunday of the month between November and March. (Except Christmas date which will be the 1st January in lieu of the December date)","opening":"Su 10:00-15:00"},"title":"Roman Lakes Leisure Park","url":"https://ruralculturalfoundation.org.uk"},"type":"Feature"},
		{"geometry":{"coordinates":[-2.06123,53.39391],"type":"Point"},"properties":{"_source":"stockport_council","address":"Queen Street, Marple, Stockport, SK6 6BQ","contact":"0161 427 2378","description":"Accessible Access, Free Wi-Fi, Charging Facilities, Hot Tea and Coffee","hours":{"_text":"Monday 10am-12pm\nThursday 5.30pm-7pm\nSaturday 10am-12pm ","opening":"Mo 10:00-12:00; Th 17:30-19:00; Sa 10:00-12:00"},"title":"CONNECT","url":"https://allsaintsmarple.co.uk"},"type":"Feature"},
		{"geometry":{"coordinates":[-2.09333,53.41352],"type":"Point"},"properties":{"_source":"stockport_council","address":"67 Stockport Road, Romiley, Stockport, SK6 3AA","contact":"07944 876191","description":"Accessible Access, Hot Tea and Coffee, Book Borrowing/Swapping","hours":{"_text":"Monday 10:00am-11:30am (parent/carer stay and play group)\nTuesday 10:00am-11.30am (parent/carer stay and play group)\nThursday 1:00pm-3:00pm (Over 65’s community group)\nFriday 10:00am-12:00pm (SEND meeting 1st Friday of every month)","opening":"Mo 10:00-11:30; Tu 10:00-11:30; Th 13:00-15:00; Fr 10:00-12:00"},"title":"The Signol Community Centre","url":"www.signolcommunitycentre.com"},"type":"Feature"},
		{"geometry":{"coordinates":[-2.06900,53.39805],"type":"Point"},"properties":{"_source":"stockport_council","address":"Bowden Lane, Marple , Stockport , SK6 6ND","contact":"0161 427 3006","description":"Free Wi-Fi, Charging Facilities, Hot Tea and Coffee","hours":{"_text":"Wednesday 9am-12pm","opening":"We 09:00-12:00"},"title":"Marple Sports Club"},"type":"Feature"}
	]
}
