{
	"type": "FeatureCollection",
	"features": [
		{"geometry":{"coordinates":[-2.09329,53.49279],"type":"Point"},"properties":{"_source":"warm_welcome","address":"69, Alexandra Road, Ashton-under-Lyne, Tameside OL6 8LH","description":"Open from 6th January 2023.","hours":{"_text":"Friday: 09:00 - 11:00","opening":"Fr 09:00-11:00"},"title":"Charlestown United Reformed Church"},"type":"Feature"},
		{"geometry":{"coordinates":[-2.03156,53.35942],"type":"Point"},"properties":{"_source":"warm_welcome","address":"119 Buxton Road, Disley, Stockport SK12 2HH","description":"Open from 1 November 2022.","hours":{"_text":"Tuesday: 12:00 - 16:00, Sunday: 10:30 - 12:30","opening":"Tu 12:00-16:00; Su 10:30-12:30"},"title":"Disley Baptist Church"},"type":"Feature"},
		{"geometry":{"coordinates":[-2.03752,53.35772],"type":"Point"},"properties":{"_source":"warm_welcome","address":"Disley Library, Off Buxton Old Road, Disley SK12 2BB","hours":{"_text":"Tuesday: 09:00 - 13:00, Wednesday: 09:00 - 13:00, Thursday: 14:00 - 18:00, Friday: 14:00 - 18:00, Saturday: 09:00 - 13:00","opening":"Tu 09:00-13:00; We 09:00-13:00; Th 14:00-18:00; Fr 14:00-18:00; Sa 09:00-13:00"},"title":"Disley Library"},"type":"Feature"},
		{"geometry":{"coordinates":[-2.08285,53.47646],"type":"Point"},"properties":{"_source":"warm_welcome","address":"Concord Way, Dukinfield, Greater Manchester SK16 4DB","description":"Open from 20-12-2022.","hours":{"_text":"Monday: 09:00 - 13:00, Tuesday: 09:00 - 13:00, Thursday: 13:00 - 17:00, Saturday: 09:00 - 13:00","opening":"Mo 09:00-13:00; Tu 09:00-13:00; Th 13:00-17:00; Sa 09:00-13:00"},"title":"Dukinfield Library"},"type":"Feature"},
		{"geometry":{"coordinates":[-1.94789,53.44501],"type":"Point"},"properties":{"_source":"warm_welcome","address":"Ellison Street, Glossop, Glossop SK13 8BX","description":"Open from 1st November. Everyone is welcome! We run a coffee morning from 10:30-12:00. Followed by a soup lunch. We then are open all afternoon and serve a light bite in the evening such as hot dogs. We have places you can work from, facilities for children and families.","hours":{"_text":"Tuesday: 10:30 - 17:30","opening":"Tu 10:30-17:30"},"title":"Elim Christian Centre Glossop"},"type":"Feature"},
		{"geometry":{"coordinates":[-2.10065,53.52014],"type":"Point"},"properties":{"_source":"warm_welcome","address":"Fitton Hill Neighbourhood Centre, Fitton Hill, Oldham Ol8 2QD","hours":{"_text":"Tuesday: 14:00 - 17:00, Wednesday: 14:00 - 19:00, Thursday: 14:00 - 19:00, Friday: 09:30 - 13:00, Saturday: 09:30 - 13:00","opening":"Tu 14:00-17:00; We 14:00-19:00; Th 14:00-19:00; Fr 09:30-13:00; Sa 09:30-13:00"},"title":"Fitton Hill Library"},"type":"Feature"},
		{"geometry":{"coordinates":[-1.94873,53.44388],"type":"Point"},"properties":{"_source":"warm_welcome","address":"22 Henry Street, Glossop, Derbyshire SK13 8BW","description":"Open from 21/10/22. The Bureau can provide a warm space for people and there will be tea/coffee available. We can also provide warm packs for people to take away with them","hours":{"_text":"Friday: 14:00 - 16:30","opening":"Fr 14:00-16:30"},"title":"Glossop and District Volunteer Bureau"},"type":"Feature"},
		{"geometry":{"coordinates":[-2.00754,53.53578],"type":"Point"},"properties":{"_source":"warm_welcome","address":"Chew Vale, Greenfield, Oldham OL3 7EQ","description":"We welcome everyone of all ages","hours":{"_text":"Tuesday: 14:00 - 17:00, Wednesday: 14:00 - 19:00, Thursday: 14:00 - 19:00, Friday: 9:30 - 13:00, Saturday: 9:30 - 13:00","opening":"Tu 14:00-17:00; We 14:00-19:00; Th 14:00-19:00; Fr 09:30-13:00; Sa 09:30-13:00"},"title":"Greenfield Library"},"type":"Feature"},
		{"geometry":{"coordinates":[-1.96742,53.46250],"type":"Point"},"properties":{"_source":"warm_welcome","address":"99 Station Road, Hadfield , Glossop SK13 1AR","description":"Open from November 7th. We also have a free toddler group on Fridays, term times only 10:00 - 11:30","hours":{"_text":"Monday: 12:00 - 15:00, Thursday: 10:15 - 15:00","opening":"Mo 12:00-15:00; Th 10:15-15:00"},"title":"Hadfield Methodist Church"},"type":"Feature"},
		{"geometry":{"coordinates":[-2.09939,53.44495],"type":"Point"},"properties":{"_source":"warm_welcome","address":"Two Trees Lane, Haugthon Green, Denton M34 7AJ","description":"Open from 05-12-2022.","hours":{"_text":"Monday: 12:30 - 3:30, Wednesday: 10:00 - 12:00","opening":"Mo 12:30-03:30; We 10:00-12:00"},"title":"Haughton Green Methodist Centre"},"type":"Feature"},
		{"geometry":{"coordinates":[-2.05571,53.48277],"type":"Point"},"properties":{"_source":"warm_welcome","address":"Corporation street, Stalybridge, Cheshire Sk152js","hours":{"_text":"Tuesday: 12:00 - 14:00, Wednesday: 10:00 - 13:00, Sunday: 9:00 - 12:00","opening":"Tu 12:00-14:00; We 10:00-13:00; Su 09:00-12:00"},"title":"Holy Trinity Stalybridge"},"type":"Feature"},
		{"geometry":{"coordinates":[-2.01285,53.45901],"type":"Point"},"properties":{"_source":"warm_welcome","address":"Hope Christian Centre, Stalybridge Road, Mottram , Tameside SK14 6 NF","description":"We will try and cater for all needs where we can. Please let know if you have special requirements and we will try and accommodate you. We offer biscuits, toast and cuppa soups with the refreshments.","hours":{"_text":"Tuesday: 12:00 - 14:00, Thursday: 09:30 - 11:30","opening":"Tu 12:00-14:00; Th 09:30-11:30"},"title":"Hope Christian Centre Mottram"},"type":"Feature"},
		{"geometry":{"coordinates":[-2.07201,53.44634],"type":"Point"},"properties":{"_source":"warm_welcome","address":"Studio 9, 314 Market Street , Hyde, Cheshire SK14 1RJ","description":"EVERYONE IS WELCOME AT HLT. 10 steps to access the building. Entrance is at rear of building off Meadow Street. Parking is very limited.","hours":{"_text":"Monday: 10:00 - 14:00, Tuesday: 10:00 - 12:00, Wednesday: 12:00 - 15:00, Thursday: 10:00 - 14:00, Friday: 10:00 - 14:00","opening":"Mo 10:00-14:00; Tu 10:00-12:00; We 12:00-15:00; Th 10:00-14:00; Fr 10:00-14:00"},"title":"Hyde Little Theatre"},"type":"Feature"},
		{"geometry":{"coordinates":[-2.04606,53.51880],"type":"Point"},"properties":{"_source":"warm_welcome","address":"George Lawton Hall, Stamford Street, Mossley OL5 0HR","hours":{"_text":"Monday: 13:00 - 17:00, Wednesday: 09:00 - 13:00, Friday: 09:00 - 13:00","opening":"Mo 13:00-17:00; We 09:00-13:00; Fr 09:00-13:00"},"title":"Mossley Library"},"type":"Feature"},
		{"geometry":{"coordinates":[-2.04622,53.51756],"type":"Point"},"properties":{"_source":"warm_welcome","address":"Chapel Street, , Mossley, , Ashton-under-Lyne OL5 0EX","description":"Open from 28-11-2022.","hours":{"_text":"Monday: 9:00 - 12:00","opening":"Mo 09:00-12:00"},"title":"Mossley Methodist Church"},"type":"Feature"},
		{"geometry":{"coordinates":[-2.07667,53.48609],"type":"Point"},"properties":{"_source":"warm_welcome","address":"St James Street, Tameside, Greater Manchester OL6 6SF","description":"Access to group activities on Wednesdays, hot breakfast served until 11.30am. Thursdays 2 course hot meal served.il","hours":{"_text":"Wednesday: 10:00 - 13:00, Thursday: 16:00 - 18:00","opening":"We 10:00-13:00; Th 16:00-18:00"},"title":"New Life Church Tameside"},"type":"Feature"},
		{"geometry":{"coordinates":[-2.09003,53.53612],"type":"Point"},"properties":{"_source":"warm_welcome","address":"203 Roundthorn Road, Oldham, Greater Manchester OL4 5LD","hours":{"_text":"Tuesday: 10:00 - 14:00, Wednesday: 15:00 - 19:00, Friday: 10:00 - 13:00","opening":"Tu 10:00-14:00; We 15:00-19:00; Fr 10:00-13:00"},"title":"Oldham Roundthorn Salvation Army"},"type":"Feature"},
		{"geometry":{"coordinates":[-1.99932,53.38072],"type":"Point"},"properties":{"_source":"warm_welcome","address":"Mellor Road, New Mills, High Peak SK22 4DP","hours":{"_text":"Wednesday: 12:00 - 16:00","opening":"We 12:00-16:00"},"title":"Providence URC"},"type":"Feature"},
		{"geometry":{"coordinates":[-2.07074,53.48945],"type":"Point"},"properties":{"_source":"warm_welcome","address":"Beaufort Road, Ashton Under Lyne, Manchester OL6 6RW","description":"We are an existing place of welcome. We have a seated exercise session, hand massage, bingo and other games","hours":{"_text":"Monday: 09:30 - 12:00","opening":"Mo 09:30-12:00"},"title":"St Gabriels Ashton"},"type":"Feature"},
		{"geometry":{"coordinates":[-2.08190,53.49905],"type":"Point"},"properties":{"_source":"warm_welcome","address":"Kings Road, Ashton-u-Lyne, Gtr Manchester OL6 8EZ","description":"Our focus is catering for the elderly people","hours":{"_text":"Wednesday: 10:00 - 12:00","opening":"We 10:00-12:00"},"title":"St John the Evangelist Church"},"type":"Feature"},
		{"geometry":{"coordinates":[-2.04611,53.48517],"type":"Point"},"properties":{"_source":"warm_welcome","address":"Huddersfield Road, Stalybridge, Cheshire SK15 2PT","description":"Open from 03-11-2022. We are open to all ages. We will be providing a hot lunch of soup and a roll between 12:00-13:00 which will be free.","hours":{"_text":"Thursday: 09:00 - 17:00","opening":"Th 09:00-17:00"},"title":"St Paul's Church, Stalybridge"},"type":"Feature"},
		{"geometry":{"coordinates":[-2.05644,53.48286],"type":"Point"},"properties":{"_source":"warm_welcome","address":"1A Trinity Street, Stalybridge, Greater Manchester SK15 2BN","description":"Open from 14/12/2022.","hours":{"_text":"Monday: 09:00 - 13:00, Tuesday: 09:00 - 13:00, Wednesday: 13:00 - 17:00, Saturday: 10:00 - 15:00","opening":"Mo 09:00-13:00; Tu 09:00-13:00; We 13:00-17:00; Sa 10:00-15:00"},"title":"Stalybridge Library"},"type":"Feature"},
		{"geometry":{"coordinates":[-2.07617,53.44968],"type":"Point"},"properties":{"_source":"warm_welcome","address":"The United Church, Union Street, Hyde, Cheshire SK14 1ND","description":"Open from 02-11-2022.","hours":{"_text":"Monday: 10:30 - 12:30, Wednesday: 10:30 - 13:30","opening":"Mo 10:30-12:30; We 10:30-13:30"},"title":"The United Church"},"type":"Feature"},
		{"geometry":{"coordinates":[-2.09153,53.48829],"type":"Point"},"properties":{"_source":"warm_spaces","address":"12 George Street, Ashton-under-Lyne, England, OL6 6AQ","hours":{"_text":"Monday-Friday, 1pm-3pm","opening":"Mo-Fr 13:00-15:00"},"title":"The Anthony Seddon Fund","url":"https://tasfund.org.uk"},"type":"Feature"},
		{"geometry":{"coordinates":[-2.09155,53.48817],"type":"Point"},"properties":{"_source":"warm_spaces","address":"12 George Street, Ashton-under-Lyne, England, OL6 6AQ","hours":{"_text":"Monday-Friday 1pm-3pm","opening":"Mo-Fr 13:00-15:00"},"title":"The Anthony Seddon Fund","url":"https://tasfund.org.uk"},"type":"Feature"},
		{"geometry":{"coordinates":[-2.07670,53.44899],"type":"Point"},"properties":{"_source":"warm_spaces","address":"The Union Church, Union Street, Hyde, England, SK14 1ND","hours":{"_text":"Monday 10.30am-12.30pm, Wednesday 10.30am-1.30pm","opening":"Mo 10:30-12:30; We 10:30-13:30"},"title":"The Chinwags","url":"https://unitedchurchhyde.org.uk/Groups/305155/The_Chinwags.aspx"},"type":"Feature"},
		{"geometry":{"coordinates":[-2.10162,53.52138],"type":"Point"},"properties":{"_source":"warm_spaces","address":"Fitton Hill Library, Fitton Hill Neighbourhood Centre, Fircroft Road, Oldham, England, OL8 2QD","hours":{"_text":"Tuesday 2pm-5pm, Wednesday &amp; Thursday 2pm-7pm, Friday &amp; Saturday 9:30am-1pm","opening":"We 14:00-19:00; Th 14:00-19:00; Fr 09:30-13:00; Sa 09:30-13:00; Tu 14:00-17:00"},"title":"Fitton Hill Library","url":"https://www.oldham.gov.uk/info/200395/find_a_library/1173/delph_library"},"type":"Feature"},
		{"geometry":{"coordinates":[-2.07179,53.53734],"type":"Point"},"properties":{"_source":"warm_spaces","address":"Lees Library Community Hub, Thomas Street, Oldham, England, OL4 5DA","hours":{"_text":"Mon-Thu 9am–7pm, Fri 9am–5pm, Sat 9.30am-1pm","opening":"Mo-Th 09:00-19:00; Fr 09:00-17:00; Sa 09:30-13:00"},"title":"Lees Library","url":"https://www.oldham.gov.uk/info/200395/find_a_library/719/lees_library_community_hub"},"type":"Feature"},
		{"geometry":{"coordinates":[-2.03762,53.35787],"type":"Point"},"properties":{"_source":"cheshire_east_council","hours":{},"title":"Disley Community Centre (Warm Places in CE)","url":"https://www.durhamlocate.org.uk"},"type":"Feature"},
		{"geometry":{"coordinates":[-1.95000,53.44396],"type":"Point"},"properties":{"_source":"high_peak_council","address":"22 Henry Street, Glossop SK13 8BW","description":"Refreshments will be available - Charging Points and also Free Wifi available","hours":{"_text":"Friday - 2pm - 4.30pm","opening":"Fr 14:00-16:30"},"loc_pcd":true,"title":"The Bureau","url":"http://www.thebureau.org.uk"},"type":"Feature"},
		{"geometry":{"coordinates":[-1.95283,53.44277],"type":"Point"},"properties":{"_source":"high_peak_council","address":"11-13 Chapel Street, Glossop, SK13 8AT","description":"Some refreshments and activities available - wheelchair / disabled access","hours":{"_text":"Sunday 11am - 3pm","opening":"Su 11:00-15:00"},"loc_pcd":true,"title":"Glossop Labour Club","url":"https://url6.mailanyone.net/scanner?m=1oniuZ-0008V9-5e&amp;d=4%7Cmail%2F90%2F1666800000%2F1oniuZ-0008V9-5e%7Cin6g%7C57e1b682%7C10609168%7C13286642%7C63595ADB1818DD5493CF17F09F32BAA9&amp;s=QxyyE0cbvom9SeAeeaVBLy245pY&amp;o=gphto%2F%2Flt%3Aopssrabuolgbcluor.u.%2Fk"},"type":"Feature"},
		{"geometry":{"coordinates":[-1.95009,53.44655],"type":"Point"},"properties":{"_source":"high_peak_council","address":"Victoria Hall, Talbot Street, Glossop, SK13 7DQ","description":"Free tea, coffee and biscuits - newspapers and magazines to read","hours":{"_text":"15 Nov - Bingo"},"loc_pcd":true,"title":"Friends of Victoria Hall","url":"mailto:fovhglossop@outlook.com"},"type":"Feature"},
		{"geometry":{"coordinates":[-1.95169,53.43797],"type":"Point"},"properties":{"_source":"high_peak_council","address":"The Vineyard, 18-20 Charlestown Rd, Whitfield, Glossop, SK13 8JN","description":"Some Refreshments available","hours":{"_text":"Wednesday - Grace Kitchen - Soup Lunch - 11.15am - 1pm"},"loc_pcd":true,"title":"Whitfield Parish","url":"http://www.whitfieldparish.org"},"type":"Feature"},
		{"geometry":{"coordinates":[-1.95105,53.44590],"type":"Point"},"properties":{"_source":"high_peak_council","address":"9 Fauvel Road, Glossop, SK13 7AR","description":"Coffee Pot Café","hours":{"_text":"Thursday - 10am - 11.30am","opening":"Th 10:00-11:30"},"loc_pcd":true,"title":"St Luke&apos;s Church","url":"http://www.whitfieldparish.org"},"type":"Feature"},
		{"geometry":{"coordinates":[-1.96342,53.47346],"type":"Point"},"properties":{"_source":"high_peak_council","address":"96-103 Old Road, Tintwistle, SK13 1JZ","hours":{"_text":"Monday - 1pm - 3pm","opening":"Mo 13:00-15:00"},"loc_pcd":true,"title":"United Reform Church"},"type":"Feature"},
		{"geometry":{"coordinates":[-1.97135,53.47102],"type":"Point"},"properties":{"_source":"high_peak_council","address":"Sexton Street (off New Road), Tintwistle, SK13 1JN","hours":{"_text":"Tuesday - 11am - 1pm","opening":"Tu 11:00-13:00"},"loc_pcd":true,"title":"Parish Council Office"},"type":"Feature"},
		{"geometry":{"coordinates":[-1.96342,53.47346],"type":"Point"},"properties":{"_source":"high_peak_council","address":"78 Old Road, Tintwistle, SK13 1JZ","hours":{"_text":"Friday - 1pm - 5pm","opening":"Fr 13:00-17:00"},"loc_pcd":true,"title":"The Bulls Head"},"type":"Feature"},
		{"geometry":{"coordinates":[-1.96762,53.46280],"type":"Point"},"properties":{"_source":"high_peak_council","address":"99 Station Road, Hadfield, SK13 1AR","description":"Monday - Community Cafe -12pm - 3pm - hot drinks and light refreshments","hours":{"_text":"Monday 12pm - 3pm","opening":"Mo 12:00-15:00"},"loc_pcd":true,"title":"Hadfield Methodist Church"},"type":"Feature"},
		{"geometry":{"coordinates":[-2.00120,53.36488],"type":"Point"},"properties":{"_source":"high_peak_council","address":"33-35 Union Road, New Mills, SK22 3EL","description":"Refreshments and activities available","hours":{"_text":"Monday - 10am - 4pm","opening":"Mo 10:00-16:00"},"loc_pcd":true,"title":"New Mills and District Volunteer Centre","url":"https://www.nmvc.org/"},"type":"Feature"},
		{"geometry":{"coordinates":[-2.00188,53.36736],"type":"Point"},"properties":{"_source":"high_peak_council","address":"34 Market Street, New Mills, High Peak, SK22 4AE","description":"Seated area and some activities (cards and puzzles) available","hours":{"_text":"Tuesday - Friday - 10am - 4pm","opening":"Tu-Fr 00:00-10:00"},"loc_pcd":true,"title":"Millers&apos; Refillers","url":"https://www.google.com/search?q=millers+refillers&amp;rlz=1C1CHBF_en-GBGB922GB922&amp;oq=millers+refillers+&amp;aqs=chrome..69i57j46i131i433i512j46i433i512j0i131i433i512j0i512j0i433i512j0i131i433i512j46i131i433i512j46i433i512j0i271.4483j0j4&amp;sourceid=chrome&amp;ie=UTF-8"},"type":"Feature"},
		{"geometry":{"coordinates":[-1.99407,53.36153],"type":"Point"},"properties":{"_source":"high_peak_council","address":"Hyde Bank Road, New Mills, SK22 4PB","description":"Tea and coffee available, board games, child friendly area, reading and colouring.","hours":{"_text":"Thursday - 1.30pm - 5.30pm","opening":"Th 13:30-17:30"},"loc_pcd":true,"title":"New Mills Leisure Centre"},"type":"Feature"},
		{"geometry":{"coordinates":[-1.99999,53.36875],"type":"Point"},"properties":{"_source":"high_peak_council","address":"High Street, New Mills, SK22 4BR","description":"Hot drinks available","hours":{"_text":"Monday &amp; Tuesday - 11.30am - 1pm (term time only)","opening":"Mo 11:30-13:00; Tu 11:30-13:00"},"loc_pcd":true,"title":"Revive Church","url":"http://www.revivechurch.uk"},"type":"Feature"},
		{"geometry":{"coordinates":[-2.00189,53.36819],"type":"Point"},"properties":{"_source":"high_peak_council","address":"Spring Bank, New Mills, SK22 4AT","description":"Light refreshments will be available free of charge","hours":{"_text":"Thursday - <strong>1</strong>0am - 3pm"},"loc_pcd":true,"title":"New Mills Town Hall","url":"http://www.newmillstowncouncil.gov.uk"},"type":"Feature"},
		{"geometry":{"coordinates":[-1.94510,53.37870],"type":"Point"},"properties":{"_source":"high_peak_council","address":"Hayfield, SK22 2JE","description":"Free Refreshments - no other services offered","hours":{"_text":"Thursday - 10am - 12pm","opening":"Th 10:00-12:00"},"loc_pcd":true,"title":"Hayfield Cricket Pavilion","url":"mailto:sewyatt66@gmail.com"},"type":"Feature"},
		{"geometry":{"coordinates":[-2.10715,53.41736],"type":"Point"},"properties":{"_source":"stockport_council","address":"Highgate Centre, Bents Ave , Bredbury, SK6 2LF","contact":"07876 841977","description":"Accessible Access, Free Devices to use, Free Wi-Fi, Charging Facilities, Hot Tea and Coffee","hours":{"_text":"Tuesday 10am - 12pm\nEvery other Thursday 11am - 2pm","opening":"Tu 10:00-12:00; Th 11:00-14:00"},"title":"Jean Byers Community Hub"},"type":"Feature"},
		{"geometry":{"coordinates":[-2.05301,53.41508],"type":"Point"},"properties":{"_source":"stockport_council","address":"Etherow Park Café, George Street, Compstall, SK6 5JD","contact":"07841 013702","description":"Accessible Access, Free Wi-Fi, Charging Facilities, Hot Tea and Coffee","hours":{"_text":"Open every day 9am - 4pm","opening":"Mo-Su 09:00-16:00"},"title":"Pure Coffee - Etherow Park","url":"https://www.pureinnovations.co.uk"},"type":"Feature"},
		{"geometry":{"coordinates":[-2.10566,53.42374],"type":"Point"},"properties":{"_source":"stockport_council","address":"St Marks, Redhouse Lane, Bredbury, Stockport, SK6 1AT","contact":"07577 902205","description":"Accessible Access, Charging Facilities, Hot Tea and Coffee, Library Corner, Book Borrowing/Swapping","hours":{"_text":"Tuesday 12:30pm-7pm","opening":"Tu 12:30-19:00"},"title":"St Marks Parish Hall","url":"http://stmarks-church.co.uk"},"type":"Feature"},
		{"geometry":{"coordinates":[-2.07125,53.36455],"type":"Point"},"properties":{"_source":"stockport_council","address":"Buxton Road, High Lane, Stockport, SK6 8DL","contact":"01663 766448","description":"Accessible Access, Free Wi-Fi, Hot Tea and Coffee, Magazines and Newspapers","hours":{"_text":"Once a month on Wednesday from 11am until 3pm","opening":"We 11:00-15:00"},"title":"St Thomas’ Church","url":"https://www.st-thomas-high-lane.org.uk/"},"type":"Feature"},
		{"geometry":{"coordinates":[-2.05525,53.41577],"type":"Point"},"properties":{"_source":"stockport_council","address":"St. Paul’s Church, Compstall Road, Compstall, Stockport, SK6 5HU","contact":"01614275612","description":"Accessible Access, Free Wi-Fi, Charging Facilities, Hot Tea and Coffee, Library Corner, Book Borrowing/Swapping","hours":{"_text":"1st Tuesday in month 1pm-3pm\nEvery Wednesday 2pm-4pm","opening":"We 14:00-16:00"},"title":"St. Paul’s Church","url":"https://www.stpaulschurch.co.uk"},"type":"Feature"},
		{"geometry":{"coordinates":[-2.06112,53.39377],"type":"Point"},"properties":{"_source":"stockport_council","address":"Church Street, Marple, Stockport, SK6 6BS","contact":"0161 474 3773","description":"Accessible Access, Charging Facilities, Hot Tea and Coffee, Magazines and Newspapers","hours":{"_text":"Monday 2pm - 4pm","opening":"Mo 14:00-16:00"},"title":"Queens Court Brew and Biscuits","url":"https://www.stockporthomes.org"},"type":"Feature"},
		{"geometry":{"coordinates":[-2.06963,53.39298],"type":"Point"},"properties":{"_source":"stockport_council","address":"Leigh Avenue, Marple, Stockport, SK6 6DB","contact":"0161 474 3773","description":"Accessible Access, Free Wi-Fi, Charging Facilities, Hot Tea and Coffee, Magazines and Newspapers","hours":{"_text":"Friday 10.30am - 12.30pm","opening":"Fr 10:30-12:30"},"title":"Birch Court Coffee morning","url":"https://www.stockporthomes.org"},"type":"Feature"},
		{"geometry":{"coordinates":[-2.09978,53.42517],"type":"Point"},"properties":{"_source":"stockport_council","address":"9 Hipley Close, Bredbury, Stockport , SK6 1ES","contact":"0161 494 9947","description":"Accessible Access, Free Wi-Fi, Free Devices to use, Charging Facilities, Hot Tea and Coffee, Magazines and Newspapers","hours":{"_text":"Monday 10am-12pm","opening":"Mo 10:00-12:00"},"title":"Arthur Greenwood Lunch and Learn","url":"https://www.startpoint.org.uk"},"type":"Feature"},
		{"geometry":{"coordinates":[-2.10158,53.42576],"type":"Point"},"properties":{"_source":"stockport_council","address":"4 Woodley Precinct, Woodley, Stockport, SK6 1RJ","contact":"0161 494 9947","description":"Accessible Access, Free Wi-Fi, Charging Facilities, Hot Tea and Coffee, Book Borrowing/Swapping","hours":{"_text":"Monday to Saturday 9am-4:30pm\nSchool term days 8am-9am for free Breakfast Club","opening":"Mo-Sa 09:00-16:30"},"title":"Start Point Coffee Shop","url":"https://www.facebook.com/startingpointstockport"},"type":"Feature"},
		{"geometry":{"coordinates":[-2.06220,53.39569],"type":"Point"},"properties":{"_source":"stockport_council","address":"Memorial Park, Marple, Stockport, SK6 6BA","contact":"07809 473242","description":"Accessible Access, Free Wi-Fi, Free Devices to use, Charging Facilities, Hot Tea and Coffee","hours":{"_text":"Thursday 9.30am-10.30am","opening":"Th 09:30-10:30"},"title":"Marple Senior Citizen Centre","url":"https://www.helenmiddletonstudio.co.uk"},"type":"Feature"},
		{"geometry":{"coordinates":[-2.09946,53.42533],"type":"Point"},"properties":{"_source":"stockport_council","address":"Hipley Close, Woodley, Stockport, SK6 1ES","contact":"See activity","description":"Accessible Access, Free Wi-Fi, Hot Tea and Coffee","hours":{"_text":"For activities listed below only"},"title":"Arthur Greenwood Centre","url":"https://stockporthomes.communitybookings.co.uk/whats-on"},"type":"Feature"},
		{"geometry":{"coordinates":[-2.10566,53.42374],"type":"Point"},"properties":{"_source":"stockport_council","address":"1 The Crescent, Timperley, Greater Manchester, WA15 6JH","contact":"07584 434537","description":"Accessible Access, Charging Facilities, Hot Tea and Coffee, Book Borrowing/Swapping","hours":{"_text":"Wednesday 9:30am-3:30pm","opening":"We 09:30-15:30"},"title":"St Marks Church Hall","url":"https://www.nbfoundation.co.uk"},"type":"Feature"},
		{"geometry":{"coordinates":[-2.08867,53.41467],"type":"Point"},"properties":{"_source":"stockport_council","address":"The Guywood Centre, Guywood Lane, Romiley, SK6 4AN","contact":"07745 862557","description":"Accessible Access, Free Wi-Fi, Hot Tea and Coffee","hours":{"_text":"Wednesday 12.45pm-3pm","opening":"We 12:45-15:00"},"title":"The Guywood Centre","url":"https://www.stchadsromiley.co.uk"},"type":"Feature"},
		{"geometry":{"coordinates":[-2.06274,53.39252],"type":"Point"},"properties":{"_source":"stockport_council","address":"Marple Methodist Church, Church Lane, Marple, SK6 7AY","contact":"07717 221238","description":"Accessible Access, Free Wi-Fi, Free Devices to use, Charging Facilities, Hot Tea and Coffee, Book Borrowing/Swapping","hours":{"_text":"Thursday 10am-1pm\nFriday 2:30pm-5:30pm","opening":"Th 10:00-13:00; Fr 14:30-17:30"},"title":"The Seed Café @ Marple Methodist Church","url":"https://marplemethodistchurch.org.uk"},"type":"Feature"},
		{"geometry":{"coordinates":[-2.07410,53.41491],"type":"Point"},"properties":{"_source":"stockport_council","address":"The Hub, 2 Cherry Tree Lane, Romiley, SK6 4ER","description":"Free Wi-Fi, Free Devices to use, Charging Facilities, Hot Tea and Coffee, Accessible Access","hours":{"_text":"Tuesday 11am-1pm\nWednesday 11am-1pm\nFriday 2pm-3pm","opening":"Tu 11:00-13:00; We 11:00-13:00; Fr 14:00-15:00"},"title":"My Space @The Hub","url":"https://Facebook.com/cherrytreeproject"},"type":"Feature"},
		{"geometry":{"coordinates":[-2.05899,53.39157],"type":"Point"},"properties":{"_source":"stockport_council","address":"Brickbridge Road, Marple , Stockport, SK6 7BQ","contact":"07885 495082","description":"Accessible Access, Hot Tea and Coffee, Magazines and Newspapers","hours":{"_text":"Saturday 1pm-3.30pm","opening":"Sa 13:00-15:30"},"title":"Marple Guide Hut"},"type":"Feature"},
		{"geometry":{"coordinates":[-2.04709,53.38740],"type":"Point"},"properties":{"_source":"stockport_council","address":"Roman Lakes, Lakes Road, Marple, SK6 7HB","contact":"0161 427 2039","description":"Accessible Access, Hot Tea and Coffee","hours":{"_text":"10am-3pm, Every last Sunday of the month between November and March. (Except Christmas date which will be the 1st January in lieu of the December date)"},"title":"Roman Lakes Leisure Park","url":"https://ruralculturalfoundation.org.uk"},"type":"Feature"},
		{"geometry":{"coordinates":[-2.06123,53.39391],"type":"Point"},"properties":{"_source":"stockport_council","address":"Queen Street, Marple, Stockport, SK6 6BQ","contact":"0161 427 2378","description":"Accessible Access, Free Wi-Fi, Charging Facilities, Hot Tea and Coffee","hours":{"_text":"Monday 10am-12pm\nThursday 5.30pm-7pm\nSaturday 10am-12pm ","opening":"Mo 10:00-12:00; Th 17:30-19:00; Sa 10:00-12:00"},"title":"CONNECT","url":"https://allsaintsmarple.co.uk"},"type":"Feature"},
		{"geometry":{"coordinates":[-2.09452,53.48997],"type":"Point"},"properties":{"_source":"tameside_council","address":", Tameside One, Market Place, Ashton OL6 6BH, 0161 342 2029","hours":{"_text":"<p>Monday, Wednesday and Friday- 8:30-5pm<br /> Tuesday and Thursday 8:30am-8pm<br /> Saturday 10am-3pm</p>","opening":"Mo 08:30-17:00; We 08:30-17:00; Fr 08:30-17:00; Tu 08:30-20:00; Th 08:30-20:00; Sa 10:00-15:00"},"loc_pcd":true,"title":"strong"},"type":"Feature"},
		{"geometry":{"coordinates":[-2.08341,53.47653],"type":"Point"},"properties":{"_source":"tameside_council","address":", Concord Way, Dukinfield SK16 4DB, 0161 342 2828","hours":{"_text":"<p>Monday and Tuesday 9am-1pm<br /> Thursday 1-5pm<br /> Saturday 9am-1pm</p>","opening":"Mo 09:00-13:00; Tu 09:00-13:00; Th 13:00-17:00; Sa 09:00-13:00"},"loc_pcd":true,"title":"strong"},"type":"Feature"},
		{"geometry":{"coordinates":[-2.01339,53.45507],"type":"Point"},"properties":{"_source":"tameside_council","address":", The Hub, Stockport Road, Hattersley, SK14 6NT, 0161 342 2552","hours":{"_text":"<p>Monday, Tuesday and Thursday 1pm-5pm</p>","opening":"Mo 13:00-17:00; Tu 13:00-17:00; Th 13:00-17:00"},"loc_pcd":true,"title":"strong"},"type":"Feature"},
		{"geometry":{"coordinates":[-2.08005,53.45087],"type":"Point"},"properties":{"_source":"tameside_council","address":", Town Hall, Greenfield Street, Hyde, SK14 1AL, 0161 342 4450","hours":{"_text":"<p>Monday, Tuesday and Friday 9am-1pm<br /> Wednesday 1-5pm<br /> Saturday 10am-3pm</p>","opening":"Mo 09:00-13:00; Tu 09:00-13:00; Fr 09:00-13:00; We 13:00-17:00; Sa 10:00-15:00"},"loc_pcd":true,"title":"strong"},"type":"Feature"},
		{"geometry":{"coordinates":[-2.04606,53.51893],"type":"Point"},"properties":{"_source":"tameside_council","address":", George Lawton Hall, Stamford Street, Mossley OL5 0HR, 0161 342 3787","hours":{"_text":"<p>Monday 1pm-5pm<br /> Wednesday and Friday 9am-1pm<br />  </p>","opening":"We 09:00-13:00; Fr 09:00-13:00; Mo 13:00-17:00"},"loc_pcd":true,"title":"strong"},"type":"Feature"},
		{"geometry":{"coordinates":[-2.05642,53.48288],"type":"Point"},"properties":{"_source":"tameside_council","address":", Trinity Street, Stalybridge, SK15 2BN, 0161 342 2727","hours":{"_text":"<p>Monday, Tuesday 9am-1pm<br /> Wednesday 1-5pm<br /> Saturday 10am-3pm</p>","opening":"Mo 09:00-13:00; Tu 09:00-13:00; We 13:00-17:00; Sa 10:00-15:00"},"loc_pcd":true,"title":"strong"},"type":"Feature"},
		{"geometry":{"coordinates":[-2.09932,53.44502],"type":"Point"},"properties":{"_source":"tameside_council","address":", Two Trees Lane, Haughton Green, M34 7AJ","description":"Food: Soup and bread roll","hours":{"_text":"<p>Every Monday<br /> (Starting 5 Dec)</p>. 12.30pm -4pm"},"loc_pcd":true,"title":"strong"},"type":"Feature"},
		{"geometry":{"coordinates":[-2.07625,53.44967],"type":"Point"},"properties":{"_source":"tameside_council","address":"Hyde, SK14 1ND","description":"Food: Toast, beans, soup, fruit toast., , Other activities: Games and crafts","hours":{"_text":"Every Wednesday. 10:30-1pm","opening":"We 12:01-13:00"},"loc_pcd":true,"title":"strong"},"type":"Feature"},
		{"geometry":{"coordinates":[-2.07729,53.45014],"type":"Point"},"properties":{"_source":"tameside_council","address":"Crook Street, Hyde SK14 1NQ","hours":{"_text":"Every Tuesday. 10:00am-12:00pm","opening":"Tu 00:01-12:00"},"loc_pcd":true,"title":"strong"},"type":"Feature"},
		{"geometry":{"coordinates":[-2.07877,53.44902],"type":"Point"},"properties":{"_source":"tameside_council","address":"SK14 1LF, ,","description":"Games and Movies Available., Can cater for Bengali, Urdu and Hindi translation.","hours":{"_text":"Every Wednesday<br />. 12:00pm-2:00pm"},"loc_pcd":true,"title":"Hyde Bangladeshi Welfare Association ,, Chapel Street, Hyde"},"type":"Feature"},
		{"geometry":{"coordinates":[-2.02837,53.44967],"type":"Point"},"properties":{"_source":"tameside_council","address":"Hattersley Road East, SK14 3EQ","hours":{"_text":"Every Monday (beginning November 28). 10:30-2:30pm","opening":"Mo 12:01-14:30"},"loc_pcd":true,"title":"strong"},"type":"Feature"},
		{"geometry":{"coordinates":[-2.07549,53.48745],"type":"Point"},"properties":{"_source":"tameside_council","address":"St Gabriel’s Church Beaufort Rd Ashton-u-Lyne OL6 6RB, ,","description":"Free parking in Sorriso Restaurant Car Park","hours":{"_text":"Every Monday. 9:30-12:00pm","opening":"Mo 00:09-12:00"},"loc_pcd":true,"title":"strong"},"type":"Feature"},
		{"geometry":{"coordinates":[-2.08010,53.49374],"type":"Point"},"properties":{"_source":"tameside_council","address":"Stanhope Street, Ashton under Lyne OL6 9QZ","hours":{"_text":"Every Thursday. 9:30am-3:00pm","opening":"Th 00:09-15:00"},"loc_pcd":true,"title":"strong"},"type":"Feature"},
		{"geometry":{"coordinates":[-2.09298,53.49308],"type":"Point"},"properties":{"_source":"tameside_council","address":"Alexandra Road, Ashton Under Lyne, OL6 8LH","description":"Free hot drinks and biscuits.","hours":{"_text":"Every Friday. 09:00am-11:00pm","opening":"Fr 00:00-23:00"},"loc_pcd":true,"title":"strong"},"type":"Feature"},
		{"geometry":{"coordinates":[-2.04627,53.51726],"type":"Point"},"properties":{"_source":"tameside_council","address":"Chapel Street, Mossley, Ashton - Under-Lyne, OL5 0EX","description":"Free toast available.","hours":{"_text":"Every Monday (beginning 28 November). 9:00am-12:00pm","opening":"Mo 00:09-12:00"},"loc_pcd":true,"title":"strong"},"type":"Feature"},
		{"geometry":{"coordinates":[-2.09727,53.48845],"type":"Point"},"properties":{"_source":"tameside_council","address":"131 Katherine Street, Ashton-under-Lyne, OL6 7AW, Starting 9 th Jan to 31 st March 2023","hours":{"_text":"Monday to Friday. 1:30pm to 4:00pm","opening":"Mo-Fr 00:01-16:00"},"loc_pcd":true,"title":"Age UK Tameside"},"type":"Feature"},
		{"geometry":{"coordinates":[-2.09029,53.50097],"type":"Point"},"properties":{"_source":"tameside_council","address":"Oasis Academy Broadoak, Norman Road, Ashton-Under-Lyne, OL6 8QG","hours":{"_text":"Tuesday 9:00am to 11:30am, , Thursdays, 9:00am to 11:30am","opening":"Tu 09:00-11:30; Th 09:00-11:30"},"loc_pcd":true,"title":"Oasis Broadoak"},"type":"Feature"},
		{"geometry":{"coordinates":[-2.10277,53.48881],"type":"Point"},"properties":{"_source":"tameside_council","address":"Dean street, Ashton Under Lyne, Tameside, OL6 7HD, ,","hours":{"_text":"Every Monday (term time only). 10:00am-4:00pm","opening":"Mo 00:01-16:00"},"loc_pcd":true,"title":"Holy Trinity Community Centre"},"type":"Feature"},
		{"geometry":{"coordinates":[-2.05547,53.48270],"type":"Point"},"properties":{"_source":"tameside_council","address":"Corporation Street, Stalybridge, SK15 2JS","hours":{"_text":"Tuesday 1:00pm-3:00pm, , Wednesday 1:00pm and 3:00pm","opening":"Tu 13:00-15:00"},"loc_pcd":true,"title":"Holy Trinity Church"},"type":"Feature"},
		{"geometry":{"coordinates":[-2.01426,53.45230],"type":"Point"},"properties":{"_source":"tameside_council","address":"Broadbottom Rd Mottram in Longdendale, SK14 6JA","hours":{"_text":"Every Monday. 9:30am-11:30am","opening":"Mo 00:09-11:30"},"loc_pcd":true,"title":"strong"},"type":"Feature"},
		{"geometry":{"coordinates":[-2.01307,53.45895],"type":"Point"},"properties":{"_source":"tameside_council","address":"Mottram, SK14 6NF, , CLOSED until Jan 3 2023","hours":{"_text":"Tuesdays 12:00pm-2:00pm, , Thursdays, 9:30am-11:30am","opening":"Tu 12:00-14:00; Th 09:30-11:30"},"loc_pcd":true,"title":"Hope Community Church, Stalybridge Road"},"type":"Feature"},
		{"geometry":{"coordinates":[-2.10484,53.48271],"type":"Point"},"properties":{"_source":"tameside_council","address":"The Base, Bottom of Ryecroft House, Ashton -Under-Lyne, OL7 0SA, , Shut from Friday 23 Dec Reopening Friday 6 Jan 2023","description":"Free tea, toast and homemade soup. Donations welcome., No disabled access to toilets., IT suite., Urdu and Punjabi translation if needed.","hours":{"_text":"Every Thursday. 10:00am-4:00pm","opening":"Th 00:01-16:00"},"loc_pcd":true,"title":"strong"},"type":"Feature"},
		{"geometry":{"coordinates":[-2.07675,53.48611],"type":"Point"},"properties":{"_source":"tameside_council","address":"New Life Church, St James Street, Ashton, OL6 6SF, ,","description":"Free hot food on a Wednesday, breakfast is served 9:30am-11:30am., , Laptop available on a Wednesday., Other activities take place on the Wednesday. Visit www.newlifetameside.org.uk , , Disabled access via James St.","hours":{"_text":"Wednesday 9:30am-1:00pm, Thursday 4-6pm","opening":"We 09:30-13:00; Th 16:00-18:00"},"loc_pcd":true,"title":"strong"},"type":"Feature"},
		{"geometry":{"coordinates":[-2.09017,53.49001],"type":"Point"},"properties":{"_source":"tameside_council","address":"13 Wood Street, Ashton-under-lyne, OL6 6AX.","description":"Free tea and coffee., Free food depending on availability.","hours":{"_text":"Every Friday. 9:30am-12:00pm","opening":"Fr 00:09-12:00"},"loc_pcd":true,"title":"strong"},"type":"Feature"},
		{"geometry":{"coordinates":[-2.07772,53.46865],"type":"Point"},"properties":{"_source":"tameside_council","address":"287 Birch Lane, Dukinfield SK16 5AU, ,","description":"Hot food with a free well being session., , Community allotments also available","hours":{"_text":"Every Monday to Friday. 9:30am-3:30pm","opening":"Mo-Fr 00:09-15:30"},"loc_pcd":true,"title":"strong"},"type":"Feature"},
		{"geometry":{"coordinates":[-2.02930,53.50382],"type":"Point"},"properties":{"_source":"tameside_council","address":"1 Broadbent Close, Carbrook, SK15 3LJ, , CLOSED for the Christmas period re-opening Monday 10 January 2023.","description":"Other activities include Craft Club / Sign Language Classes / Tai Chi / Bingo – Charge of £2 / Full Cooked Breakfast Club – Charge of £2.","hours":{"_text":"Every Monday and Wednesday. 10:00am-12:00pm","opening":"Mo 00:01-12:00; We 00:01-12:00"},"loc_pcd":true,"title":"strong"},"type":"Feature"},
		{"geometry":{"coordinates":[-2.04628,53.48494],"type":"Point"},"properties":{"_source":"tameside_council","address":"Huddersfield Road, Stalybridge SK15 2PT","description":"Free tea and coffee., Free two course lunch.","hours":{"_text":"Every Thursday. 9:30am-4:30pm","opening":"Th 00:09-16:30"},"loc_pcd":true,"title":"strong"},"type":"Feature"},
		{"geometry":{"coordinates":[-2.03030,53.49615],"type":"Point"},"properties":{"_source":"tameside_council","address":"Huddersfield Road, Millbrook, Stalybridge, SK15 3JL","description":"Wednesday – soup, Friday – toast, Sunday – alternative Sundays there is a breakfast roll available between 10-10:30am., , Charging electrical devices available on request., , Friday session is a baby and toddler group and aimed at those with babies and toddlers only., Craft and game activities provided on Wednesdays.","hours":{"_text":"Wednesday 10:00am – 12:00pm, , Friday 9:15am -11:15am, (baby and toddler session), , Sunday 10:00am – 12:00pm","opening":"We 10:00-12:00; Fr 09:15-11:15; Su 10:00-12:00"},"loc_pcd":true,"title":"Reach Church, Kelvin Works"},"type":"Feature"},
		{"geometry":{"coordinates":[-2.06941,53.44919],"type":"Point"},"properties":{"_source":"tameside_council","address":"Walker Lane, Hyde, SK14 5PL","hours":{"_text":"Monday 12:00pm-4:00pm and, , Thursday 10:00am-3:00pm","opening":"Mo 12:00-16:00; Th 10:00-15:00"},"loc_pcd":true,"title":"Active Hyde"},"type":"Feature"},
		{"geometry":{"coordinates":[-2.03833,53.48661],"type":"Point"},"properties":{"_source":"tameside_council","address":"Huddersfield Road, Millbrook, Stalybridge SK15 3RR","description":"£1 for 3 refills between 11am-3pm at at Active Copley and Tameside Wellness Centre","hours":{"_text":"Monday 5:00pm-8:00pm, , Wednesday 10:00am-12:00pm and 5:00pm-8:00pm, , Friday 12:00pm-8:00pm, , Sunday 10:00am-3:00pm","opening":"Mo 17:00-20:00; We 10:00-12:00,17:00-20:00; Fr 12:00-20:00; Su 10:00-15:00"},"loc_pcd":true,"title":"Active Copley"},"type":"Feature"},
		{"geometry":{"coordinates":[-2.02935,53.44707],"type":"Point"},"properties":{"_source":"tameside_council","address":"Hattersley Road East, Hyde SK14 3NL ·","hours":{"_text":"Wednesday 10:00am-3:00pm, , Friday 10:00am-3:00pm","opening":"We 10:00-15:00; Fr 10:00-15:00"},"loc_pcd":true,"title":"Active Ken Ward"},"type":"Feature"}
	]
}
