{
	"type": "FeatureCollection",
	"features": [
		{"geometry":{"coordinates":[-2.09214,53.48904],"type":"Point"},"properties":{"_source":"warm_welcome","address":"Ashton Library, Tameside One, Market Place, Ashton under Lyne, Tameside OL6 6BH","hours":{"_text":"Monday: 08:30 - 17:00, Tuesday: 08:30 - 20:00, Wednesday: 08:30 - 17:00, Thursday: 08:30 - 20:00, Friday: 08:30 - 17:00, Saturday: 10:00 - 15:00","opening":"Mo 08:30-17:00; Tu 08:30-20:00; We 08:30-17:00; Th 08:30-20:00; Fr 08:30-17:00; Sa 10:00-15:00"},"title":"Ashton Library"},"type":"Feature"},
		{"geometry":{"coordinates":[-2.09329,53.49279],"type":"Point"},"properties":{"_source":"warm_welcome","address":"69, Alexandra Road, Ashton-under-Lyne, Tameside OL6 8LH","description":"Open from 6th January 2023.","hours":{"_text":"Friday: 09:00 - 11:00","opening":"Fr 09:00-11:00"},"title":"Charlestown United Reformed Church"},"type":"Feature"},
		{"geometry":{"coordinates":[-2.03156,53.35942],"type":"Point"},"properties":{"_source":"warm_welcome","address":"119 Buxton Road, Disley, Stockport SK12 2HH","description":"Open from 1 November 2022.","hours":{"_text":"Tuesday: 12:00 - 16:00, Sunday: 10:30 - 12:30","opening":"Tu 12:00-16:00; Su 10:30-12:30"},"title":"Disley Baptist Church"},"type":"Feature"},
		{"geometry":{"coordinates":[-2.03752,53.35772],"type":"Point"},"properties":{"_source":"warm_welcome","address":"Disley Library, Off Buxton Old Road, Disley SK12 2BB","hours":{"_text":"Tuesday: 09:00 - 13:00, Wednesday: 09:00 - 13:00, Thursday: 14:00 - 18:00, Friday: 14:00 - 18:00, Saturday: 09:00 - 13:00","opening":"Tu 09:00-13:00; We 09:00-13:00; Th 14:00-18:00; Fr 14:00-18:00; Sa 09:00-13:00"},"title":"Disley Library"},"type":"Feature"},
		{"geometry":{"coordinates":[-2.08285,53.47646],"type":"Point"},"properties":{"_source":"warm_welcome","address":"Concord Way, Dukinfield, Greater Manchester SK16 4DB","description":"Open from 20-12-2022.","hours":{"_text":"Monday: 09:00 - 13:00, Tuesday: 09:00 - 13:00, Thursday: 13:00 - 17:00, Saturday: 09:00 - 13:00","opening":"Mo 09:00-13:00; Tu 09:00-13:00; Th 13:00-17:00; Sa 09:00-13:00"},"title":"Dukinfield Library"},"type":"Feature"},
		{"geometry":{"coordinates":[-1.94789,53.44501],"type":"Point"},"properties":{"_source":"warm_welcome","address":"Ellison Street, Glossop, Glossop SK13 8BX","description":"Open from 1st November. Everyone is welcome! We run a coffee morning from 10:30-12:00. Followed by a soup lunch. We then are open all afternoon and serve a light bite in the evening such as hot dogs. We have places you can work from, facilities for children and families.","hours":{"_text":"Tuesday: 10:30 - 17:30","opening":"Tu 10:30-17:30"},"title":"Elim Christian Centre Glossop"},"type":"Feature"},
		{"geometry":{"coordinates":[-2.10065,53.52014],"type":"Point"},"properties":{"_source":"warm_welcome","address":"Fitton Hill Neighbourhood Centre, Fitton Hill, Oldham Ol8 2QD","hours":{"_text":"Tuesday: 14:00 - 17:00, Wednesday: 14:00 - 19:00, Thursday: 14:00 - 19:00, Friday: 09:30 - 13:00, Saturday: 09:30 - 13:00","opening":"Tu 14:00-17:00; We 14:00-19:00; Th 14:00-19:00; Fr 09:30-13:00; Sa 09:30-13:00"},"title":"Fitton Hill Library"},"type":"Feature"},
		{"geometry":{"coordinates":[-1.94873,53.44388],"type":"Point"},"properties":{"_source":"warm_welcome","address":"22 Henry Street, Glossop, Derbyshire SK13 8BW","description":"Open from 21/10/22. The Bureau can provide a warm space for people and there will be tea/coffee available. We can also provide warm packs for people to take away with them","hours":{"_text":"Friday: 14:00 - 16:30","opening":"Fr 14:00-16:30"},"title":"Glossop and District Volunteer Bureau"},"type":"Feature"},
		{"geometry":{"coordinates":[-2.00754,53.53578],"type":"Point"},"properties":{"_source":"warm_welcome","address":"Chew Vale, Greenfield, Oldham OL3 7EQ","description":"We welcome everyone of all ages","hours":{"_text":"Tuesday: 14:00 - 17:00, Wednesday: 14:00 - 19:00, Thursday: 14:00 - 19:00, Friday: 9:30 - 13:00, Saturday: 9:30 - 13:00","opening":"Tu 14:00-17:00; We 14:00-19:00; Th 14:00-19:00; Fr 09:30-13:00; Sa 09:30-13:00"},"title":"Greenfield Library"},"type":"Feature"},
		{"geometry":{"coordinates":[-1.96742,53.46250],"type":"Point"},"properties":{"_source":"warm_welcome","address":"99 Station Road, Hadfield , Glossop SK13 1AR","description":"Open from November 7th. We also have a free toddler group on Fridays, term times only 10:00 - 11:30","hours":{"_text":"Thursday: 10:15 - 15:00","opening":"Th 10:15-15:00"},"title":"Hadfield Methodist Church"},"type":"Feature"},
		{"geometry":{"coordinates":[-2.09939,53.44495],"type":"Point"},"properties":{"_source":"warm_welcome","address":"Two Trees Lane, Haugthon Green, Denton M34 7AJ","description":"Open from 05-12-2022.","hours":{"_text":"Monday: 12:30 - 3:30, Wednesday: 10:00 - 12:00","opening":"Mo 12:30-03:30; We 10:00-12:00"},"title":"Haughton Green Methodist Centre"},"type":"Feature"},
		{"geometry":{"coordinates":[-2.05571,53.48277],"type":"Point"},"properties":{"_source":"warm_welcome","address":"Corporation street, Stalybridge, Cheshire Sk152js","hours":{"_text":"Tuesday: 12:00 - 14:00, Wednesday: 10:00 - 13:00, Sunday: 9:00 - 12:00","opening":"Tu 12:00-14:00; We 10:00-13:00; Su 09:00-12:00"},"title":"Holy Trinity Stalybridge"},"type":"Feature"},
		{"geometry":{"coordinates":[-2.01285,53.45901],"type":"Point"},"properties":{"_source":"warm_welcome","address":"Hope Christian Centre, Stalybridge Road, Mottram , Tameside SK14 6 NF","description":"We will try and cater for all needs where we can. Please let know if you have special requirements and we will try and accommodate you. We offer biscuits, toast and cuppa soups with the refreshments.","hours":{"_text":"Tuesday: 12:00 - 14:00, Thursday: 09:30 - 11:30","opening":"Tu 12:00-14:00; Th 09:30-11:30"},"title":"Hope Christian Centre Mottram"},"type":"Feature"},
		{"geometry":{"coordinates":[-2.07201,53.44634],"type":"Point"},"properties":{"_source":"warm_welcome","address":"Studio 9, 314 Market Street , Hyde, Cheshire SK14 1RJ","description":"EVERYONE IS WELCOME AT HLT. 10 steps to access the building. Entrance is at rear of building off Meadow Street. Parking is very limited.","hours":{"_text":"Monday: 10:00 - 14:00, Tuesday: 10:00 - 12:00, Wednesday: 12:00 - 15:00, Thursday: 10:00 - 14:00, Friday: 10:00 - 14:00","opening":"Mo 10:00-14:00; Tu 10:00-12:00; We 12:00-15:00; Th 10:00-14:00; Fr 10:00-14:00"},"title":"Hyde Little Theatre"},"type":"Feature"},
		{"geometry":{"coordinates":[-2.09341,53.48082],"type":"Point"},"properties":{"_source":"warm_welcome","address":"1 Wellington Parade , Dukinfield , Lancashire SK16 4LE","hours":{"_text":"Wednesday: 12:30 - 16:30","opening":"We 12:30-16:30"},"title":"Jigsaw Homes Tameside and The Peoples Community Dukinfield"},"type":"Feature"},
		{"geometry":{"coordinates":[-2.10296,53.48891],"type":"Point"},"properties":{"_source":"warm_welcome","address":"Holy Trinity Community Dean St , Ashton-under-Lyne, Greater Manchester OL6 7HD","description":"The focus is women Humanity First, energy advice, social interact to breakdown isolation and lonleyness","hours":{"_text":"Monday: 10:00 - 16:00","opening":"Mo 10:00-16:00"},"title":"Jigsaw Homes Tameside-Holy Trinity Community Centre"},"type":"Feature"},
		{"geometry":{"coordinates":[-2.10294,53.48877],"type":"Point"},"properties":{"_source":"warm_welcome","address":"Holy Trinity Church and Community Centre, Dean Street, Ashton Under Lyne, Greater Manchester OL6 7HD","description":"women only we offer energy advice, opportunity to play games, socially interact, quiet space avail","hours":{"_text":"Monday: 10:00 - 16:00","opening":"Mo 10:00-16:00"},"title":"Jigsaw Homes, Holy Trinity Church and Community Centre"},"type":"Feature"},
		{"geometry":{"coordinates":[-2.04606,53.51880],"type":"Point"},"properties":{"_source":"warm_welcome","address":"George Lawton Hall, Stamford Street, Mossley OL5 0HR","hours":{"_text":"Monday: 13:00 - 17:00, Wednesday: 09:00 - 13:00, Friday: 09:00 - 13:00","opening":"Mo 13:00-17:00; We 09:00-13:00; Fr 09:00-13:00"},"title":"Mossley Library"},"type":"Feature"},
		{"geometry":{"coordinates":[-2.04622,53.51756],"type":"Point"},"properties":{"_source":"warm_welcome","address":"Chapel Street, , Mossley, , Ashton-under-Lyne OL5 0EX","description":"Open from 28-11-2022.","hours":{"_text":"Monday: 9:30 - 12:00","opening":"Mo 09:30-12:00"},"title":"Mossley Methodist Church"},"type":"Feature"},
		{"geometry":{"coordinates":[-2.07667,53.48609],"type":"Point"},"properties":{"_source":"warm_welcome","address":"St James Street, Tameside, Greater Manchester OL6 6SF","description":"Access to group activities on Wednesdays, hot breakfast served until 11.30am. Thursdays 2 course hot meal served.il","hours":{"_text":"Wednesday: 10:00 - 13:00, Thursday: 16:00 - 18:00","opening":"We 10:00-13:00; Th 16:00-18:00"},"title":"New Life Church Tameside"},"type":"Feature"},
		{"geometry":{"coordinates":[-2.09003,53.53612],"type":"Point"},"properties":{"_source":"warm_welcome","address":"203 Roundthorn Road, Oldham, Greater Manchester OL4 5LD","hours":{"_text":"Tuesday: 10:00 - 14:00, Wednesday: 15:00 - 19:00, Friday: 10:00 - 13:00","opening":"Tu 10:00-14:00; We 15:00-19:00; Fr 10:00-13:00"},"title":"Oldham Roundthorn Salvation Army"},"type":"Feature"},
		{"geometry":{"coordinates":[-1.99932,53.38072],"type":"Point"},"properties":{"_source":"warm_welcome","address":"Mellor Road, New Mills, High Peak SK22 4DP","hours":{"_text":"Wednesday: 12:00 - 16:00","opening":"We 12:00-16:00"},"title":"Providence URC"},"type":"Feature"},
		{"geometry":{"coordinates":[-2.07074,53.48945],"type":"Point"},"properties":{"_source":"warm_welcome","address":"Beaufort Road, Ashton Under Lyne, Manchester OL6 6RW","description":"We are an existing place of welcome. We have a seated exercise session, hand massage, bingo and other games","hours":{"_text":"Monday: 09:30 - 12:00","opening":"Mo 09:30-12:00"},"title":"St Gabriels Ashton"},"type":"Feature"},
		{"geometry":{"coordinates":[-2.08190,53.49905],"type":"Point"},"properties":{"_source":"warm_welcome","address":"Kings Road, Ashton-u-Lyne, Gtr Manchester OL6 8EZ","description":"Our focus is catering for the elderly people","hours":{"_text":"Wednesday: 10:00 - 12:00","opening":"We 10:00-12:00"},"title":"St John the Evangelist Church"},"type":"Feature"},
		{"geometry":{"coordinates":[-2.04611,53.48517],"type":"Point"},"properties":{"_source":"warm_welcome","address":"Huddersfield Road, Stalybridge, Cheshire SK15 2PT","description":"Open from 03-11-2022. We are open to all ages. We will be providing a hot lunch of soup and a roll between 12:00-13:00 which will be free.","hours":{"_text":"Thursday: 09:00 - 17:00","opening":"Th 09:00-17:00"},"title":"St Paul's Church, Stalybridge"},"type":"Feature"},
		{"geometry":{"coordinates":[-2.05644,53.48286],"type":"Point"},"properties":{"_source":"warm_welcome","address":"1A Trinity Street, Stalybridge, Greater Manchester SK15 2BN","description":"Open from 14/12/2022.","hours":{"_text":"Monday: 09:00 - 13:00, Tuesday: 09:00 - 13:00, Wednesday: 13:00 - 17:00, Saturday: 10:00 - 15:00","opening":"Mo 09:00-13:00; Tu 09:00-13:00; We 13:00-17:00; Sa 10:00-15:00"},"title":"Stalybridge Library"},"type":"Feature"},
		{"geometry":{"coordinates":[-2.07617,53.44968],"type":"Point"},"properties":{"_source":"warm_welcome","address":"The United Church, Union Street, Hyde, Cheshire SK14 1ND","description":"Open from 02-11-2022.","hours":{"_text":"Monday: 10:30 - 12:30, Wednesday: 10:30 - 13:30","opening":"Mo 10:30-12:30; We 10:30-13:30"},"title":"The United Church"},"type":"Feature"},
		{"geometry":{"coordinates":[-2.03032,53.49616],"type":"Point"},"properties":{"_source":"warm_welcome","address":"Huddersfield Road, Stalybridge, Ashton Under Lyne SK15 3JL","description":"Wednesdays - Crafts, games and a warm welcome. The session is run alongside our Foodbank / Fridays - the session is aimed at families with 0-5's and is ran alongside our Tiger Tots group / Sundays - Hot breakfast followed by our church service","hours":{"_text":"Wednesday: 10:00 - 12:00, Friday: 9:15 - 11:15, Sunday: 10:00 - 12:00","opening":"We 10:00-12:00; Fr 09:15-11:15; Su 10:00-12:00"},"title":"voluntary"},"type":"Feature"},
		{"geometry":{"coordinates":[-2.03823,53.35798],"type":"Point"},"properties":{"_source":"cheshire_east_council","title":"Disley Library","url":"https://livewellservices.cheshireeast.gov.uk"},"type":"Feature"},
		{"geometry":{"coordinates":[-2.03762,53.35787],"type":"Point"},"properties":{"_source":"cheshire_east_council","title":"Disley Community Centre (Warm Places in CE)","url":"https://livewellservices.cheshireeast.gov.uk"},"type":"Feature"},
		{"geometry":{"coordinates":[-2.10715,53.41736],"type":"Point"},"properties":{"_source":"stockport_council","address":"Highgate Centre, Bents Ave , Bredbury, SK6 2LF","contact":"07876 841977","description":"Accessible Access, Free Devices to use, Free Wi-Fi, Charging Facilities, Hot Tea and Coffee","hours":{"_text":"Tuesday 10am - 12pm\nEvery other Thursday 11am - 2pm","opening":"Tu 10:00-12:00; Th 11:00-14:00"},"title":"Jean Byers Community Hub"},"type":"Feature"},
		{"geometry":{"coordinates":[-2.05301,53.41508],"type":"Point"},"properties":{"_source":"stockport_council","address":"Etherow Park Café, George Street, Compstall, SK6 5JD","contact":"07841 013702","description":"Accessible Access, Free Wi-Fi, Charging Facilities, Hot Tea and Coffee","hours":{"_text":"Open every day 9am - 4pm","opening":"Mo-Su 09:00-16:00"},"title":"Pure Coffee - Etherow Park","url":"https://www.pureinnovations.co.uk"},"type":"Feature"},
		{"geometry":{"coordinates":[-2.10566,53.42374],"type":"Point"},"properties":{"_source":"stockport_council","address":"St Marks, Redhouse Lane, Bredbury, Stockport, SK6 1AT","contact":"07577 902205","description":"Accessible Access, Charging Facilities, Hot Tea and Coffee, Library Corner, Book Borrowing/Swapping","hours":{"_text":"Tuesday 12:30pm-7pm, Wednesday 9:30am-3:30pm","opening":"Tu 12:30-19:00; We 09:30-15:30"},"title":"St Marks Parish Hall","url":"http://stmarks-church.co.uk"},"type":"Feature"},
		{"geometry":{"coordinates":[-2.07125,53.36455],"type":"Point"},"properties":{"_source":"stockport_council","address":"Buxton Road, High Lane, Stockport, SK6 8DL","contact":"01663 766448","description":"Accessible Access, Free Wi-Fi, Hot Tea and Coffee, Magazines and Newspapers","hours":{"_text":"Once a month on Wednesday from 11am until 3pm","opening":"We 11:00-15:00"},"title":"St Thomas’ Church","url":"https://www.st-thomas-high-lane.org.uk/"},"type":"Feature"},
		{"geometry":{"coordinates":[-2.05525,53.41577],"type":"Point"},"properties":{"_source":"stockport_council","address":"St. Paul’s Church, Compstall Road, Compstall, Stockport, SK6 5HU","contact":"01614275612","description":"Accessible Access, Free Wi-Fi, Charging Facilities, Hot Tea and Coffee, Library Corner, Book Borrowing/Swapping","hours":{"_text":"1st Tuesday in month 1pm-3pm\nEvery Wednesday 2pm-4pm","opening":"Tu[1] 13:00-15:00; We 14:00-16:00"},"title":"St. Paul’s Church","url":"https://www.stpaulschurch.co.uk"},"type":"Feature"},
		{"geometry":{"coordinates":[-2.06112,53.39377],"type":"Point"},"properties":{"_source":"stockport_council","address":"Church Street, Marple, Stockport, SK6 6BS","contact":"0161 474 3773","description":"Accessible Access, Charging Facilities, Hot Tea and Coffee, Magazines and Newspapers","hours":{"_text":"Monday 2pm - 4pm","opening":"Mo 14:00-16:00"},"title":"Queens Court Brew and Biscuits","url":"https://www.stockporthomes.org"},"type":"Feature"},
		{"geometry":{"coordinates":[-2.06963,53.39298],"type":"Point"},"properties":{"_source":"stockport_council","address":"Leigh Avenue, Marple, Stockport, SK6 6DB","contact":"0161 474 3773","description":"Accessible Access, Free Wi-Fi, Charging Facilities, Hot Tea and Coffee, Magazines and Newspapers","hours":{"_text":"Friday 10.30am - 12.30pm","opening":"Fr 10:30-12:30"},"title":"Birch Court Coffee morning","url":"https://www.stockporthomes.org"},"type":"Feature"},
		{"geometry":{"coordinates":[-2.09978,53.42517],"type":"Point"},"properties":{"_source":"stockport_council","address":"9 Hipley Close, Bredbury, Stockport , SK6 1ES","contact":"0161 494 9947","description":"Accessible Access, Free Wi-Fi, Free Devices to use, Charging Facilities, Hot Tea and Coffee, Magazines and Newspapers","hours":{"_text":"Monday 10am-12pm","opening":"Mo 10:00-12:00"},"title":"Arthur Greenwood Lunch and Learn","url":"https://www.startpoint.org.uk"},"type":"Feature"},
		{"geometry":{"coordinates":[-2.10158,53.42576],"type":"Point"},"properties":{"_source":"stockport_council","address":"4 Woodley Precinct, Woodley, Stockport, SK6 1RJ","contact":"0161 494 9947","description":"Accessible Access, Free Wi-Fi, Charging Facilities, Hot Tea and Coffee, Book Borrowing/Swapping","hours":{"_text":"Monday to Saturday 9am-4:30pm\nSchool term days 8am-9am for free Breakfast Club","opening":"Mo-Sa 09:00-16:30"},"title":"Start Point Coffee Shop","url":"https://www.facebook.com/startingpointstockport"},"type":"Feature"},
		{"geometry":{"coordinates":[-2.06220,53.39569],"type":"Point"},"properties":{"_source":"stockport_council","address":"Memorial Park, Marple, Stockport, SK6 6BE","contact":"07809 473242","description":"Accessible Access, Free Wi-Fi, Free Devices to use, Charging Facilities, Hot Tea and Coffee","hours":{"_text":"Wednesday 4:30pm-6pm, Thursday 9.30am-10.30am, ","opening":"We 16:30-18:00; Th 09:30-10:30"},"title":"Marple Senior Citizen Centre","url":"https://www.helenmiddletonstudio.co.uk"},"type":"Feature"},
		{"geometry":{"coordinates":[-2.09946,53.42533],"type":"Point"},"properties":{"_source":"stockport_council","address":"Hipley Close, Woodley, Stockport, SK6 1ES","contact":"See activity","description":"Accessible Access, Free Wi-Fi, Hot Tea and Coffee","hours":{"_text":"For activities listed below only"},"title":"Arthur Greenwood Centre","url":"https://stockporthomes.communitybookings.co.uk/whats-on"},"type":"Feature"},
		{"geometry":{"coordinates":[-2.08867,53.41467],"type":"Point"},"properties":{"_source":"stockport_council","address":"The Guywood Centre, Guywood Lane, Romiley, SK6 4AN","contact":"07745 862557","description":"Accessible Access, Free Wi-Fi, Hot Tea and Coffee","hours":{"_text":"Wednesday & Saturday 12.45pm-3pm, Thursday 10am-12:45pm","opening":"We 12:45-15:00; Sa 12:45-15:00; Th 10:00-12:45"},"title":"The Guywood Centre","url":"https://www.stchadsromiley.co.uk"},"type":"Feature"},
		{"geometry":{"coordinates":[-2.06274,53.39252],"type":"Point"},"properties":{"_source":"stockport_council","address":"Marple Methodist Church, Church Lane, Marple, SK6 7AY","contact":"07717 221238","description":"Accessible Access, Free Wi-Fi, Free Devices to use, Charging Facilities, Hot Tea and Coffee, Book Borrowing/Swapping","hours":{"_text":"Thursday 10am-1pm\nFriday 2:30pm-5:30pm","opening":"Th 10:00-13:00; Fr 14:30-17:30"},"title":"The Seed Café @ Marple Methodist Church","url":"https://marplemethodistchurch.org.uk"},"type":"Feature"},
		{"geometry":{"coordinates":[-2.07410,53.41491],"type":"Point"},"properties":{"_source":"stockport_council","address":"The Hub, 2 Cherry Tree Lane, Romiley, SK6 4ER","description":"Free Wi-Fi, Free Devices to use, Charging Facilities, Hot Tea and Coffee, Accessible Access","hours":{"_text":"Tuesday 11am-1pm\nWednesday 11am-1pm\nFriday 2pm-3pm","opening":"Tu 11:00-13:00; We 11:00-13:00; Fr 14:00-15:00"},"title":"My Space @The Hub","url":"https://Facebook.com/cherrytreeproject"},"type":"Feature"},
		{"geometry":{"coordinates":[-2.05899,53.39157],"type":"Point"},"properties":{"_source":"stockport_council","address":"Brickbridge Road, Marple , Stockport, SK6 7BQ","contact":"07885 495082","description":"Accessible Access, Hot Tea and Coffee, Magazines and Newspapers","hours":{"_text":"Saturday 1pm-3.30pm","opening":"Sa 13:00-15:30"},"title":"Marple Guide Hut"},"type":"Feature"},
		{"geometry":{"coordinates":[-2.04709,53.38740],"type":"Point"},"properties":{"_source":"stockport_council","address":"Roman Lakes, Lakes Road, Marple, SK6 7HB","contact":"0161 427 2039","description":"Accessible Access, Hot Tea and Coffee","hours":{"_text":"10am-3pm, Every last Sunday of the month between November and March. (Except Christmas date which will be the 1st January in lieu of the December date)","opening":"Su 10:00-15:00"},"title":"Roman Lakes Leisure Park","url":"https://ruralculturalfoundation.org.uk"},"type":"Feature"},
		{"geometry":{"coordinates":[-2.06123,53.39391],"type":"Point"},"properties":{"_source":"stockport_council","address":"Queen Street, Marple, Stockport, SK6 6BQ","contact":"0161 427 2378","description":"Accessible Access, Free Wi-Fi, Charging Facilities, Hot Tea and Coffee","hours":{"_text":"Monday 10am-12pm\nThursday 5.30pm-7pm\nSaturday 10am-12pm ","opening":"Mo 10:00-12:00; Th 17:30-19:00; Sa 10:00-12:00"},"title":"CONNECT","url":"https://allsaintsmarple.co.uk"},"type":"Feature"},
		{"geometry":{"coordinates":[-2.09333,53.41352],"type":"Point"},"properties":{"_source":"stockport_council","address":"67 Stockport Road, Romiley, Stockport, SK6 3AA","contact":"07944 876191","description":"Accessible Access, Hot Tea and Coffee, Book Borrowing/Swapping","hours":{"_text":"Monday 10:00am-11:30am (parent/carer stay and play group)\nTuesday 10:00am-11.30am (parent/carer stay and play group)\nThursday 1:00pm-3:00pm (Over 65’s community group)\nFriday 10:00am-12:00pm (SEND meeting 1st Friday of every month)","opening":"Mo 10:00-11:30; Tu 10:00-11:30; Th 13:00-15:00; Fr 10:00-12:00"},"title":"The Signol Community Centre","url":"www.signolcommunitycentre.com"},"type":"Feature"},
		{"geometry":{"coordinates":[-2.06900,53.39805],"type":"Point"},"properties":{"_source":"stockport_council","address":"Bowden Lane, Marple , Stockport , SK6 6ND","contact":"0161 427 3006","description":"Free Wi-Fi, Charging Facilities, Hot Tea and Coffee","hours":{"_text":"Wednesday 9am-12pm","opening":"We 09:00-12:00"},"title":"Marple Sports Club"},"type":"Feature"}
	]
}
