{
	"type": "FeatureCollection",
	"features": [
		{"geometry":{"coordinates":[-2.10332,53.29832],"type":"Point"},"properties":{"_source":"warm_welcome","address":"Bollington Library, Bollington , Cheshire SK10 5JX","hours":{"_text":"Tuesday: 09:30 - 19:00, Wednesday: 09:30 - 17:00, Thursday: 09:30 - 17:00, Friday: 09:30 - 17:00, Saturday: 09:30 - 13:00","opening":"Tu 09:30-19:00; We 09:30-17:00; Th 09:30-17:00; Fr 09:30-17:00; Sa 09:30-13:00"},"title":"Bollington Library"},"type":"Feature"},
		{"geometry":{"coordinates":[-1.91357,53.32363],"type":"Point"},"properties":{"_source":"warm_welcome","address":"Town Hall, Market Street, Chapel-en-le-Frith, High Peak SK23 0HP","hours":{"_text":"Monday: 09:30 - 15:00, Tuesday: 09:30 - 15:00, Wednesday: 09:30 - 15:00","opening":"Mo 09:30-15:00; Tu 09:30-15:00; We 09:30-15:00"},"title":"Churches Together in Chapel-en-le-Frith"},"type":"Feature"},
		{"geometry":{"coordinates":[-2.10359,53.29815],"type":"Point"},"properties":{"_source":"cheshire_east_council","title":"Bollington Library","url":"https://livewellservices.cheshireeast.gov.uk"},"type":"Feature"},
		{"geometry":{"coordinates":[-2.10812,53.29566],"type":"Point"},"properties":{"_source":"cheshire_east_council","title":"Life Church Bollington (Warm Place in CE)","url":"https://livewellservices.cheshireeast.gov.uk"},"type":"Feature"},
		{"geometry":{"coordinates":[-2.09824,53.29810],"type":"Point"},"properties":{"_source":"cheshire_east_council","title":"The Bridgend Centre, Bollington (Warm Place in CE)","url":"https://livewellservices.cheshireeast.gov.uk"},"type":"Feature"}
	]
}
