{
	"type": "FeatureCollection",
	"features": [
		{"geometry":{"coordinates":[-1.96246,51.71616],"type":"Point"},"properties":{"_source":"warm_welcome","address":"The Waterloo, Cirencester, Gloucestershire GL7 2PZ","hours":{"_text":"Monday: 09:30 - 17:00, Tuesday: 09:30 - 19:00, Wednesday: 09:30 - 13:00, Thursday: 09:30 - 17:00, Friday: 09:30 - 19:00, Saturday: 09:30 - 16:00","opening":"Mo 09:30-17:00; Tu 09:30-19:00; We 09:30-13:00; Th 09:30-17:00; Fr 09:30-19:00; Sa 09:30-16:00"},"title":"Cirencester Library"},"type":"Feature"},
		{"geometry":{"coordinates":[-1.96246,51.71616],"type":"Point"},"properties":{"_source":"warm_welcome","address":"The Waterloo, Cirencester, Gloucestershire GL7 2PZ","hours":{"_text":"Monday: 09:30 - 17:00, Tuesday: 09:30 - 19:00, Wednesday: 09:30 - 13:00, Thursday: 09:30 - 17:00, Friday: 09:30 - 19:00, Saturday: 09:30 - 16:00","opening":"Mo 09:30-17:00; Tu 09:30-19:00; We 09:30-13:00; Th 09:30-17:00; Fr 09:30-19:00; Sa 09:30-16:00"},"title":"Cirencester Library"},"type":"Feature"},
		{"geometry":{"coordinates":[-1.77695,51.70695],"type":"Point"},"properties":{"_source":"warm_welcome","address":"London Street, Fairford, Gloucestershire GL7 4AQ","hours":{"_text":"Monday: 09:30 - 17:00, Wednesday: 09:30 - 17:00, Thursday: 09:30 - 19:00, Saturday: 09:30 - 13:00","opening":"Mo 09:30-17:00; We 09:30-17:00; Th 09:30-19:00; Sa 09:30-13:00"},"title":"Fairford Library"},"type":"Feature"},
		{"geometry":{"coordinates":[-1.77695,51.70695],"type":"Point"},"properties":{"_source":"warm_welcome","address":"London Street, Fairford, Gloucestershire GL7 4AQ","hours":{"_text":"Monday: 09:30 - 17:00, Wednesday: 09:30 - 17:00, Thursday: 09:30 - 19:00, Saturday: 09:30 - 13:00","opening":"Mo 09:30-17:00; We 09:30-17:00; Th 09:30-19:00; Sa 09:30-13:00"},"title":"Fairford Library"},"type":"Feature"},
		{"geometry":{"coordinates":[-2.02317,51.67627],"type":"Point"},"properties":{"_source":"warm_welcome","address":"Kemble Village Hall, Kemble, Cirencester GL7 6AG","description":"Not open 27th December 2022 or 3rd January 2023","hours":{"_text":"Tuesday: 14:00 - 17:30","opening":"Tu 14:00-17:30"},"title":"Kemble Village Hall Hotspot"},"type":"Feature"},
		{"geometry":{"coordinates":[-2.02317,51.67627],"type":"Point"},"properties":{"_source":"warm_welcome","address":"Kemble Village Hall, Kemble, Cirencester GL7 6AG","description":"Not open 27th December 2022 or 3rd January 2023","hours":{"_text":"Tuesday: 14:00 - 17:30","opening":"Tu 14:00-17:30"},"title":"Kemble Village Hall Hotspot"},"type":"Feature"},
		{"geometry":{"coordinates":[-1.83731,51.82993],"type":"Point"},"properties":{"_source":"warm_welcome","address":"Old Woolhouse, Market Place, Northleach , Cheltenham GL54 3EE","hours":{"_text":"Monday: 09:00 - 13:30, Tuesday: 09:00 - 13:30, Wednesday: 09:00 - 13:30, Thursday: 09:00 - 13:30, Friday: 09:00 - 13:30","opening":"Mo 09:00-13:30; Tu 09:00-13:30; We 09:00-13:30; Th 09:00-13:30; Fr 09:00-13:30"},"title":"Old Woolhouse Warm Space"},"type":"Feature"},
		{"geometry":{"coordinates":[-1.83731,51.82993],"type":"Point"},"properties":{"_source":"warm_welcome","address":"Old Woolhouse, Market Place, Northleach , Cheltenham GL54 3EE","hours":{"_text":"Monday: 09:00 - 13:30, Tuesday: 09:00 - 13:30, Wednesday: 09:00 - 13:30, Thursday: 09:00 - 13:30, Friday: 09:00 - 13:30","opening":"Mo 09:00-13:30; Tu 09:00-13:30; We 09:00-13:30; Th 09:00-13:30; Fr 09:00-13:30"},"title":"Old Woolhouse Warm Space"},"type":"Feature"},
		{"geometry":{"coordinates":[-2.01655,51.67376],"type":"Point"},"properties":{"_source":"warm_spaces","address":"School Road, Cirencester, England, GL7 6AF","hours":{"_text":"Tuesday 2pm-5:30pm","opening":"Tu 14:00-17:30"},"title":"Kemble Village Hall Hotspot"},"type":"Feature"},
		{"geometry":{"coordinates":[-1.85662,51.64037],"type":"Point"},"properties":{"_source":"warm_spaces","address":"113 High Street, Swindon, England, SN6 6AE","hours":{"_text":"Mon 2pm-4pm, Tues 10am-1 pm, Wed 2pm-4pm, Thurs 2pm-7pm, Fri 2pm-5pm, Sat 10am-1pm","opening":"Mo 14:00-16:00; Tu 10:00-01:00; We 14:00-16:00; Th 14:00-19:00; Fr 14:00-17:00; Sa 10:00-13:00"},"title":"Cricklade library"},"type":"Feature"}
	]
}
