{
	"type": "FeatureCollection",
	"features": [
		{"geometry":{"coordinates":[-1.99300,51.34940],"type":"Point"},"properties":{"_source":"warm_welcome","address":"Long Street , Devizes, Wiltshire SN10 1NJ","description":"A Climate Cafe meeting in an adjacent space that is open to all.","hours":{"_text":"Thursday: 09:30 - 14:00","opening":"Th 09:30-14:00"},"title":"St Andrews Church"},"type":"Feature"},
		{"geometry":{"coordinates":[-1.97920,51.28633],"type":"Point"},"properties":{"_source":"warm_welcome","address":"1 Church Street, Market Lavington, Wilts SN10 4DT","description":"It's small but beautifully formed & friendly.","hours":{"_text":"Monday: 10:00 - 16:30, Tuesday: 10:00 - 16:30, Wednesday: 10:00 - 16:30, Friday: 10:00 - 16:30, Saturday: 10:00 - 13:00","opening":"Mo 10:00-16:30; Tu 10:00-16:30; We 10:00-16:30; Fr 10:00-16:30; Sa 10:00-13:00"},"title":"St. Arbucks Community Cafe"},"type":"Feature"},
		{"geometry":{"coordinates":[-2.10086,51.34862],"type":"Point"},"properties":{"_source":"warm_spaces","address":"The Brewery Inn, Seend Cleeve, Melksham, England, SN12 6PX","hours":{"_text":"12noon-5pm "},"title":"Brewery Inn"},"type":"Feature"},
		{"geometry":{"coordinates":[-1.98064,51.28603],"type":"Point"},"properties":{"_source":"warm_spaces","address":"The Old School, Church Street, Devizes, England, SN10 4DT","hours":{"_text":"Friday 10am-5pm ","opening":"Fr 10:00-17:00"},"title":"The Old School Market Lavington"},"type":"Feature"},
		{"geometry":{"coordinates":[-1.99284,51.33952],"type":"Point"},"properties":{"_source":"devizes_council","address":"Estcourt Crescent, Devizes, SN10 5JY","description":"Community and Board Games Night &#8211; tea and coffee provided; Access to WiFi and toilets","hours":{"_text":"Every 2nd and 4th Thursday of the month 7pm onwards"},"loc_pcd":true,"title":"St James Centre"},"type":"Feature"},
		{"geometry":{"coordinates":[-1.99284,51.33952],"type":"Point"},"properties":{"_source":"devizes_council","address":"Estcourt Crescent, Devizes. SN10 5JY","description":"Crafts, activities and a chat; Tea and coffee provided; Acess to WiFi and toilets","hours":{"_text":"Every 2nd and 4th Wednesday of the month 11am-12:30pm","opening":"We[2,4] 11:00-12:30"},"loc_pcd":true,"title":"St James Centre"},"type":"Feature"},
		{"geometry":{"coordinates":[-1.99356,51.35045],"type":"Point"},"properties":{"_source":"devizes_council","address":"Long Street, Devizes, SN10 1NJ","description":"Tea, coffee and biscuits provided. Soup at 12:00; Access to WiFi and toilets","hours":{"_text":"Thursday 9am &#8211; 2pm"},"loc_pcd":true,"title":"St Andrews Church"},"type":"Feature"},
		{"geometry":{"coordinates":[-1.99340,51.34960],"type":"Point"},"properties":{"_source":"devizes_council","address":"41 Long Street, Devizes, SN10 1NS","description":"Tea and coffee provided and occasional craft activities; Access to WiFi, toilets and a quiet space to read or knit!","hours":{"_text":"Thursdays 2:30-4:30pm","opening":"Th 14:00-16:30"},"loc_pcd":true,"title":"Wiltshire Museum"},"type":"Feature"},
		{"geometry":{"coordinates":[-1.99179,51.35084],"type":"Point"},"properties":{"_source":"devizes_council","address":"Sheep Street, Devizes, SN10 1DL","description":"Tea, coffee and biscuits provided. Newspapers and free warm packs available; Access to WiFi and toilets","hours":{"_text":"Mon 9:30am &#8211; 7pm Tues 9:30am-5pm Wed 9:30am-12:30pm Thur 9:30am-7pm Fri &amp; Sat 9:30am-4pm","opening":"Fr 09:30-16:00; Sa 09:30-16:00; Tu 09:30-17:00; We 09:30-12:30; Th 09:30-19:00"},"loc_pcd":true,"title":"Devizes Library"},"type":"Feature"},
		{"geometry":{"coordinates":[-1.98684,51.35322],"type":"Point"},"properties":{"_source":"devizes_council","address":"Southgate, Potterne Rd, Devizes. SN10 1LR","description":"Pub companionship or a quiet area also available; Access to WiFi and toilets","hours":{"_text":"Tues-Fri 4-11pm","opening":"Tu-Fr 16:00-23:00"},"loc_pcd":true,"title":"Southgate Inn"},"type":"Feature"},
		{"geometry":{"coordinates":[-1.98541,51.35407],"type":"Point"},"properties":{"_source":"devizes_council","address":"Southbroom Centre, Victoria Rd, Devizes, SN10 1HG","description":"(every 1st and 3rd Tuesday of the month is a women&#8217;s only sessions); Tea and coffee available and a safe space; Access to WiFi and toilets","hours":{"_text":"Tuesday afternoons (starting 06/12/22)"},"loc_pcd":true,"title":"Devizes Open Doors"},"type":"Feature"},
		{"geometry":{"coordinates":[-1.99498,51.35108],"type":"Point"},"properties":{"_source":"devizes_council","address":"Town Hall, St Johns Street, Devizes, SN10 1BN","description":"Companionship and a safe place; Tea, coffee and biscuits; Access to WiFi and toilets;","hours":{"_text":"Friday 1-4pm","opening":"Fr 13:00-16:00"},"loc_pcd":true,"title":"Public Living Room"},"type":"Feature"}
	]
}
