{
	"type": "FeatureCollection",
	"features": [
		{"geometry":{"coordinates":[-1.99382,51.35042],"type":"Point"},"properties":{"_source":"warm_welcome","address":"St Andrews Church, Long Street , Devizes, Wiltshire SN10 1NJ","description":"A Climate Cafe meeting in an adjacent space that is open to all.","hours":{"_text":"Thursday: 09:30 - 14:00","opening":"Th 09:30-14:00"},"title":"St Andrews Church"},"type":"Feature"},
		{"geometry":{"coordinates":[-1.97920,51.28633],"type":"Point"},"properties":{"_source":"warm_welcome","address":"1 Church Street, Market Lavington, Wilts SN10 4DT","description":"It's small but beautifully formed & friendly.","hours":{"_text":"Monday: 10:00 - 16:30, Tuesday: 10:00 - 16:30, Wednesday: 10:00 - 16:30, Friday: 10:00 - 16:30, Saturday: 10:00 - 13:00","opening":"Mo 10:00-16:30; Tu 10:00-16:30; We 10:00-16:30; Fr 10:00-16:30; Sa 10:00-13:00"},"title":"St. Arbucks Community Cafe"},"type":"Feature"},
		{"geometry":{"coordinates":[-1.99175,51.35114],"type":"Point"},"properties":{"_source":"warm_spaces","address":"Sheep Street, Devizes, England, SN10 1DL, United Kingdom","description":"Free Food/Drink, Free Wi-Fi, Device Charging, Advice, Space to work, Wheelchair Accessible, Toilets, Accessible Toilet, Child Friendly, Computer Access, Warm Pack - Blanket, thermal mug; hot water bottle and bag","hours":{"_text":"Mon 9.30-7pm; Tue 9.30-5pm; Wed 9.30-12.30pm; Thu 9.30-7pm; Fri 9.30-5pm; Sat 9.30-4pm","opening":"Mo 09:30-19:00; Tu 09:30-17:00; We 09:30-12:30; Th 09:30-19:00; Fr 09:30-17:00; Sa 09:30-16:00"},"title":"Devizes Library","url":"https://www.wiltshire.gov.uk"},"type":"Feature"},
		{"geometry":{"coordinates":[-2.10086,51.34862],"type":"Point"},"properties":{"_source":"warm_spaces","address":"The Brewery Inn, Seend Cleeve, Melksham, England, SN12 6PX, United Kingdom","description":"Free Wi-Fi, Space to work, Food/Drink for sale, Toilets, Free tea / coffee","hours":{"_text":"12noon-5pm"},"title":"Brewery Inn"},"type":"Feature"},
		{"geometry":{"coordinates":[-1.98064,51.28603],"type":"Point"},"properties":{"_source":"warm_spaces","address":"The Old School, Church Street, Devizes, England, SN10 4DT, United Kingdom","description":"Free Food/Drink, Free Wi-Fi, Device Charging, Advice, People to chat to, Space to work, Wheelchair Accessible, Toilets, Child Friendly","hours":{"_text":"Friday 10am-5pm","opening":"Fr 10:00-17:00"},"title":"The Old School Market Lavington"},"type":"Feature"},
		{"geometry":{"coordinates":[-1.76685,51.34021],"type":"Point"},"properties":{"_source":"wiltshire_council","description":"A place to meet over a cuppa cake and free games and activities - all welcome","title":"Renew Wellbeing Caf&#233; - Pewsey Methodist Church","url":"https://directory.hertfordshire.gov.uk/Services/2114"},"type":"Feature"},
		{"geometry":{"coordinates":[-1.99483,51.34891],"type":"Point"},"properties":{"_source":"wiltshire_council","description":"Nature-based activities for people struggling with mental health issues","title":"Wiltshire Wildlife Trust - Wellbeing Programme","url":"https://directory.hertfordshire.gov.uk/Services/66"},"type":"Feature"}
	]
}
