{
	"type": "FeatureCollection",
	"features": [
		{"geometry":{"coordinates":[-2.08368,51.06681],"type":"Point"},"properties":{"_source":"warm_spaces","address":"Weaveland Road, Salisbury, England, SP3 6HJ, United Kingdom","description":"Free Wi-Fi, Device Charging, Space to work, Parking, Child Friendly, Computer Access","hours":{"_text":"Mon 7am-9pm, Tue 7am-9pm (volunteer sessions: 10am-12pm &amp; 2-4pm), Wed 7am-9pm (volunteer session: 10am-12pm), Thu 7am-9pm (volunteer session: 10am-12pm), Fri 7am-9pm (volunteer sessions: 10am-12pm &amp; 2-4pm), Sat 8am-1pm (volunteer session: 10am-12pm), Sun 8am-1pm","opening":"Mo 07:00-21:00; Tu 07:00-21:00; We 07:00-21:00; Th 07:00-21:00; Fr 07:00-21:00; Sa 08:00-13:00; Su 08:00-13:00"},"title":"Tisbury Library","url":"https://www.wiltshire.gov.uk/libraries-home"},"type":"Feature"},
		{"geometry":{"coordinates":[-1.86435,51.07976],"type":"Point"},"properties":{"_source":"warm_spaces","address":"Wilton Library, South Street, Salisbury, England, SP2 0JS, United Kingdom","description":"Free Wi-Fi, Device Charging, Advice, People to chat to, Space to work, Wheelchair Accessible, Child Friendly, Computer Access","hours":{"_text":"Tue 10am-7pm, Thu &amp; Fri 10am-5pm, Sat 10am-1pm","opening":"Th 10:00-17:00; Fr 10:00-17:00; Tu 10:00-19:00; Sa 10:00-13:00"},"title":"Wilton Library","url":"https://www.wiltshire.gov.uk/libraries"},"type":"Feature"},
		{"geometry":{"coordinates":[-1.77568,51.17247],"type":"Point"},"properties":{"_source":"warm_spaces","address":"Smithfield Street, Salisbury, England, SP4 7AL, United Kingdom","description":"Free Wi-Fi, Device Charging, Advice, Space to work, Wheelchair Accessible, Toilets, Child Friendly, Computer Access","hours":{"_text":"Mon 2pm-7pm, Tues 9:30am-5pm, Thurs 9:30am-7pm, Fri 9:30am-5pm, Sat 9:30am-1pm","opening":"Mo 14:00-19:00; Tu 09:30-17:00; Th 09:30-19:00; Fr 09:30-17:00; Sa 09:30-13:00"},"title":"Amesbury Library","url":"https://wiltshire.gov.uk/libraries"},"type":"Feature"},
		{"geometry":{"coordinates":[-1.79679,51.06974],"type":"Point"},"properties":{"_source":"warm_spaces","address":"Market Walk, Salisbury, England, SP1 1BL, United Kingdom","description":"Free Wi-Fi, Device Charging, Advice, People to chat to, Space to work, Wheelchair Accessible, Accessible Toilet, Child Friendly, Computer Access","hours":{"_text":"Mon 10am-7pm, Tue 9am-7am, Wed &amp; Thu 9am-5pm, Fri 9am-7pm, Sat 9am-5pm","opening":"We 09:00-17:00; Th 09:00-17:00; Mo 10:00-19:00; Tu 09:00-19:00; Fr 09:00-19:00; Sa 09:00-17:00"},"title":"Salisbury Library","url":"https://www.wiltshire.gov.uk/libraries"},"type":"Feature"},
		{"geometry":{"coordinates":[-1.80699,51.07257],"type":"Point"},"properties":{"_source":"warm_spaces","address":"51 Wilton Road, Salisbury, England, SP2 7EF, United Kingdom","description":"Free Food/Drink, Free Wi-Fi, Device Charging, People to chat to, Space to work, Wheelchair Accessible, Toilets, Accessible Toilet, Parking, Child Friendly","title":"Salisbury Quakers","url":"https://salisburyquakers.org"},"type":"Feature"},
		{"geometry":{"coordinates":[-1.80507,51.07180],"type":"Point"},"properties":{"_source":"warm_spaces","address":"SP2 Hope Centre, 159-161 Fisherton Street, Salisbury, England, SP2 7RP, United Kingdom","description":"Free Food/Drink, Free Wi-Fi, Device Charging, Advice, People to chat to, Space to work, Food/Drink for sale","hours":{"_text":"Mon-Fri, 10.30am-3pm","opening":"Mo-Fr 10:30-15:00"},"title":"SP2 Hope Centre","url":"https://www.stpaulssalisbury.org"},"type":"Feature"},
		{"geometry":{"coordinates":[-1.79536,51.05575],"type":"Point"},"properties":{"_source":"wiltshire_council","title":"Willowcroft - Salisbury","url":"https://directory.hertfordshire.gov.uk/Services/1103"},"type":"Feature"},
		{"geometry":{"coordinates":[-1.79708,51.06983],"type":"Point"},"properties":{"_source":"wiltshire_council","description":"Reading group for people with memory loss and their carers","title":"Library Shared Reading Group - Salisbury","url":"https://directory.hertfordshire.gov.uk/Services/3"},"type":"Feature"},
		{"geometry":{"coordinates":[-1.82348,51.08304],"type":"Point"},"properties":{"_source":"wiltshire_council","description":"Caf, lunch club and Community Fridge","title":"St Michael&#39;s Community Centre - Bemerton","url":"https://directory.hertfordshire.gov.uk/Services/404"},"type":"Feature"},
		{"geometry":{"coordinates":[-1.77833,51.17058],"type":"Point"},"properties":{"_source":"wiltshire_council","title":"Afternoon tea and chat at Antrobus House","url":"https://directory.hertfordshire.gov.uk/Services/2228"},"type":"Feature"},
		{"geometry":{"coordinates":[-1.77833,51.17058],"type":"Point"},"properties":{"_source":"wiltshire_council","title":"Tuesday Friendly Club - Amesbury","url":"https://directory.hertfordshire.gov.uk/Services/154"},"type":"Feature"}
	]
}
