{
	"type": "FeatureCollection",
	"features": [
		{"geometry":{"coordinates":[-1.79200,51.07006],"type":"Point"},"properties":{"_source":"warm_welcome","address":"62, Salisbury, Wiltshire SP1 1EF","description":"We have a safe warm space with tea and coffee. Friendly faces on hand for a chat","hours":{"_text":"Thursday: 11:00 - 13:00","opening":"Th 11:00-13:00"},"title":"Altogether Care - Care at Home LTD"},"type":"Feature"},
		{"geometry":{"coordinates":[-1.79204,51.07112],"type":"Point"},"properties":{"_source":"warm_welcome","address":"Altogether Care, Salisbury, Wiltshire SP1 1EQ","description":"Our Warm welcome space is located at the back of the building away from the busy office, you can charge your phone free, we have WiFi, tea and coffee, a friendly face and warm welcome. We're open every Tuesday and Thursday","hours":{"_text":"Tuesday: 11:00 - 14:00, Thursday: 11:00 - 14:00","opening":"Tu 11:00-14:00; Th 11:00-14:00"},"title":"Altogether Care Salisbury Care at Home"},"type":"Feature"},
		{"geometry":{"coordinates":[-1.78280,51.17207],"type":"Point"},"properties":{"_source":"warm_welcome","address":"Amesbury History Centre, Salisbury, Wiltshire SP4 7EU","description":"Free to enter museum with cafe.","hours":{"_text":"Monday: 09:30 - 15:30, Tuesday: 09:30 - 15:30, Thursday: 09:30 - 15:30, Friday: 09:30 - 15:30, Saturday: 09:30 - 15:30, Sunday: 09:30 - 13:00","opening":"Mo 09:30-15:30; Tu 09:30-15:30; Th 09:30-15:30; Fr 09:30-15:30; Sa 09:30-15:30; Su 09:30-13:00"},"title":"Amesbury History Centre"},"type":"Feature"},
		{"geometry":{"coordinates":[-1.77840,51.17157],"type":"Point"},"properties":{"_source":"warm_welcome","address":"Wiltshire Council, Salisbury, Wiltshire SP4 7AL","description":"Spaces to sit and keep warm. • Free access to Wi-Fi and free computer access with a Library membership • Places to charge your devices • Signposting to advice and support • Check out regular groups, activities and events To find out more about what we offer, visit www.wiltshire.gov.uk/libraries. Library membership is free - join online or visit your local library to sign up.","hours":{"_text":"Monday: 14:00 - 19:00, Tuesday: 09:30 - 17:00, Thursday: 09:30 - 19:00, Friday: 09:30 - 17:00, Saturday: 09:30 - 13:00","opening":"Mo 14:00-19:00; Tu 09:30-17:00; Th 09:30-19:00; Fr 09:30-17:00; Sa 09:30-13:00"},"title":"Amesbury Library"},"type":"Feature"},
		{"geometry":{"coordinates":[-1.78070,51.17300],"type":"Point"},"properties":{"_source":"warm_welcome","address":"High Street,, Amesbury, Wiltshire SP4 7ET","description":"Open from from now onwards .","hours":{"_text":"Saturday: 10:00 - 11:30, Sunday: 10:00 - 12:00","opening":"Sa 10:00-11:30; Su 10:00-12:00"},"title":"Amesbury Methodist Church"},"type":"Feature"},
		{"geometry":{"coordinates":[-1.80892,51.06265],"type":"Point"},"properties":{"_source":"warm_welcome","address":"Harnham Parish Hall, Wiltshire SP2 8EY","description":"Informal drop in open to all, with coffee, tea and biscuits, and good company. No charge, suggested donation welcome. NB closed on Christmas Day and New Year's Day.","hours":{"_text":"Wednesday: 10:00 - 12:00, Saturday: 10:00 - 12:00","opening":"We 10:00-12:00; Sa 10:00-12:00"},"title":"Harnham Coffee and Chat"},"type":"Feature"},
		{"geometry":{"coordinates":[-1.91051,50.97904],"type":"Point"},"properties":{"_source":"warm_welcome","address":"Martin Club, Martin, Fordingbridge SP6 3LR","description":"A warm welcome to all every Tuesday 10:30am - 1:00pm. Enjoy a hot drink and a chat. We also have a TV and a table tennis table.","hours":{"_text":"Tuesday: 10:30 - 13:00","opening":"Tu 10:30-13:00"},"title":"Martin Club"},"type":"Feature"},
		{"geometry":{"coordinates":[-1.78843,51.10221],"type":"Point"},"properties":{"_source":"warm_welcome","address":"Old Sarum Community Centre, Wiltshire SP4 6GH","description":"Somewhere to come and get warm, have something to eat and have a chat in a warm and friendly environment.","hours":{"_text":"Wednesday: 09:00 - 12:00, Friday: 15:30 - 18:30","opening":"We 09:00-12:00; Fr 15:30-18:30"},"title":"Old Sarum & Longhedge Community Pantry"},"type":"Feature"},
		{"geometry":{"coordinates":[-1.79708,51.06983],"type":"Point"},"properties":{"_source":"warm_welcome","address":"Salisbury City Library & Art Gallery, Salisbury, Wiltshire SP1 1BL","description":"Spaces to sit and keep warm. • Free access to Wi-Fi and free computer access with a Library membership • Places to charge your devices • Signposting to advice and support • Check out regular groups, activities and events To find out more about what we offer, visit www.wiltshire.gov.uk/libraries. Library membership is free - join online or visit your local library to sign up.","hours":{"_text":"Monday: 10:00 - 19:00, Tuesday: 09:00 - 19:00, Wednesday: 09:00 - 17:00, Thursday: 09:00 - 17:00, Friday: 09:00 - 19:00, Saturday: 09:00 - 17:00","opening":"Mo 10:00-19:00; Tu 09:00-19:00; We 09:00-17:00; Th 09:00-17:00; Fr 09:00-19:00; Sa 09:00-17:00"},"title":"Salisbury Library"},"type":"Feature"},
		{"geometry":{"coordinates":[-1.79723,51.06891],"type":"Point"},"properties":{"_source":"warm_welcome","address":"St Thomas's Church, Salisbury, Wiltshire SP1 1BA","description":"The parish church of the city centre of Salisbury.","hours":{"_text":"Monday: 08:45 - 17:00, Tuesday: 08:45 - 17:00, Wednesday: 08:45 - 17:00, Thursday: 08:45 - 17:00, Friday: 08:45 - 17:00, Saturday: 08:45 - 17:00, Sunday: 08:45 - 17:00","opening":"Mo 08:45-17:00; Tu 08:45-17:00; We 08:45-17:00; Th 08:45-17:00; Fr 08:45-17:00; Sa 08:45-17:00; Su 08:45-17:00"},"title":"St Thomas's Church, Salisbury"},"type":"Feature"},
		{"geometry":{"coordinates":[-1.79668,51.06843],"type":"Point"},"properties":{"_source":"warm_welcome","address":"39 silver street, Salisbury, Wiltshire Sp1 2ng","description":"Salon","hours":{"_text":"Monday: 09:00 - 05:00, Tuesday: 09:00 - 05:00, Wednesday: 09:00 - 05:00, Thursday: 09:00 - 05:00, Friday: 09:00 - 05:00, Saturday: 23:00, Sunday: 10:00 - 05:00","opening":"Mo 09:00-05:00; Tu 09:00-05:00; We 09:00-05:00; Th 09:00-05:00; Fr 09:00-05:00; Su 10:00-05:00"},"title":"The Hair Extension Cave"},"type":"Feature"},
		{"geometry":{"coordinates":[-2.08328,51.06683],"type":"Point"},"properties":{"_source":"warm_welcome","address":"Nadder Community Campus, Salisbury, Wiltshire SP3 6HJ","description":"Spaces to sit and keep warm. • Free access to Wi-Fi and free computer access with a Library membership • Places to charge your devices • Signposting to advice and support • Check out regular groups, activities and events To find out more about what we offer, visit www.wiltshire.gov.uk/libraries. Library membership is free - join online or visit your local library to sign up.","hours":{"_text":"Monday: 07:00 - 21:00, Tuesday: 07:00 - 21:00, Wednesday: 07:00 - 21:00, Thursday: 07:00 - 21:00, Friday: 07:00 - 21:00, Saturday: 08:00 - 13:00, Sunday: 08:00 - 13:00","opening":"Mo 07:00-21:00; Tu 07:00-21:00; We 07:00-21:00; Th 07:00-21:00; Fr 07:00-21:00; Sa 08:00-13:00; Su 08:00-13:00"},"title":"Tisbury Library"},"type":"Feature"},
		{"geometry":{"coordinates":[-1.86452,51.07958],"type":"Point"},"properties":{"_source":"warm_welcome","address":"Wiltshire Council, Salisbury, Wiltshire SP2 0JS","description":"Spaces to sit and keep warm. • Free access to Wi-Fi and free computer access with a Library membership • Places to charge your devices • Signposting to advice and support • Check out regular groups, activities and events To find out more about what we offer, visit www.wiltshire.gov.uk/libraries. Library membership is free - join online or visit your local library to sign up.","hours":{"_text":"Tuesday: 10:00 - 19:00, Thursday: 10:00 - 17:00, Friday: 10:00 - 17:00, Saturday: 10:00 - 13:00","opening":"Tu 10:00-19:00; Th 10:00-17:00; Fr 10:00-17:00; Sa 10:00-13:00"},"title":"Wilton Library"},"type":"Feature"},
		{"geometry":{"coordinates":[-1.79708,51.06983],"type":"Point"},"properties":{"_source":"wiltshire_council","description":"Reading group for people with memory loss and their carers","title":"Library Shared Reading Group - Salisbury","url":"https://directory.hertfordshire.gov.uk/Services/3"},"type":"Feature"},
		{"geometry":{"coordinates":[-1.79536,51.05575],"type":"Point"},"properties":{"_source":"wiltshire_council","title":"Willowcroft - Salisbury","url":"https://directory.hertfordshire.gov.uk/Services/1103"},"type":"Feature"},
		{"geometry":{"coordinates":[-1.77833,51.17058],"type":"Point"},"properties":{"_source":"wiltshire_council","title":"Tuesday Friendly Club - Amesbury","url":"https://directory.hertfordshire.gov.uk/Services/154"},"type":"Feature"},
		{"geometry":{"coordinates":[-1.82348,51.08304],"type":"Point"},"properties":{"_source":"wiltshire_council","description":"Community fridge and cafe","title":"St Michael&#39;s Community Centre - Bemerton","url":"https://directory.hertfordshire.gov.uk/Services/404"},"type":"Feature"},
		{"geometry":{"coordinates":[-1.78811,51.10251],"type":"Point"},"properties":{"_source":"wiltshire_council","description":"Weekly social group for anyone feeling lonely or isolated","title":"The Chatty Cafe - Old Sarum","url":"https://directory.hertfordshire.gov.uk/Services/2500"},"type":"Feature"},
		{"geometry":{"coordinates":[-1.78170,51.06556],"type":"Point"},"properties":{"_source":"wiltshire_council","description":"Weekly social group for anyone feeling lonely or isolated","title":"The Chatty Cafe - Salisbury","url":"https://directory.hertfordshire.gov.uk/Services/2501"},"type":"Feature"},
		{"geometry":{"coordinates":[-1.77833,51.17058],"type":"Point"},"properties":{"_source":"wiltshire_council","title":"Afternoon tea and chat - Amesbury","url":"https://directory.hertfordshire.gov.uk/Services/2228"},"type":"Feature"},
		{"geometry":{"coordinates":[-1.90078,51.15283],"type":"Point"},"properties":{"_source":"wiltshire_council","description":"Weekly social group for anyone feeling lonely or isolated","title":"Chatter &amp; Natter - Berwick St James","url":"https://directory.hertfordshire.gov.uk/Services/2499"},"type":"Feature"}
	]
}
