{
	"type": "FeatureCollection",
	"features": [
		{"geometry":{"coordinates":[-1.77820,51.17177],"type":"Point"},"properties":{"_source":"warm_welcome","address":"Smithfield Street, Amesbury, Wiltshire SP4 7AL","description":"Open from 19/12/2022. Warm Welcome sessions including free hot drinks on Monday and Thursday afternoons, 2pm-4.30pm","hours":{"_text":"Monday: 14:00 - 19:00, Tuesday: 09:30 - 17:00, Thursday: 09:30 - 19:00, Friday: 09:30 - 17:00, Saturday: 09:30 - 13:00","opening":"Mo 14:00-19:00; Tu 09:30-17:00; Th 09:30-19:00; Fr 09:30-17:00; Sa 09:30-13:00"},"title":"Amesbury Library"},"type":"Feature"},
		{"geometry":{"coordinates":[-1.78070,51.17300],"type":"Point"},"properties":{"_source":"warm_welcome","address":"High Street, , Amesbury, Wiltshire SP4 7ET","description":"Open from from now onwards .","hours":{"_text":"Saturday: 10:00 - 12:00, Sunday: 10:00 - 12:00","opening":"Sa 10:00-12:00; Su 10:00-12:00"},"title":"Amesbury Methodist Church"},"type":"Feature"},
		{"geometry":{"coordinates":[-1.75830,50.95902],"type":"Point"},"properties":{"_source":"warm_welcome","address":"St Bonfice Church, Woodgreen, Fordingbridge SP6 2AJ","hours":{"_text":"Tuesday: 10:30 - 14:30","opening":"Tu 10:30-14:30"},"title":"Avon Valley Churches"},"type":"Feature"},
		{"geometry":{"coordinates":[-1.90143,50.97392],"type":"Point"},"properties":{"_source":"warm_welcome","address":"BLANDFORD HALL, MARTIN, FORDINGBRIDGE, HANTS SP6 3LD","description":"We cater for everyone but the elderly are especially welcome All are welcome","hours":{"_text":"Wednesday: 14:00 - 16:30 / - Monthly, Saturday: 10:00 - 12:30","opening":"We 14:00-16:30; Sa 10:00-12:30"},"title":"BLANDFORD HALL"},"type":"Feature"},
		{"geometry":{"coordinates":[-1.80897,51.06263],"type":"Point"},"properties":{"_source":"warm_welcome","address":"Harnham Parish Hall, Salisbury, Wiltshire SP2 8EY","description":"Our main users at present are older people, but all are welcome. The space and the disabled toilet is wheelchair accessible only if the Main Hall is not in use.","hours":{"_text":"Wednesday: 10:00 - 12:00, Saturday: 10:00 - 12:00","opening":"We 10:00-12:00; Sa 10:00-12:00"},"title":"Harnham Coffee and Chat"},"type":"Feature"},
		{"geometry":{"coordinates":[-1.91051,50.97904],"type":"Point"},"properties":{"_source":"warm_welcome","address":"Martin Club, Martin, Fordingbridge SP6 3LR","description":"A warm welcome to all every Tuesday 10:30am - 2:30pm. Enjoy a hot drink and a chat. We also have a TV and a table tennis table.","hours":{"_text":"Tuesday: 10:30 - 2:30","opening":"Tu 10:30-02:30"},"title":"Martin Club"},"type":"Feature"},
		{"geometry":{"coordinates":[-1.79293,51.05042],"type":"Point"},"properties":{"_source":"warm_welcome","address":"Odstock Road, Salisbury, Wiltshire SP2 8BG","description":"Open from 01/12/2022. Our focus is catering for vulnerable, elderly people in the community","hours":{"_text":"Monday: 09:00 - 16:00, Tuesday: 09:00 - 16:00, Wednesday: 09:00 - 16:00, Thursday: 09:00 - 16:00, Friday: 09:00 - 16:00, Saturday: 09:00 - 16:00, Sunday: 09:00 - 16:00","opening":"Mo 09:00-16:00; Tu 09:00-16:00; We 09:00-16:00; Th 09:00-16:00; Fr 09:00-16:00; Sa 09:00-16:00; Su 09:00-16:00"},"title":"OSJCT Willowcroft"},"type":"Feature"},
		{"geometry":{"coordinates":[-1.79723,51.06891],"type":"Point"},"properties":{"_source":"warm_welcome","address":"St Thomas's Church, Salisbury, Wiltshire SP1 1BA","hours":{"_text":"Tuesday: 10:00 - 12:00, Saturday: 09:30 - 12:00","opening":"Tu 10:00-12:00; Sa 09:30-12:00"},"title":"PCC St Thomas and St Edmund"},"type":"Feature"},
		{"geometry":{"coordinates":[-1.80336,51.07046],"type":"Point"},"properties":{"_source":"warm_welcome","address":"Dews Road, Salisbury, Wiltshire SP2 7SN","description":"Open from 02/11/2022.","hours":{"_text":"Wednesday: 11:00 - 15:00, Sunday: 10:30 - 13:00","opening":"We 11:00-15:00; Su 10:30-13:00"},"title":"Rediscover Life Church"},"type":"Feature"},
		{"geometry":{"coordinates":[-1.79204,51.07070],"type":"Point"},"properties":{"_source":"warm_welcome","address":"St Edmund's Church Street, Salisbury, Wiltshire SP1 1EF","description":"The Listening Place - informal and confidential listening service - operates while foyer is open","hours":{"_text":"Wednesday: 10:00 - 12:00, Saturday: 10:00 - 12:00","opening":"We 10:00-12:00; Sa 10:00-12:00"},"title":"Salisbury Methodist Church"},"type":"Feature"},
		{"geometry":{"coordinates":[-1.75830,50.95902],"type":"Point"},"properties":{"_source":"warm_welcome","address":"St Boniface Church, Woodgreen, Fordingbridge, Hampshire SP6 2AJ","description":"Open from 06-12-2022.","hours":{"_text":"Tuesday: 10:30 - 14:30","opening":"Tu 10:30-14:30"},"title":"St Boniface Church, Woodgreen, Fordingbridge"},"type":"Feature"},
		{"geometry":{"coordinates":[-1.86275,51.07992],"type":"Point"},"properties":{"_source":"warm_welcome","address":"Wilton House, Market Place, Wilton SP2 0HT","description":"Tea/coffee/biscuits provided as well as soup & roll on request. Free Parking nearby in South Street.","hours":{"_text":"Thursday: 09:30 - 11:45","opening":"Th 09:30-11:45"},"title":"Wilton Baptist Church"},"type":"Feature"},
		{"geometry":{"coordinates":[-1.79536,51.05575],"type":"Point"},"properties":{"_source":"wiltshire_council","title":"Willowcroft - Salisbury","url":"https://directory.hertfordshire.gov.uk/Services/1103"},"type":"Feature"},
		{"geometry":{"coordinates":[-1.79708,51.06983],"type":"Point"},"properties":{"_source":"wiltshire_council","description":"Reading group for people with memory loss and their carers","title":"Library Shared Reading Group, Salisbury","url":"https://directory.hertfordshire.gov.uk/Services/3"},"type":"Feature"},
		{"geometry":{"coordinates":[-1.82348,51.08304],"type":"Point"},"properties":{"_source":"wiltshire_council","description":"Caf, lunch club and Community Fridge","title":"St Michael&#39;s Community Centre - Bemerton","url":"https://directory.hertfordshire.gov.uk/Services/404"},"type":"Feature"}
	]
}
