{
	"type": "FeatureCollection",
	"features": [
		{"geometry":{"coordinates":[-0.44296,53.69290],"type":"Point"},"properties":{"_source":"warm_spaces","address":"Maltkiln Road, Barton-upon-Humber, England, DN18 5JT, United Kingdom","description":"Free Food/Drink, Free Wi-Fi, People to chat to, Wheelchair Accessible, Toilets, Accessible Toilet, Parking, occasional craft activities","hours":{"_text":"Tuesday 12:30pm-4:30pm (from 17th January-11th April)","opening":"Tu 12:30-16:30"},"title":"The Ropewalk","url":"https://en-gb.facebook.com/RopewalkBarton/"},"type":"Feature"},
		{"geometry":{"coordinates":[-0.44296,53.69290],"type":"Point"},"properties":{"_source":"warm_spaces","address":"The Ropewalk, Maltkiln Road, Barton-upon-Humber, England, DN18 5JT, United Kingdom","description":"Free Food/Drink, Free Wi-Fi, People to chat to, Wheelchair Accessible, Toilets, Accessible Toilet, Parking, craft activities/ games and entertainment","hours":{"_text":"Every Tuesdays, 12:30pm-16:30pm. Starting 17/01/2023 until 28/03/2023","opening":"Tu 12:30-16:30"},"title":"The Ropewalk"},"type":"Feature"},
		{"geometry":{"coordinates":[-0.59330,53.68608],"type":"Point"},"properties":{"_source":"warm_spaces","address":"Frost Close, Scunthorpe, England, DN15 9PL, United Kingdom","description":"Free Food/Drink, Free Wi-Fi, Space to work, Wheelchair Accessible, Toilets, Accessible Toilet, Parking, Child Friendly","hours":{"_text":"Wednesdays and Fridays 1pm-4:30pm, Saturdays and Sundays 1pm-4pm booking and holidays dependant. Timetable available on our FaceBook page.","opening":"We 13:00-16:30; Fr 13:00-16:30; Sa 13:00-16:00; Su 13:00-16:00"},"title":"Winteringham Village Hall Warm Hub","url":"https://www.facebook.com/VHWinteringham"},"type":"Feature"},
		{"geometry":{"coordinates":[-0.59330,53.68608],"type":"Point"},"properties":{"_source":"warm_spaces","address":"Frost Close, Scunthorpe, England, DN15 9PL, United Kingdom","description":"Free Food/Drink, Free Wi-Fi, Wheelchair Accessible, Toilets, Accessible Toilet, Parking","hours":{"_text":"Wed and Friday 1pm-4:30pm and Saturday and Sunday 1pm-4pm. Booking and holiday dependant. Please check our facebook page for updated time's.","opening":"We 13:00-16:30; Fr 13:00-16:30; Sa 13:00-16:00; Su 13:00-16:00"},"title":"Winteringham Village Hall Warm Hub","url":"https://www.facebook.com/VHWinteringham"},"type":"Feature"},
		{"geometry":{"coordinates":[-0.44866,53.67904],"type":"Point"},"properties":{"_source":"warm_spaces","address":"114 Tofts Road, Barton-upon-Humber, England, DN18 5NN, United Kingdom","description":"Free Wi-Fi, People to chat to, Space to work, Food/Drink for sale, Wheelchair Accessible, Toilets, Accessible Toilet, Parking, Child Friendly","hours":{"_text":"Thursdays 12pm-4pm","opening":"Th 12:00-16:00"},"title":"Salvation Army Barton upon Humber","url":"www.salvationarmy.org.uk\\barton-upon-humber"},"type":"Feature"},
		{"geometry":{"coordinates":[-0.43678,53.68445],"type":"Point"},"properties":{"_source":"warm_spaces","address":"St Mary’s Church Hall, Burgate, Barton-upon-Humber, England, DN18 5HG, United Kingdom","description":"Free Food/Drink, Device Charging, People to chat to, Space to work, Toilets, Child Friendly","hours":{"_text":"Monday 12.30pm-3pm","opening":"Mo 12:30-15:00"},"title":"Zero Waste Cafe","url":"https://www.slowcircularearth.co.uk"},"type":"Feature"},
		{"geometry":{"coordinates":[-0.67681,53.57123],"type":"Point"},"properties":{"_source":"warm_spaces","address":"2 Lichfield Avenue, Scunthorpe, England, DN17 1QX, United Kingdom","description":"Free Food/Drink, Free Wi-Fi, Device Charging, Advice, People to chat to, Space to work, Toilets, Accessible Toilet, Parking, Child Friendly","hours":{"_text":"3pm-5pm"},"title":"The Arc","url":"https://www.arcwestcliff.co.uk"},"type":"Feature"},
		{"geometry":{"coordinates":[-0.66361,53.55950],"type":"Point"},"properties":{"_source":"warm_spaces","address":"Willoughby Road, Scunthorpe, England, DN17 2NN, United Kingdom","description":"Free Food/Drink, Device Charging, People to chat to, Wheelchair Accessible, Toilets, Accessible Toilet, Parking, Child Friendly","hours":{"_text":"Wednesday &amp; Thursdays 3:30pm-7pm","opening":"We 15:30-19:00; Th 15:30-19:00"},"title":"Church of the Holy Spirit, Riddings, Scunthorpe","url":"https://churcharmy.org/mission/scunthorpe/"},"type":"Feature"},
		{"geometry":{"coordinates":[-0.64497,53.56668],"type":"Point"},"properties":{"_source":"warm_spaces","address":"180 Ashby High Street, Scunthorpe, England, DN16 2JR, United Kingdom","description":"Device Charging, People to chat to, Space to work, Food/Drink for sale, Wheelchair Accessible, Toilets, Accessible Toilet, Parking, Child Friendly","hours":{"_text":"Thursdays, 2-5pm","opening":"Th 14:00-17:00"},"title":"St. Paul's Church Hall"},"type":"Feature"},
		{"geometry":{"coordinates":[-0.43817,53.72489],"type":"Point"},"properties":{"_source":"warm_spaces","address":"Tower Hill, Hessle, England, HU13, United Kingdom","description":"Free Food/Drink, Free Wi-Fi, Device Charging, People to chat to, Space to work","hours":{"_text":"Wednesdays, 10am-11.30pm","opening":"We 10:00-23:30"},"title":"Tower Hill Methodist Church"},"type":"Feature"},
		{"geometry":{"coordinates":[-0.38724,53.73258],"type":"Point"},"properties":{"_source":"warm_spaces","address":"728 Hessle Road, Hull, England, HU4 6PJ, United Kingdom","description":"Free Food/Drink, Free Wi-Fi, People to chat to","hours":{"_text":"Monday 9am-5pm, Wednesday 10am-6pm, Friday 9am-5pm, Saturday 10am-1pm","opening":"Mo 09:00-17:00; We 10:00-18:00; Fr 09:00-17:00; Sa 10:00-13:00"},"title":"Gipsyville Library Warm Space"},"type":"Feature"},
		{"geometry":{"coordinates":[-0.63041,53.55058],"type":"Point"},"properties":{"_source":"warm_spaces","address":"The Pink Pig Farm, Holme Lane, Scunthorpe, England, DN16 3RE, United Kingdom","description":"Free Wi-Fi, Device Charging, People to chat to, Space to work, Food/Drink for sale","hours":{"_text":"Friday 10am–3pm, Saturday 10am–4pm, Sunday 10am–4pm, Monda10am–3pm, Tuesday &amp; Wednesday Closed, Thursday 10am–3pm","opening":"Fr 10:00-15:00; Sa 10:00-16:00; Su 10:00-16:00; Th 10:00-15:00; Tu 10:00-15:00"},"title":"The Pink Pig Farm","url":"https://www.pinkpigfarm.co.uk"},"type":"Feature"},
		{"geometry":{"coordinates":[-0.38008,53.73619],"type":"Point"},"properties":{"_source":"warm_spaces","address":"Rock City Climbing, Hawthorn Avenue, Hull, England, HU3 5GL, United Kingdom","description":"Free Wi-Fi, Device Charging, People to chat to, Food/Drink for sale","hours":{"_text":"10am-1pm, 2pm-4pm, 5pm-8pm"},"title":"Rock City","url":"https://www.rockcity.co.uk"},"type":"Feature"},
		{"geometry":{"coordinates":[-0.36405,53.73602],"type":"Point"},"properties":{"_source":"hull_council","address":"262-264, Boulevard, HU3 3ED","contact":"01482 331217","description":"All of our libraries are warm spaces for all of the hours they are open and all will be providing warm drinks. There are lots of free activities available so please call us or visit our website to find out more.","title":"Western Library"},"type":"Feature"},
		{"geometry":{"coordinates":[-0.38783,53.73541],"type":"Point"},"properties":{"_source":"hull_council","address":", North Road, HU4 6LQ","contact":"01482 502609","description":"Hot meals, crafts drinks, advice","title":"Johnny Whiteley Centre"},"type":"Feature"},
		{"geometry":{"coordinates":[-0.41138,53.73793],"type":"Point"},"properties":{"_source":"hull_council","address":"18, Sibelius Road, HU4 7NH","contact":"07830 243199","description":"Hot meals, hot drinks, social space, crafting, food bank.","title":"HU4 Community Cafe"},"type":"Feature"},
		{"geometry":{"coordinates":[-0.40636,53.74238],"type":"Point"},"properties":{"_source":"hull_council","address":", The Greenway, HU4 6XH","contact":"01482 614483 / 07791 064 071","description":"Coffee corner, craft group, books and computers.","title":"Anlaby Park Community Library"},"type":"Feature"},
		{"geometry":{"coordinates":[-0.39721,53.73697],"type":"Point"},"properties":{"_source":"hull_council","address":", Askew Avenue, HU4 6NR","contact":"01482 502675","description":"Afternoon activities such as board games etc. with a warm drink and biscuits.","title":"Connect Community Church"},"type":"Feature"},
		{"geometry":{"coordinates":[-0.38731,53.73282],"type":"Point"},"properties":{"_source":"hull_council","address":", Hessle Road, HU4 6JA","contact":"01482 616973","description":"All of our libraries are warm spaces for all of the hours they are open and all will be providing warm drinks. There are lots of free activities available so please call us or visit our website to find out more.","title":"Gipsyville Library"},"type":"Feature"},
		{"geometry":{"coordinates":[-0.37468,53.74430],"type":"Point"},"properties":{"_source":"hull_council","address":", 8 Lonsdale Street, HU3 6PA","contact":"01482 564691","description":"Tuesdays – 11-1pm afternoon activities such as board games etc with a warm drink and biscuits","title":"Lonsdale Community Centre"},"type":"Feature"}
	]
}
