{
	"type": "FeatureCollection",
	"features": [
		{"geometry":{"coordinates":[-0.56924,53.72866],"type":"Point"},"properties":{"_source":"warm_welcome","address":"Centurion Way, East Riding of Yorkshire HU15 1DF","description":"East Riding libraries offer warm welcoming places, with comfy seating, books, games and jigsaws. Please check our website for service updates and any changes to our usual opening hours.","hours":{"_text":"Monday: 09:30 - 16:30, Wednesday: 09:30 - 16:30, Thursday: 09:30 - 18:30, Saturday: 09:30 - 12:30","opening":"Mo 09:30-16:30; We 09:30-16:30; Th 09:30-18:30; Sa 09:30-12:30"},"title":"Brough Petuaria Centre"},"type":"Feature"},
		{"geometry":{"coordinates":[-0.65574,53.59099],"type":"Point"},"properties":{"_source":"warm_welcome","address":"Class 6, Scunthorpe, South Humberside DN15 7RB","description":"Class 6 is a warm welcome friendly pub.","hours":{"_text":"Monday: 10:00 - 23:00, Tuesday: 10:00 - 23:00, Wednesday: 10:00 - 23:00, Thursday: 10:00 - 23:00, Friday: 10:00 - 03:00, Saturday: 10:00 - 03:00, Sunday: 10:00 - 23:00","opening":"Mo 10:00-23:00; Tu 10:00-23:00; We 10:00-23:00; Th 10:00-23:00; Fr 10:00-15:00; Sa 10:00-15:00; Su 10:00-23:00"},"title":"Class 6"},"type":"Feature"},
		{"geometry":{"coordinates":[-0.43433,53.74849],"type":"Point"},"properties":{"_source":"warm_welcome","address":"120 Springfield Way, East Riding of Yorkshire HU10 6QJ","description":"East Riding libraries offer warm welcoming places, with comfy seating, books, games and jigsaws. Please check our website for service updates and any changes to our usual opening hours.","hours":{"_text":"Monday: 09:30 - 18:30, Tuesday: 09:30 - 17:30, Wednesday: 09:30 - 17:30, Thursday: 09:30 - 17:30, Friday: 09:30 - 16:30, Saturday: 09:30 - 12:30","opening":"Mo 09:30-18:30; Tu 09:30-17:30; We 09:30-17:30; Th 09:30-17:30; Fr 09:30-16:30; Sa 09:30-12:30"},"title":"Haltemprice Library & Customer Services"},"type":"Feature"},
		{"geometry":{"coordinates":[-0.43504,53.72391],"type":"Point"},"properties":{"_source":"warm_welcome","address":"Southgate, East Riding of Yorkshire HU13 0RB","description":"East Riding libraries offer warm welcoming places, with comfy seating, books, games and jigsaws. Please check our website for service updates and any changes to our usual opening hours.","hours":{"_text":"Monday: 09:30 - 16:30, Tuesday: 09:30 - 18:30, Thursday: 09:30 - 16:30, Friday: 09:30 - 16:30, Saturday: 09:30 - 12:30","opening":"Mo 09:30-16:30; Tu 09:30-18:30; Th 09:30-16:30; Fr 09:30-16:30; Sa 09:30-12:30"},"title":"Hessle Centre"},"type":"Feature"},
		{"geometry":{"coordinates":[-0.50208,53.72021],"type":"Point"},"properties":{"_source":"warm_welcome","address":"North Ferriby Library, East Riding of Yorkshire HU14 3DA","description":"East Riding libraries offer warm welcoming places, with comfy seating, books, games and jigsaws. Please check our website for service updates and any changes to our usual opening hours.","hours":{"_text":"Tuesday: 10:00 - 17:00, Thursday: 14:00 - 18:00, Saturday: 10:00 - 12:00","opening":"Tu 10:00-17:00; Th 14:00-18:00; Sa 10:00-12:00"},"title":"North Ferriby Library"},"type":"Feature"},
		{"geometry":{"coordinates":[-0.37213,53.74125],"type":"Point"},"properties":{"_source":"warm_welcome","address":"32 Selby Street, East Yorkshire, North Humberside HU3 3PT","description":"This space is a community cafe, with an office for advice on benefits and housing issues and a Foodbank (FareShare). We work in conjunction with the Kairos Movement : We partner with Rhema Counselling for all addiction problems : We regularly have speakers in to help with housing information and job seekers.","hours":{"_text":"Monday: 10:00 - 12:00, Tuesday: 10:00 - 12:00","opening":"Mo 10:00-12:00; Tu 10:00-12:00"},"title":"Selby Street Methodist Mission"},"type":"Feature"},
		{"geometry":{"coordinates":[-0.40334,53.72931],"type":"Point"},"properties":{"_source":"warm_welcome","address":"St Nicholas Church Hall, East Yorkshire HU4 6SA","description":"Large spacious well lit hall with central heating. Large well equipped kitchen for drinks and snacks. (Currently running the Tuesday Coffee Morning, serving hot drinks and light snacks. Open to the local community).","hours":{"_text":"Tuesday: 10:00 - 12:00 Fortnightly","opening":"Tu 10:00-12:00"},"title":"St Nicholas Hall (Tuesday Coffee Morning)"},"type":"Feature"},
		{"geometry":{"coordinates":[-0.48776,53.74022],"type":"Point"},"properties":{"_source":"warm_welcome","address":"Swanland Library, East Riding of Yorkshire HU14 3QR","description":"East Riding libraries offer warm welcoming places, with comfy seating, books, games and jigsaws. Please check our website for service updates and any changes to our usual opening hours.","hours":{"_text":"Wednesday: 09:00 - 12:00, Friday: 02:00 - 18:00, Saturday: 09:00 - 12:00","opening":"We 09:00-12:00; Fr 02:00-18:00; Sa 09:00-12:00"},"title":"Swanland Library"},"type":"Feature"},
		{"geometry":{"coordinates":[-0.50208,53.71801],"type":"Point"},"properties":{"_source":"warm_welcome","address":"The Pavilion, East Yorkshire HU14 3AB","description":"The clubhouse is open to members and visitors","hours":{"_text":"Monday: 10:00 - 13:00, Wednesday: 10:00 - 13:00","opening":"Mo 10:00-13:00; We 10:00-13:00"},"title":"The pavilion"},"type":"Feature"},
		{"geometry":{"coordinates":[-0.36205,53.69600],"type":"Point"},"properties":{"_source":"warm_welcome","address":"The Woodbine Centre, Barrow-upon-Humber, South Humberside DN19 7PY","description":"SPACE OPENING ON 28th November 2025** This warm welcome space offers a welcome to all adults, and we have a range of activities that you can join in with. There is also space for a cuppa and a chat, so why not come along and join us.","hours":{"_text":"Friday: 10:00 - 12:00","opening":"Fr 10:00-12:00"},"title":"The woodbine Centre, Marsh Lane, New Holland"},"type":"Feature"},
		{"geometry":{"coordinates":[-0.43692,53.72430],"type":"Point"},"properties":{"_source":"warm_welcome","address":"Tower Hill Methodist Church, Hessle, North Humberside HU13 0SP","description":"The space is open to all, each Wednesday morning. Refreshments are available and soup will be served late morning . There are toys out for children and space for wheelchairs too.","hours":{"_text":"Wednesday: 10:00 - 01:00","opening":"We 10:00-13:00"},"title":"Tower Hill Methodist church"},"type":"Feature"},
		{"geometry":{"coordinates":[-0.43692,53.72430],"type":"Point"},"properties":{"_source":"warm_welcome","address":"Tower Hill Methodist Church, Hessle, North Humberside HU13 0SP","description":"All are welcome Free refreshments Coffee Tea and toast We have a children's area with toys and books. We have plenty of room for push chairs and wheel chairs.","hours":{"_text":"Wednesday: 10:00 - 11:30","opening":"We 10:00-11:30"},"title":"Tower Hill Methodist Church Hessle"},"type":"Feature"},
		{"geometry":{"coordinates":[-0.36361,53.73524],"type":"Point"},"properties":{"_source":"hull_council","address":"255 Hessle Road Hull","title":"Bullnose Heritage"},"type":"Feature"},
		{"geometry":{"coordinates":[-0.36542,53.73183],"type":"Point"},"properties":{"_source":"hull_council","address":"108a West Dock Avenue, Hull","title":"Groundwork"},"type":"Feature"},
		{"geometry":{"coordinates":[-0.35509,53.74258],"type":"Point"},"properties":{"_source":"hull_council","address":"872 Great Thornton Street Hull","title":"GTS TARA"},"type":"Feature"},
		{"geometry":{"coordinates":[-0.39566,53.74542],"type":"Point"},"properties":{"_source":"hull_council","address":"Lindsey Place Arcon Drive","title":"HCHFH"},"type":"Feature"},
		{"geometry":{"coordinates":[-0.37198,53.73704],"type":"Point"},"properties":{"_source":"hull_council","address":"Network Young Peoples Centre, 1 Massey Street, Hull","title":"HRN"},"type":"Feature"},
		{"geometry":{"coordinates":[-0.41137,53.73797],"type":"Point"},"properties":{"_source":"hull_council","address":"18 Sibelius Road, Hull","title":"HU4"},"type":"Feature"},
		{"geometry":{"coordinates":[-0.36774,53.74611],"type":"Point"},"properties":{"_source":"hull_council","address":"The Community Hub, MKM Stadium, West Park, Hull","title":"Hull FC Foundation"},"type":"Feature"},
		{"geometry":{"coordinates":[-0.38801,53.73551],"type":"Point"},"properties":{"_source":"hull_council","address":"Johnny Whiteley Park, North Road, Hull","title":"JW Park-West Hull Hub"},"type":"Feature"},
		{"geometry":{"coordinates":[-0.37469,53.74425],"type":"Point"},"properties":{"_source":"hull_council","address":"8, Lonsdale Street","title":"Lonsdale Community Centre"},"type":"Feature"},
		{"geometry":{"coordinates":[-0.36056,53.74267],"type":"Point"},"properties":{"_source":"hull_council","address":"41 Bean Street","title":"Maurice Rawling"},"type":"Feature"},
		{"geometry":{"coordinates":[-0.38717,53.73276],"type":"Point"},"properties":{"_source":"hull_council","address":"Gipsyville Library and community Centre 728-730 Hessle Road Hull","title":"Panda People"},"type":"Feature"},
		{"geometry":{"coordinates":[-0.38396,53.74179],"type":"Point"},"properties":{"_source":"hull_council","address":"Rainbow Family Hub and Community Centre Wheeler Street, Anlaby Road Hull","title":"Panda People"},"type":"Feature"},
		{"geometry":{"coordinates":[-0.37190,53.72984],"type":"Point"},"properties":{"_source":"hull_council","address":"7 The Beacon Way","title":"PFH"},"type":"Feature"},
		{"geometry":{"coordinates":[-0.36947,53.74167],"type":"Point"},"properties":{"_source":"hull_council","address":"Vulcan Centre, 42 Heron Street, Hull Fish Trades","title":"Vulcan Centre"},"type":"Feature"},
		{"geometry":{"coordinates":[-0.35221,53.73978],"type":"Point"},"properties":{"_source":"hull_council","address":"Family Centre (side entrance), Walker Street","title":"Welcome to English"},"type":"Feature"},
		{"geometry":{"coordinates":[-0.38091,53.73912],"type":"Point"},"properties":{"_source":"hull_council","address":"Cecil Gardens, Hawthorn Avenue, Hull","title":"Riverside Group"},"type":"Feature"}
	]
}
