{
	"type": "FeatureCollection",
	"features": [
		{"geometry":{"coordinates":[-0.46078,53.56877],"type":"Point"},"properties":{"_source":"warm_welcome","address":"Wesley Road, Brigg, North Lincolnshire DN20 8TE","description":"Open from 12/01/2022.","hours":{"_text":"Thursday: 10:00 - 12:00","opening":"Th 10:00-12:00"},"title":"Brigg Methodist Church"},"type":"Feature"},
		{"geometry":{"coordinates":[-0.66458,53.56045],"type":"Point"},"properties":{"_source":"warm_welcome","address":"Willoughby Road, Scunthorpe , Scunthorpe DN17 2NN","hours":{"_text":"Wednesday: 15:30 - 19:00, Thursday: 15:30 - 19:00","opening":"We 15:30-19:00; Th 15:30-19:00"},"title":"Church of the Holy Spirit"},"type":"Feature"},
		{"geometry":{"coordinates":[-0.64308,53.56579],"type":"Point"},"properties":{"_source":"warm_welcome","address":"Vicarage, Scunthorpe, North Lincolnshire DN16 3DL","description":"Open from 2/11/22.","hours":{"_text":"Wednesday: 13:30 - 15:30 / 15:30 - 19:00, Thursday: 15:30 - 19:00","opening":"We 13:30-15:30,15:30-19:00; Th 15:30-19:00"},"title":"Church of the Holy Spirit, Willoughby Road, Scunthorpe"},"type":"Feature"},
		{"geometry":{"coordinates":[-0.65369,53.58171],"type":"Point"},"properties":{"_source":"warm_welcome","address":"Ashby Road, Scunthorpe, Lincolnshire DN16 1NR","description":"Open from 18 November 2022. Monday 9:00-12pm is open for 'Performing Arts Group' for over 50's, Fridays 12-3pm is a free community meal for everyone.","hours":{"_text":"Monday: 09:00 - 12:00, Friday: 12:00 - 15:00, Sunday: 10:00 - 12:30","opening":"Mo 09:00-12:00; Fr 12:00-15:00; Su 10:00-12:30"},"title":"Connect Church"},"type":"Feature"},
		{"geometry":{"coordinates":[-0.65805,53.59601],"type":"Point"},"properties":{"_source":"warm_welcome","address":"CrosbyONE Centre, Scunthorpe, North Lincolnshire DN15 7LU","description":"We are a safe space that caters for the whole community. We have our space open as part of our warm welcome Mondays, Wednesdays and Fridays. There is other actives and groups that meet at other times in the week with more info on our website under events and groups.","hours":{"_text":"Monday: 10:00 - 14:00 / 09:00 - 17:00, Tuesday: 09:00 - 17:00, Wednesday: 10:00 - 14:00 / 09:00 - 17:00, Thursday: 09:00 - 17:00, Friday: 10:00 - 14:00, Sunday: 09:00 - 17:00","opening":"Mo 10:00-14:00,09:00-17:00; Tu 09:00-17:00; We 10:00-14:00,09:00-17:00; Th 09:00-17:00; Fr 10:00-14:00; Su 09:00-17:00"},"title":"CrosbyONE Centre"},"type":"Feature"},
		{"geometry":{"coordinates":[-0.43366,53.74830],"type":"Point"},"properties":{"_source":"warm_welcome","address":"120 Springfield Way, Anlaby, East Riding of Yorkshire HU10 6QJ","description":"East Riding libraries offer warm welcoming places, with comfy seating, books, games and jigsaws. Please check our website for service updates and any changes to our usual opening hours.","hours":{"_text":"Monday: 09:30 - 18:30, Tuesday: 09:30 - 17:30, Wednesday: 09:30 - 17:30, Thursday: 09:30 - 17:30, Friday: 09:30 - 14:30, Saturday: 09:30 - 12:30","opening":"Mo 09:30-18:30; Tu 09:30-17:30; We 09:30-17:30; Th 09:30-17:30; Fr 09:30-14:30; Sa 09:30-12:30"},"title":"Haltemprice Library and Customer Service Centre"},"type":"Feature"},
		{"geometry":{"coordinates":[-0.43505,53.72392],"type":"Point"},"properties":{"_source":"warm_welcome","address":"Southgate, Hessle, East Riding of Yorkshire HU13 0RB","description":"Open from 01/11/2022. East Riding libraries offer warm welcoming places, with comfy seating, books, games and jigsaws. Please check our website for service updates and any changes to our usual opening hours.","hours":{"_text":"Monday: 09:30 - 16:30, Tuesday: 09:30 - 18:30, Thursday: 09:30 - 16:30, Friday: 09:30 - 16:30, Saturday: 09:30 - 12:30","opening":"Mo 09:30-16:30; Tu 09:30-18:30; Th 09:30-16:30; Fr 09:30-16:30; Sa 09:30-12:30"},"title":"Hessle Centre"},"type":"Feature"},
		{"geometry":{"coordinates":[-0.47033,53.69324],"type":"Point"},"properties":{"_source":"warm_welcome","address":"Far Ings Education & Visitor Centre, Far Ings Road, Barton upon Humber, N. Lincolnshire DN18 5RG","description":"Everyone is welcome Take in views on the Nature Reserve from the warmth of the Centre","hours":{"_text":"Wednesday: 10:00 - 16:00, Thursday: 10:00 - 16:00, Friday: 10:00 - 16:00, Saturday: 10:00 - 16:00, Sunday: 10:00 - 16:00","opening":"We 10:00-16:00; Th 10:00-16:00; Fr 10:00-16:00; Sa 10:00-16:00; Su 10:00-16:00"},"title":"Lincolnshire Wildlife Trust"},"type":"Feature"},
		{"geometry":{"coordinates":[-0.65272,53.59027],"type":"Point"},"properties":{"_source":"warm_welcome","address":"23 Dunstall Street, Scunthorpe, North Lincolnshire DN15 6LD","description":"Coffee Shop serving hot food","hours":{"_text":"Monday: 10:00 - 16:00, Tuesday: 10:00 - 16:00, Thursday: 10:00 - 16:00, Friday: 10:00 - 16:00, Saturday: 10:00 - 16:00","opening":"Mo 10:00-16:00; Tu 10:00-16:00; Th 10:00-16:00; Fr 10:00-16:00; Sa 10:00-16:00"},"title":"Moon Coffee House"},"type":"Feature"},
		{"geometry":{"coordinates":[-0.65710,53.58444],"type":"Point"},"properties":{"_source":"warm_welcome","address":"Brumby Wood Lane, Scunthorpe, North Lincs DN171AB","description":"Free toddler group on Monday mornings. 2 course hot meal Wednesday evenings £1. Family Activity Breakfast on the 1st Saturday morning of each month.","hours":{"_text":"Monday: 10:00 - 12:00, Wednesday: 18:00 - 19:00, Saturday: 09:00 - 12:00 / - Monthly, Sunday: 09:30 - 12:00","opening":"Mo 10:00-12:00; We 18:00-19:00; Sa 09:00-12:00; Su 09:30-12:00"},"title":"New Life Church"},"type":"Feature"},
		{"geometry":{"coordinates":[-0.50262,53.71965],"type":"Point"},"properties":{"_source":"warm_welcome","address":"11 Church Road, North Ferriby, East Riding of Yorkshire HU14 3DA","description":"Open from 01/11/2022. East Riding libraries offer warm welcoming places, with comfy seating, books, games and jigsaws. Please check our website for service updates and any changes to our usual opening hours.","hours":{"_text":"Tuesday: 10:00 - 17:00, Thursday: 14:00 - 18:00, Saturday: 10:00 - 12:00","opening":"Tu 10:00-17:00; Th 14:00-18:00; Sa 10:00-12:00"},"title":"North Ferriby Library"},"type":"Feature"},
		{"geometry":{"coordinates":[-0.49103,53.55212],"type":"Point"},"properties":{"_source":"warm_welcome","address":"67 Wrawby Streer, Brigg, North Lincolnshire DN20 8JE","description":"Open from 12-01-2023.","hours":{"_text":"Thursday: 10:00 - 14:00, Friday: 10:00 - 14:00, Saturday: 10:00 - 14:00","opening":"Th 10:00-14:00; Fr 10:00-14:00; Sa 10:00-14:00"},"title":"Oikos-Brigg"},"type":"Feature"},
		{"geometry":{"coordinates":[-0.56818,53.72888],"type":"Point"},"properties":{"_source":"warm_welcome","address":"Centurion Way, Brough, East Riding of Yorkshire HU15 1AY","description":"Open from 1st November 2022. East Riding libraries offer warm welcoming places, with comfy seating, books, games and jigsaws. Please check our website for service updates and any changes to our usual opening hours.","hours":{"_text":"Monday: 09:30 - 16:30, Wednesday: 09:30 - 16:30, Thursday: 09:30 - 18:30, Saturday: 09:30 - 12:30","opening":"Mo 09:30-16:30; We 09:30-16:30; Th 09:30-18:30; Sa 09:30-12:30"},"title":"Petuaria Centre"},"type":"Feature"},
		{"geometry":{"coordinates":[-0.65362,53.59114],"type":"Point"},"properties":{"_source":"warm_welcome","address":"The Black Door, Scunthorpe, North Lincolnshire DN15 6EA","description":"Open from August 2022. LGBTQ, LGBTQ Friendly We meet socially every Sunday at a venue called the Black Door at Britannia House. It has very affordable meal deal, £3.50 for a hot drink and a toasted sandwich. The welcome is always warm and friendly.","hours":{"_text":"Sunday: 13:00 - 15:00","opening":"Su 13:00-15:00"},"title":"Scunthorpe LGBTQ+ Society"},"type":"Feature"},
		{"geometry":{"coordinates":[-0.40173,53.57285],"type":"Point"},"properties":{"_source":"warm_welcome","address":"St Barnabas Road, Barnetby, North lincolnshire DN38 6JE","description":"Open from 01-11-2022. Community Cafe in the church hall every Tuesday morning from 9am. Come for a welcoming free drink, snack and chat.","hours":{"_text":"Tuesday: 09:00 - 12:00","opening":"Tu 09:00-12:00"},"title":"St Barnabas Church"},"type":"Feature"},
		{"geometry":{"coordinates":[-0.64478,53.56667],"type":"Point"},"properties":{"_source":"warm_welcome","address":"180 Ashby High Street, Scunthorpe, North Lincs DN16 2JR","description":"Open from 10/11/2022.","hours":{"_text":"Thursday: 14:00 - 17:00","opening":"Th 14:00-17:00"},"title":"St. Pauls Church Hall, Ashby, Scunthorpe"},"type":"Feature"},
		{"geometry":{"coordinates":[-0.48713,53.74031],"type":"Point"},"properties":{"_source":"warm_welcome","address":"Village Hall, Main Street, Swanland, East Riding of Yorkshire HU14 3QR","description":"East Riding libraries offer warm welcoming places, with comfy seating, books, games and jigsaws. Please check our website for service updates and any changes to our usual opening hours.","hours":{"_text":"Wednesday: 09:00 - 12:00, Friday: 14:00 - 18:00, Saturday: 09:00 - 12:00","opening":"We 09:00-12:00; Fr 14:00-18:00; Sa 09:00-12:00"},"title":"Swanland Library"},"type":"Feature"},
		{"geometry":{"coordinates":[-0.44104,53.69084],"type":"Point"},"properties":{"_source":"warm_welcome","address":"THE ROPEWALK, MALTKILN ROAD, Barton-upon-Humber, HUMBERSIDE DN18 5JT","description":"Open from Tuesday 17th January .","hours":{"_text":"Tuesday: 12:30 - 16:30","opening":"Tu 12:30-16:30"},"title":"The Ropewalk"},"type":"Feature"},
		{"geometry":{"coordinates":[-0.44296,53.69290],"type":"Point"},"properties":{"_source":"warm_spaces","address":"Maltkiln Road, Barton-upon-Humber, England, DN18 5JT","hours":{"_text":"Tuesday 12:30pm-4:30pm (from 17th January-11th April)","opening":"Tu 12:30-16:30"},"title":"The Ropewalk","url":"https://en-gb.facebook.com/RopewalkBarton/"},"type":"Feature"},
		{"geometry":{"coordinates":[-0.44296,53.69290],"type":"Point"},"properties":{"_source":"warm_spaces","address":"The Ropewalk, Maltkiln Road, Barton-upon-Humber, England, DN18 5JT","hours":{"_text":""},"title":"The Ropewalk"},"type":"Feature"},
		{"geometry":{"coordinates":[-0.59330,53.68608],"type":"Point"},"properties":{"_source":"warm_spaces","address":"Frost Close, Scunthorpe, England, DN15 9PL","hours":{"_text":"Wednesdays and Fridays 1pm-4:30pm, Saturdays and Sundays 1pm-4pm booking and holidays dependant. Timetable available on our FaceBook page.","opening":"We 13:00-16:30; Fr 13:00-16:30; Sa 13:00-16:00; Su 13:00-16:00"},"title":"Winteringham Village Hall Warm Hub","url":"https://www.facebook.com/VHWinteringham"},"type":"Feature"},
		{"geometry":{"coordinates":[-0.59330,53.68608],"type":"Point"},"properties":{"_source":"warm_spaces","address":"Frost Close, Scunthorpe, England, DN15 9PL","hours":{"_text":"Wed and Friday 1pm-4:30pm and Saturday and Sunday 1pm-4pm. Booking and holiday dependant. Please check our facebook page for updated time's. ","opening":"We 13:00-16:30; Fr 13:00-16:30; Sa 13:00-16:00; Su 13:00-16:00"},"title":"Winteringham Village Hall Warm Hub","url":"https://www.facebook.com/VHWinteringham"},"type":"Feature"},
		{"geometry":{"coordinates":[-0.44866,53.67904],"type":"Point"},"properties":{"_source":"warm_spaces","address":"114 Tofts Road, Barton-upon-Humber, England, DN18 5NN","hours":{"_text":"Thursdays 12pm-4pm","opening":"Th 12:00-16:00"},"title":"Salvation Army Barton upon Humber","url":"www.salvationarmy.org.uk\\barton-upon-humber"},"type":"Feature"},
		{"geometry":{"coordinates":[-0.43678,53.68445],"type":"Point"},"properties":{"_source":"warm_spaces","address":"St Mary’s Church Hall, Burgate, Barton-upon-Humber, England, DN18 5HG","hours":{"_text":"Monday 12.30pm-3pm","opening":"Mo 12:30-15:00"},"title":"Zero Waste Cafe","url":"https://www.slowcircularearth.co.uk"},"type":"Feature"},
		{"geometry":{"coordinates":[-0.67681,53.57123],"type":"Point"},"properties":{"_source":"warm_spaces","address":"2 Lichfield Avenue, Scunthorpe, England, DN17 1QX","hours":{"_text":"3pm-5pm"},"title":"The Arc","url":"https://www.arcwestcliff.co.uk"},"type":"Feature"},
		{"geometry":{"coordinates":[-0.66361,53.55950],"type":"Point"},"properties":{"_source":"warm_spaces","address":"Willoughby Road, Scunthorpe, England, DN17 2NN","hours":{"_text":"Wednesday &amp; Thursdays 3:30pm-7pm","opening":"We 15:30-19:00; Th 15:30-19:00"},"title":"Church of the Holy Spirit, Riddings, Scunthorpe","url":"https://churcharmy.org/mission/scunthorpe/"},"type":"Feature"},
		{"geometry":{"coordinates":[-0.36405,53.73602],"type":"Point"},"properties":{"_source":"hull_council","address":"262-264, Boulevard, HU3 3ED","contact":"01482 331217","description":"All of our libraries are warm spaces for all of the hours they are open and all will be providing warm drinks. There are lots of free activities available so please call us or visit our website to find out more.","title":"Western Library"},"type":"Feature"},
		{"geometry":{"coordinates":[-0.38783,53.73541],"type":"Point"},"properties":{"_source":"hull_council","address":", North Road, HU4 6LQ","contact":"01482 502609","description":"Hot meals, crafts drinks, advice","title":"Johnny Whiteley Centre"},"type":"Feature"},
		{"geometry":{"coordinates":[-0.41138,53.73793],"type":"Point"},"properties":{"_source":"hull_council","address":"18, Sibelius Road, HU4 7NH","contact":"07830 243199","description":"Hot meals, hot drinks, social space, crafting, food bank.","title":"HU4 Community Cafe"},"type":"Feature"},
		{"geometry":{"coordinates":[-0.40636,53.74238],"type":"Point"},"properties":{"_source":"hull_council","address":", The Greenway, HU4 6XH","contact":"01482 614483 / 07791 064 071","description":"Coffee corner, craft group, books and computers.","title":"Anlaby Park Community Library"},"type":"Feature"},
		{"geometry":{"coordinates":[-0.39721,53.73697],"type":"Point"},"properties":{"_source":"hull_council","address":", Askew Avenue, HU4 6NR","contact":"01482 502675","description":"Afternoon activities such as board games etc. with a warm drink and biscuits.","title":"Connect Community Church"},"type":"Feature"},
		{"geometry":{"coordinates":[-0.38731,53.73282],"type":"Point"},"properties":{"_source":"hull_council","address":", Hessle Road, HU4 6JA","contact":"01482 616973","description":"All of our libraries are warm spaces for all of the hours they are open and all will be providing warm drinks. There are lots of free activities available so please call us or visit our website to find out more.","title":"Gipsyville Library"},"type":"Feature"},
		{"geometry":{"coordinates":[-0.37468,53.74430],"type":"Point"},"properties":{"_source":"hull_council","address":", 8 Lonsdale Street, HU3 6PA","contact":"01482 564691","description":"Tuesdays – 11-1pm afternoon activities such as board games etc with a warm drink and biscuits","title":"Lonsdale Community Centre"},"type":"Feature"}
	]
}
