{
	"type": "FeatureCollection",
	"features": [
		{"geometry":{"coordinates":[-0.53815,53.23584],"type":"Point"},"properties":{"_source":"warm_welcome","address":"Bailgate methodist church , Lincoln , Lincolnshire LN1 3AR","description":"People often bring craft with them on a friday","hours":{"_text":"Thursday: 9:30 - 12:00, Friday: 10:30 - 13:00 / - Fortnightly, Sunday: 10:00 - 12:00","opening":"Th 09:30-12:00; Fr 10:30-13:00; Su 10:00-12:00"},"title":"Bailgate methodist church"},"type":"Feature"},
		{"geometry":{"coordinates":[-0.64147,53.17976],"type":"Point"},"properties":{"_source":"warm_welcome","address":"One NK, Lincoln, Lincolnshire LN6 9AX","hours":{"_text":"Monday: 13:00 - 15:00, Wednesday: 13:00 - 15:00, Friday: 13:00 - 15:00","opening":"Mo 13:00-15:00; We 13:00-15:00; Fr 13:00-15:00"},"title":"Better"},"type":"Feature"},
		{"geometry":{"coordinates":[-0.54880,53.20962],"type":"Point"},"properties":{"_source":"warm_welcome","address":"72a Newark Road, Lincoln , Lincoln LN5 8PY","hours":{"_text":"Monday: 10:00 - 14:00, Tuesday: 10:00 - 14:00, Wednesday: 10:00 - 14:00, Thursday: 10:00 - 14:00","opening":"Mo 10:00-14:00; Tu 10:00-14:00; We 10:00-14:00; Th 10:00-14:00"},"title":"Bridge church Lincoln"},"type":"Feature"},
		{"geometry":{"coordinates":[-0.53614,53.22328],"type":"Point"},"properties":{"_source":"warm_welcome","address":"Bridge Central, Portland Street, Lincoln LN5 7NN","hours":{"_text":"Monday: 10:00 - 14:00, Tuesday: 10:00 - 14:00, Wednesday: 10:00 - 14:00, Thursday: 10:00 - 14:00","opening":"Mo 10:00-14:00; Tu 10:00-14:00; We 10:00-14:00; Th 10:00-14:00"},"title":"Bridge Church Lincoln"},"type":"Feature"},
		{"geometry":{"coordinates":[-0.54910,53.20945],"type":"Point"},"properties":{"_source":"warm_welcome","address":"Bridge Community Hub, 107-115 Newark Road, Lincoln LN5 8NQ","description":"Library, food bank, CAB advisor","hours":{"_text":"Monday: 10:00 - 14:00, Tuesday: 10:00 - 14:00, Wednesday: 10:00 - 14:00, Friday: 10:00 - 14:00","opening":"Mo 10:00-14:00; Tu 10:00-14:00; We 10:00-14:00; Fr 10:00-14:00"},"title":"Bridge Community Hub"},"type":"Feature"},
		{"geometry":{"coordinates":[-0.53554,53.19407],"type":"Point"},"properties":{"_source":"warm_welcome","address":"Bracebridge Heath Methodist Church, Grantham Road, Bracebridge Heath, Lincoln LN4 2LE","description":"We are a friendly Community Drop-in that has been running since Feb. 2022. We started because we wanted to bring the community together and the opportunity to offer a warm welcome to those in need this Winter is exactly what we are here for.","hours":{"_text":"Wednesday: 09:00 - 11:30","opening":"We 09:00-11:30"},"title":"Community Drop-in (The Heath Christian Partnership)"},"type":"Feature"},
		{"geometry":{"coordinates":[-0.47612,53.29922],"type":"Point"},"properties":{"_source":"warm_welcome","address":"Jubilee Room, Dunholme Village Hall, Honeyholes Lane, Dunholme, Lincolnshire LN2 3SU","description":"Open from 09/01/2023. We have a good selection of games and toys available.","hours":{"_text":"Monday: 10:00 - 15:00, Wednesday: 10:00 - 15:00","opening":"Mo 10:00-15:00; We 10:00-15:00"},"title":"Dunholme Cosy Corner"},"type":"Feature"},
		{"geometry":{"coordinates":[-0.53113,53.24723],"type":"Point"},"properties":{"_source":"warm_welcome","address":"19 Ravendale Drive, Lincoln, Lincolnshire LN2 2BT","hours":{"_text":"Tuesday: 09:00 - 16:00, Wednesday: 09:00 - 13:00","opening":"Tu 09:00-16:00; We 09:00-13:00"},"title":"Ermine Library and Community Hub"},"type":"Feature"},
		{"geometry":{"coordinates":[-0.51132,53.23255],"type":"Point"},"properties":{"_source":"warm_welcome","address":"49 Roman Pavement , Lincoln , Lincolnshire LN2 5RD","hours":{"_text":"Wednesday: 10:00 - 12:00","opening":"We 10:00-12:00"},"title":"Green Synergy"},"type":"Feature"},
		{"geometry":{"coordinates":[-0.53478,53.23524],"type":"Point"},"properties":{"_source":"warm_welcome","address":"4 Priory Gate, Lincoln LN2 1PL","description":"Open from 3rd Saturday of each month.","hours":{"_text":"Saturday: 09:00 - 12:00 / - Monthly","opening":"Sa 09:00-12:00"},"title":"Lincoln Cathedral"},"type":"Feature"},
		{"geometry":{"coordinates":[-0.53767,53.22942],"type":"Point"},"properties":{"_source":"warm_welcome","address":"Lincoln Central Library, Free School Lane, Lincoln LN2 1EZ","description":"It is free to join and use the library and everyone is welcome. Alongside free access to books, computers, casual and study seating, the Library runs a host of free activities for adults and children including Connect Over A Cuppa community coffee morning every Thursday 10.30-11.30, there is no charge for refreshments.","hours":{"_text":"Monday: 09:00 - 17:00, Tuesday: 09:00 - 17:00, Wednesday: 09:00 - 17:00, Thursday: 09:00 - 18:00, Friday: 09:00 - 17:00, Saturday: 09:00 - 16:00","opening":"Mo 09:00-17:00; Tu 09:00-17:00; We 09:00-17:00; Th 09:00-18:00; Fr 09:00-17:00; Sa 09:00-16:00"},"title":"Lincoln Central Library"},"type":"Feature"},
		{"geometry":{"coordinates":[-0.54084,53.21832],"type":"Point"},"properties":{"_source":"warm_welcome","address":"LNER Stadium, Lincoln, Lincolnshire LN5 8LD","description":"Open from 09-01-2023. *Open from 9th Jan* A free to access communal space within the LNER Stadium, Lincoln City Football Club open to local people to access. Warm packs will also be available for attendees to take home and use to help make life more comfortable.","hours":{"_text":"Monday: 10:00 - 15:00","opening":"Mo 10:00-15:00"},"title":"Lincoln City Foundation"},"type":"Feature"},
		{"geometry":{"coordinates":[-0.54460,53.22170],"type":"Point"},"properties":{"_source":"warm_welcome","address":"106 HIGH STREET, LINCOLN, LINCOLNSHIRE LN5 7PY","description":"Open from 02/11/2022. We provide breakfast, hot meal and hot drinks","hours":{"_text":"Wednesday: 10:00 - 12:30, Friday: 10:00 - 12:30","opening":"We 10:00-12:30; Fr 10:00-12:30"},"title":"LINCOLN SALVATION ARMY"},"type":"Feature"},
		{"geometry":{"coordinates":[-0.48848,53.26664],"type":"Point"},"properties":{"_source":"warm_welcome","address":"1 East Street, Nettleham, Lincoln LN2 2SL","description":"We cater for the whole community We are a registered charity that aim to prevent loneliness and isolation and create community cohesion by providing a safe space for the community as well as hosting events throughout the year.","hours":{"_text":"Monday: 08:30 - 16:30, Tuesday: 08:30 - 16:30, Wednesday: 08:30 - 16:30, Thursday: 08:30 - 16:30, Friday: 08:30 - 16:30, Saturday: 08:30 - 16:30, Sunday: 09:30 - 16:00","opening":"Mo 08:30-16:30; Tu 08:30-16:30; We 08:30-16:30; Th 08:30-16:30; Fr 08:30-16:30; Sa 08:30-16:30; Su 09:30-16:00"},"title":"Nettleham Community Hub"},"type":"Feature"},
		{"geometry":{"coordinates":[-0.52894,53.24781],"type":"Point"},"properties":{"_source":"warm_welcome","address":"Laughton way, Lincoln, Lincolnshire LN2 2HE","description":"Open from 16 Dec 2022.","hours":{"_text":"Monday: 10:00 - 14:00","opening":"Mo 10:00-14:00"},"title":"Our Lady of Lincoln parish."},"type":"Feature"},
		{"geometry":{"coordinates":[-0.41840,53.16425],"type":"Point"},"properties":{"_source":"warm_welcome","address":"Main Street, Nocton, Lincs LN4 2BH","description":"We have a warm, friendly, tranquil space where folk can enjoy a variety of refreshments, various craft activities, board games, jigsaws, and a quiet space to reflect and/or pray","hours":{"_text":"Thursday: 09:30 - 12:00","opening":"Th 09:30-12:00"},"title":"Renew @ The Hub"},"type":"Feature"},
		{"geometry":{"coordinates":[-0.66056,53.26743],"type":"Point"},"properties":{"_source":"warm_welcome","address":"Library, Community Centre, Saxilby , Lincoln LN1 2LP","hours":{"_text":"Tuesday: 10:30 - 15:30, Wednesday: 10:30 - 16:00, Friday: 10:30 - 13:00","opening":"Tu 10:30-15:30; We 10:30-16:00; Fr 10:30-13:00"},"title":"Saxilby with Ingleby Parish Council"},"type":"Feature"},
		{"geometry":{"coordinates":[-0.62004,53.23731],"type":"Point"},"properties":{"_source":"warm_welcome","address":"High Street, Skellingthorpe, Lincoln LN6","description":"Open from 011022.","hours":{"_text":"Tuesday: 14:15 - 16:00","opening":"Tu 14:15-16:00"},"title":"Skellingthorpe Methodist Church"},"type":"Feature"},
		{"geometry":{"coordinates":[-0.51611,53.24347],"type":"Point"},"properties":{"_source":"warm_welcome","address":"54-62 Addison Drive, Lincoln, Lincolnshire LN2 4LQ","hours":{"_text":"Wednesday: 10:00 - 12:00, Friday: 10:00 - 12:00","opening":"We 10:00-12:00; Fr 10:00-12:00"},"title":"St Giles Methodist Church"},"type":"Feature"},
		{"geometry":{"coordinates":[-0.54587,53.24049],"type":"Point"},"properties":{"_source":"warm_welcome","address":"Lincoln Methodist Circuit Office, Burton Road Methodist Church, 175 Burton Road Lincoln LN1 3LT","hours":{"_text":"Wednesday: 10:00 - 12:00, Friday: 10:00 - 12:00","opening":"We 10:00-12:00; Fr 10:00-12:00"},"title":"St Giles Methodist Church"},"type":"Feature"},
		{"geometry":{"coordinates":[-0.51860,53.24276],"type":"Point"},"properties":{"_source":"warm_welcome","address":"Jubilee Halls, Lamb Gardens, Lincoln LN2 4EH","hours":{"_text":"Monday: 14:00 - 16:00","opening":"Mo 14:00-16:00"},"title":"St Giles Parish Church, Lincoln"},"type":"Feature"},
		{"geometry":{"coordinates":[-0.47482,53.22379],"type":"Point"},"properties":{"_source":"warm_welcome","address":"St John's Church, Washingborough, Lincoln LN4 1AZ","hours":{"_text":"Wednesday: 9:00 - 12:00, Friday: 9:00 - 12:00, Saturday: 14:00 - 16:00, Sunday: 10:00 - 12:00","opening":"We 09:00-12:00; Fr 09:00-12:00; Sa 14:00-16:00; Su 10:00-12:00"},"title":"St John's Church"},"type":"Feature"},
		{"geometry":{"coordinates":[-0.54171,53.16469],"type":"Point"},"properties":{"_source":"warm_welcome","address":"High Street, Waddington, Lincoln LN5 9RF","title":"St Michael's Church, Waddington"},"type":"Feature"},
		{"geometry":{"coordinates":[-0.53767,53.22955],"type":"Point"},"properties":{"_source":"warm_welcome","address":"The Salthouse, Free School Lane, Lincoln LN2 1EY","description":"On Thursday we hold a community cafe from 10.30am to 4pm with free drinks & cakes as well as access to free table tennis and pool. At lunch we serve delicious baked potatoes for a small donation. Our warm space includes free refreshments, wifi, games & activities.","hours":{"_text":"Thursday: 10:30 - 16:00","opening":"Th 10:30-16:00"},"title":"St. Swithin's Church"},"type":"Feature"},
		{"geometry":{"coordinates":[-0.53699,53.23208],"type":"Point"},"properties":{"_source":"warm_welcome","address":"THE COLLECTION MUSEUM, Lincoln, Lincolnshire LN2 1LP","description":"The musuem and gallery welcomes all visitors Visiting the museum and Usher Gallery is free* and there is no need to pre-book. The museum is a safe and welcoming space and we look forward to welcoming you soon. The museum is open five days per week (closed on Tuesdays and Wednesdays) from 10am to 4pm","hours":{"_text":"Monday: 10:00 - 16:00, Thursday: 10:00 - 16:00, Friday: 10:00 - 16:00, Saturday: 10:00 - 16:00, Sunday: 10:00 - 16:00","opening":"Mo 10:00-16:00; Th 10:00-16:00; Fr 10:00-16:00; Sa 10:00-16:00; Su 10:00-16:00"},"title":"The Collection museum and Usher Gallery"},"type":"Feature"},
		{"geometry":{"coordinates":[-0.45515,53.24188],"type":"Point"},"properties":{"_source":"warm_welcome","address":"The Vine Centre, (library), The Parade, Cherry Willingham Lincoln LN3 4JL","hours":{"_text":"Wednesday: 13:00 - 15:00, Thursday: 09:30 - 16:30, Saturday: 10:00 - 12:00","opening":"We 13:00-15:00; Th 09:30-16:30; Sa 10:00-12:00"},"title":"Vine Community Church"},"type":"Feature"},
		{"geometry":{"coordinates":[-0.46334,53.22293],"type":"Point"},"properties":{"_source":"warm_welcome","address":"Civic Office, Fen Road, Washingborough, Lincoln, Lincolnshire LN4 1AB","description":"Open from 12/01/23. Open to everyone Open every other Thursday from 12th January 2023. We offer a warm space, comfy chair & hot drinks. Games are available for all ages or just come for a chat.","hours":{"_text":"Thursday: 09:30 - 12:30 / - Fortnightly","opening":"Th 09:30-12:30"},"title":"Washingborough Parish Council"},"type":"Feature"},
		{"geometry":{"coordinates":[-0.48119,53.30667],"type":"Point"},"properties":{"_source":"warm_welcome","address":"Welton village hall, Welton, Lincoln Ln2 3lu","description":"Adults only We are a craft class for adults","hours":{"_text":"Monday: 09:00 - 12:00","opening":"Mo 09:00-12:00"},"title":"Welton & district craft class"},"type":"Feature"},
		{"geometry":{"coordinates":[-0.54812,53.22684],"type":"Point"},"properties":{"_source":"warm_spaces","address":"Isaac Newton Building, University of Lincoln, Brayford Pool, Lincoln, England, LN6 7TS","hours":{"_text":"1st and 3rd Wednesdays, 1pm-2:30pm"},"title":"Faith and Diversity Embroidery Project","url":"https://www.tcf-reconciliation.org"},"type":"Feature"},
		{"geometry":{"coordinates":[-0.54351,53.22283],"type":"Point"},"properties":{"_source":"warm_spaces","address":"377 High Street, Lincoln, England, LN5 7RY","hours":{"_text":"2nd and 4th Wednesdays, 11am-1pm"},"title":"Cosy Crafters","url":"https://www.tcf-reconciliation.org/ https://www.tcf-reconciliation.org/"},"type":"Feature"},
		{"geometry":{"coordinates":[-0.54937,53.23318],"type":"Point"},"properties":{"_source":"warm_spaces","address":"73 West Parade, Lincoln, England, LN1 1QL","hours":{"_text":"2nd Saturday of the month, 11am-1pm","opening":"Sa[2] 11:00-13:00"},"title":"Chat Cafe","url":"https://www.tcf-reconciliation.org"},"type":"Feature"},
		{"geometry":{"coordinates":[-0.62313,53.19927],"type":"Point"},"properties":{"_source":"warm_spaces","address":"Whisby Garden Centre, Whisby Road, Lincoln, England, LN6 9BY","hours":{"_text":"Monday - Saturday, 9am-5:30pm","opening":"Mo-Sa 09:00-17:30"},"title":"Whisby Garden Centre","url":"https://www.whisbygardencentre.com"},"type":"Feature"}
	]
}
