{
	"type": "FeatureCollection",
	"features": [
		{"geometry":{"coordinates":[-0.47682,53.29937],"type":"Point"},"properties":{"_source":"warm_spaces","address":"55 Honeyholes Lane, Lincoln, England, LN2 3SU, United Kingdom","description":"Free Food/Drink, Free Wi-Fi, Device Charging, Advice, People to chat to, Space to work, Toilets, Accessible Toilet, Parking, Child Friendly","hours":{"_text":"Mon &amp; Wed 10am-3pm","opening":"Mo 10:00-15:00; We 10:00-15:00"},"title":"Dunholme village hall","url":"https://www.dunholme-pc.gov.uk"},"type":"Feature"},
		{"geometry":{"coordinates":[-0.54812,53.22684],"type":"Point"},"properties":{"_source":"warm_spaces","address":"Isaac Newton Building, University of Lincoln, Brayford Pool, Lincoln, England, LN6 7TS, United Kingdom","description":"Free Food/Drink, People to chat to, Food/Drink for sale, Wheelchair Accessible, Toilets, Accessible Toilet","hours":{"_text":"1st and 3rd Wednesdays, 1pm-2:30pm"},"title":"Faith and Diversity Embroidery Project","url":"https://www.tcf-reconciliation.org"},"type":"Feature"},
		{"geometry":{"coordinates":[-0.54351,53.22283],"type":"Point"},"properties":{"_source":"warm_spaces","address":"377 High Street, Lincoln, England, LN5 7RY, United Kingdom","description":"Free Food/Drink, Free Wi-Fi, People to chat to, Toilets, Child Friendly, Donation point for the Lincoln Hygiene Bank","hours":{"_text":"2nd and 4th Wednesdays, 11am-1pm"},"title":"Cosy Crafters","url":"https://www.tcf-reconciliation.org/ https://www.tcf-reconciliation.org/"},"type":"Feature"},
		{"geometry":{"coordinates":[-0.54937,53.23318],"type":"Point"},"properties":{"_source":"warm_spaces","address":"73 West Parade, Lincoln, England, LN1 1QL, United Kingdom","description":"People to chat to, Food/Drink for sale, Wheelchair Accessible, Toilets, Child Friendly","hours":{"_text":"2nd Saturday of the month, 11am-1pm","opening":"Sa[2] 11:00-13:00"},"title":"Chat Cafe","url":"https://www.tcf-reconciliation.org"},"type":"Feature"},
		{"geometry":{"coordinates":[-0.62313,53.19927],"type":"Point"},"properties":{"_source":"warm_spaces","address":"Whisby Garden Centre, Whisby Road, Lincoln, England, LN6 9BY, United Kingdom","description":"Food/Drink for sale, Cafe to sit in, Garden Centre to wander around,Soft play centre with its own cafe","hours":{"_text":"Monday - Saturday, 9am-5:30pm","opening":"Mo-Sa 09:00-17:30"},"title":"Whisby Garden Centre","url":"https://www.whisbygardencentre.com"},"type":"Feature"}
	]
}
