{
	"type": "FeatureCollection",
	"features": [
		{"geometry":{"coordinates":[-0.88679,54.55391],"type":"Point"},"properties":{"_source":"warm_welcome","address":"2nd Time Around, Select a county (optional) TS13 4HW","description":"We have a lovely warm space, with comfy chairs, with throws on the backs if people wish to use them. There is an electric fire that makes it look homely, always plenty of conversation & plenty to read.","hours":{"_text":"Monday: 09:00 - 18:00, Tuesday: 09:00 - 16:00, Wednesday: 09:00 - 20:00, Thursday: 09:00 - 16:00, Friday: 09:00 - 20:00, Saturday: 09:30 - 14:00 Fortnightly","opening":"Mo 09:00-18:00; Tu 09:00-16:00; We 09:00-20:00; Th 09:00-16:00; Fr 09:00-20:00; Sa 09:30-14:00"},"title":"2nd Time Around"},"type":"Feature"},
		{"geometry":{"coordinates":[-0.93028,54.56918],"type":"Point"},"properties":{"_source":"warm_welcome","address":"Brotton Methodist Church, Saltburn by the sea, Cleveland TS12 2QD","description":"SPACE OPENING ON 16th January 2024** A warm welcoming church coffee lounge","hours":{"_text":"Tuesday: 13:00 - 16:00","opening":"Tu 13:00-16:00"},"title":"Brotton Methodist Church"},"type":"Feature"},
		{"geometry":{"coordinates":[-0.90869,54.46761],"type":"Point"},"properties":{"_source":"warm_welcome","address":"Danby Village Hall, Whitby, North Yorkshire YO21 2JF","description":"The space is open from 9am-4pm for anyone and on Wednesday afternoons 1pm-4pm","hours":{"_text":"Monday: 12:00 - 16:00, Wednesday: 13:00 - 15:00","opening":"Mo 12:00-16:00; We 13:00-15:00"},"title":"Danby Village Hall"},"type":"Feature"},
		{"geometry":{"coordinates":[-0.88686,54.55363],"type":"Point"},"properties":{"_source":"warm_welcome","address":"Old Co-op Building, High Street, Loftus, North Yorkshire ts13 4hw","description":"We offer a space to sit, chat if you wish, access the internet. Free hot drink and toast available. This space runs alongside our community grocery which offers Â£2 basket shop for around 10 items, this is optional to use, and you can use the space without accessing this.","hours":{"_text":"Monday: 10:00 - 11:30, Tuesday: 10:00 - 11:30, Thursday: 13:00 - 14:30, Friday: 10:00 - 11:30","opening":"Mo 10:00-11:30; Tu 10:00-11:30; Th 13:00-14:30; Fr 10:00-11:30"},"title":"Hope Church East Cleveland"},"type":"Feature"},
		{"geometry":{"coordinates":[-0.93028,54.56918],"type":"Point"},"properties":{"_source":"redcar_and_cleveland_council","address":"18 High Street, Brotton, TS12 2QD, United Kingdom","hours":{"_text":"Tuesday - 1.00pm until 4.00pm","opening":"Tu 13:00-16:00"},"title":"Brotton Methodist Church","url":"https://www.clevelandfire.gov.uk/community/ssaw/"},"type":"Feature"},
		{"geometry":{"coordinates":[-0.88800,54.55373],"type":"Point"},"properties":{"_source":"redcar_and_cleveland_council","address":"18 High Street, Brotton, TS12 2QD, United Kingdom","hours":{"_text":"Tuesday - 1.00pm until 4.00pm","opening":"Tu 13:00-16:00"},"title":"Hope Church East Cleveland","url":"https://www.clevelandfire.gov.uk/community/ssaw/"},"type":"Feature"},
		{"geometry":{"coordinates":[-0.95916,54.53827],"type":"Point"},"properties":{"_source":"redcar_and_cleveland_council","address":"18 High Street, Brotton, TS12 2QD, United Kingdom","hours":{"_text":"Tuesday - 1.00pm until 4.00pm","opening":"Tu 13:00-16:00"},"title":"Lingdale Village Hall","url":"https://www.clevelandfire.gov.uk/community/ssaw/"},"type":"Feature"},
		{"geometry":{"coordinates":[-0.88805,54.55439],"type":"Point"},"properties":{"_source":"redcar_and_cleveland_council","address":"18 High Street, Brotton, TS12 2QD, United Kingdom","hours":{"_text":"Tuesday - 1.00pm until 4.00pm","opening":"Tu 13:00-16:00"},"title":"Loftus Family Hub","url":"https://www.clevelandfire.gov.uk/community/ssaw/"},"type":"Feature"},
		{"geometry":{"coordinates":[-0.98930,54.56459],"type":"Point"},"properties":{"_source":"redcar_and_cleveland_council","address":"Redcar and Cleveland House, Kirkleatham Street, Redcar, TS10 1RT, United Kingdom","hours":{"_text":"Monday - 10am until 2pm \n Tuesday/Wednesday - 9am until 5pm \n Thursday - 11am until 7pm \n Friday - 9am until 5pm \n Saturday - 10am until 2:00pm","opening":"Tu 09:00-17:00; We 09:00-17:00; Mo 10:00-14:00; Th 11:00-19:00; Fr 09:00-17:00; Sa 10:00-14:00"},"title":"Skelton Family Hub","url":"https://www.clevelandfire.gov.uk/community/ssaw/"},"type":"Feature"}
	]
}
