{
	"type": "FeatureCollection",
	"features": [
		{"geometry":{"coordinates":[-0.79752,54.13554],"type":"Point"},"properties":{"_source":"warm_welcome","address":"St Michael Street, Malton, North Yorkshire YO17 7LJ","hours":{},"title":"Malton Library"},"type":"Feature"},
		{"geometry":{"coordinates":[-0.78482,54.13155],"type":"Point"},"properties":{"_source":"warm_welcome","address":"40 Wood Street, Norton, Malton YO17 9BA","description":"Open to all for a meal, conversation and company This space on a Monday provides a two course meal (£5 per person) which is followed by our CAMEO (Come And Meet Each Other) club for £1 pp. This club is interactive with activities such as craft, games, films etc each week where refreshments are served.","hours":{"_text":"Monday: 12:30 - 15:00","opening":"Mo 12:30-15:00"},"title":"Malton Salvation Army"},"type":"Feature"},
		{"geometry":{"coordinates":[-0.78253,54.13268],"type":"Point"},"properties":{"_source":"warm_welcome","address":"86 Commercial Street, Norton, Malton, North Yorkshire YO17 9ES","description":"Open from 03.01.2023.","hours":{"_text":"Tuesday: 10:00 - 16:00, Wednesday: 10:00 - 16:00, Thursday: 10:00 - 16:00, Saturday: 10:00 - 16:00","opening":"Tu 10:00-16:00; We 10:00-16:00; Th 10:00-16:00; Sa 10:00-16:00"},"title":"Norton Hive Community Library and Hub"},"type":"Feature"},
		{"geometry":{"coordinates":[-0.91311,53.98947],"type":"Point"},"properties":{"_source":"warm_welcome","address":"Church Road, Stamford Bridge, East Riding of Yorkshire YO41 1BP","description":"Open from 01/11/2022. East Riding libraries offer warm welcoming places, with comfy seating, books, games and jigsaws. Please check our website for service updates and any changes to our usual opening hours.","hours":{"_text":"Tuesday: 14:00 - 19:00, Thursday: 14:00 - 17:00, Saturday: 10:00 - 12:00","opening":"Tu 14:00-19:00; Th 14:00-17:00; Sa 10:00-12:00"},"title":"Stamford Bridge Library"},"type":"Feature"},
		{"geometry":{"coordinates":[-0.79959,53.98075],"type":"Point"},"properties":{"_source":"warm_spaces","address":"Belthorpe Lane, York, England, YO42","hours":{"_text":"Wed-Fri 9:30am-4:40pm, Sat-Sun 1pm-6pm","opening":"We-Fr 09:30-16:40; Sa-Su 13:00-18:00"},"title":"The Shire - Cafe &amp; Gelateria"},"type":"Feature"}
	]
}
