{
	"type": "FeatureCollection",
	"features": [
		{"geometry":{"coordinates":[-0.79800,53.07125],"type":"Point"},"properties":{"_source":"warm_welcome","address":"Charles Street Methodist Church, Newark, Nottinghamshire NG24 1RN","description":"The space is open to all. We are open from 8.30 -12.00 on a Tuesday morning and serve light refreshments. There is an area to accommodate small children . Sometimes there are organised activities such as crafts. In the afternoon, from 1.15- 2.45 there is a Parent and Carers Toddlers Group during term time. There is also access to Wi Fi. The Warm Welcome Space is open for most weeks of the year, although is closed for some weeks around Christmas, Easter and summer.","hours":{"_text":"Tuesday: 08:30 - 12:00 / 01:15 - 02:45","opening":"Tu 08:30-12:00,01:15-02:45"},"title":"Charles Street Methodist Church"},"type":"Feature"},
		{"geometry":{"coordinates":[-0.96102,53.07466],"type":"Point"},"properties":{"_source":"warm_welcome","address":"Holy Trinity Church, Nottinghamshire NG25 0LD","description":"Open to all for hot drinks, cakes and a lunch","hours":{"_text":"Wednesday: 10:00 - 13:30","opening":"We 10:00-13:30"},"title":"Connections"},"type":"Feature"},
		{"geometry":{"coordinates":[-1.03976,52.91193],"type":"Point"},"properties":{"_source":"warm_welcome","address":"Bingham Road, Cotgrave, Nottinghamshire NG12 3JR","description":"An open time offering homemade soup and sandwiches, hot drinks, board games and conversation","hours":{"_text":"Tuesday: 12:00 - 15:00, Saturday: 10:00 - 13:00","opening":"Tu 12:00-15:00; Sa 10:00-13:00"},"title":"Cotgrave Methodist Church warm welcome space"},"type":"Feature"},
		{"geometry":{"coordinates":[-0.80629,53.07576],"type":"Point"},"properties":{"_source":"warm_welcome","address":"Hope Community Methodist Church, Newark, Nottinghamshire NG24 1PX","description":"This space is open to all but please note we only permit Guide Dogs or Assistance Dogs. We have disabled access and a disabled toilet.","hours":{"_text":"Wednesday: 10:00 - 12:30","opening":"We 10:00-12:30"},"title":"Warm Welcome"},"type":"Feature"},
		{"geometry":{"coordinates":[-0.79277,53.05335],"type":"Point"},"properties":{"_source":"warm_welcome","address":"Mead Way, Nottinghamshire, Nottinghamshire NG24 3HU","description":"A relaxed, friendly space for conversation, jigsaw puzzles and even a game of dominoes should you fancy it! Free hot drinks and toast, often a cake or two. All are welcome.","hours":{"_text":"Monday: 10:00 - 12:00, Friday: 10:00 - 12:00","opening":"Mo 10:00-12:00; Fr 10:00-12:00"},"title":"Warm Welcome Group"},"type":"Feature"},
		{"geometry":{"coordinates":[-0.80052,53.08745],"type":"Point"},"properties":{"_source":"warm_welcome","address":"Wolsey Road, Newark-on-Trent, Nottinghamshire NG24 2AH","description":"Open from 3/11/2022. Parents need to supervise their children. Some toys are available","hours":{"_text":"Thursday: Closed / 10:00 - 12:00"},"title":"Wellspring Baptist Church"},"type":"Feature"},
		{"geometry":{"coordinates":[-0.80653,53.07570],"type":"Point"},"properties":{"_source":"warm_spaces","address":"Hope Community Methodist Church, Barnby Gate, Newark, England, NG24 1PX, United Kingdom","description":"Free Food/Drink, Device Charging, People to chat to, Wheelchair Accessible, Toilets, Accessible Toilet, Child Friendly","hours":{"_text":"Wednesday 9.30am-3pm","opening":"We 09:30-15:00"},"title":"Open Door","url":"https://www.facebook.com/hopecommunitymethodistchurchnewark"},"type":"Feature"},
		{"geometry":{"coordinates":[-1.03931,52.94762],"type":"Point"},"properties":{"_source":"warm_spaces","address":"Shelford Road, Nottingham, England, NG12 2AG, United Kingdom","description":"Free Food/Drink, Free Wi-Fi, Device Charging, People to chat to, Space to work, Wheelchair Accessible, Toilets, Accessible Toilet, Parking, Child Friendly","hours":{"_text":"Friday 12pm-2pm","opening":"Fr 12:00-14:00"},"title":"Radcliffe Methodist Church","url":"https://www.radcliffemethodist.org.uk"},"type":"Feature"},
		{"geometry":{"coordinates":[-0.95733,53.07348],"type":"Point"},"properties":{"_source":"warm_spaces","address":"Southwell Baptist Church, Nottingham Road, Southwell, England, NG25 0LG, United Kingdom","description":"Free Food/Drink, Free Wi-Fi, Device Charging, Advice, People to chat to","hours":{"_text":"Mondays 1pm-3pm","opening":"Mo 13:00-15:00"},"title":"Renew Southwell","url":"https://southwellbaptistchurch.co.uk"},"type":"Feature"},
		{"geometry":{"coordinates":[-0.96122,53.07429],"type":"Point"},"properties":{"_source":"warm_spaces","address":"Holy Trinity Church, Southwell, Westgate, Southwell, England, NG25 0LD, United Kingdom","description":"Free Food/Drink, People to chat to, Games, activities, &amp; friendship","hours":{"_text":"10am-1pm"},"title":"Connections @ Holy Trinity Church Southwell","url":"https://Holytrinitysouthwell.co.uk"},"type":"Feature"}
	]
}
