{
	"type": "FeatureCollection",
	"features": [
		{"geometry":{"coordinates":[-0.79724,53.07262],"type":"Point"},"properties":{"_source":"warm_welcome","address":"1 Charles Street, Charles Street, Newark NG24 1RN","description":"Open from 04/10/22. All are welcome. A small play area for children who must be supervised by parents and carers. Parking is usually possible in the local streets. Limited phone charging facilities.","hours":{"_text":"Tuesday: 08:30 - 13:00","opening":"Tu 08:30-13:00"},"title":"Charles Street Methodist Church"},"type":"Feature"},
		{"geometry":{"coordinates":[-0.79684,53.08981],"type":"Point"},"properties":{"_source":"warm_welcome","address":"Winthorpe Road, Newark-on-Trent, Nottinghamshire NG24 2AA","description":"Open from 3/11/2022. Parents need to supervise their children. Some toys are available","hours":{"_text":"Thursday: 09:00 - 12:00","opening":"Th 09:00-12:00"},"title":"Church of Promise"},"type":"Feature"},
		{"geometry":{"coordinates":[-0.80288,52.94390],"type":"Point"},"properties":{"_source":"warm_welcome","address":"Bottesford Methodist Church, 18 Devon Lane, Bottesford, Nottingham NG13 0BZ","description":"","hours":{"_text":"Wednesday: 10:00 - 15:00","opening":"We 10:00-15:00"},"title":"Churches Together in Bottesford"},"type":"Feature"},
		{"geometry":{"coordinates":[-0.96066,53.07492],"type":"Point"},"properties":{"_source":"warm_welcome","address":"Holy Trinity Church, Westgate, , Southwell , Nottinghamshire NG25 0HQ","description":" Games, activities, friendship and a cuppa. Come and join us for free coffee & cake, a warm bowl of homemade soup and a delicious pud!  Everyone welcome we’d love to see you.","hours":{"_text":"Wednesday: 10:00 - 13:00","opening":"We 10:00-13:00"},"title":"Connections @ Holy Trinity"},"type":"Feature"},
		{"geometry":{"coordinates":[-1.03904,52.94766],"type":"Point"},"properties":{"_source":"warm_welcome","address":"Radcliffe on trent Methodist church, Sheldon Road Radcliffe on trent Nottingham NG12 2AG, Radcliffe, Nottingham NG12 2AG","description":"Open from 02/12/2022. All are welcome Jigsaws, craft table, someone to listen, soup and bread roll, free drinks, biscuits and squash free, good toilets, ","hours":{"_text":"Friday: 11:59 - 13:59","opening":"Fr 11:59-13:59"},"title":"Methodist church radcliffe on trent. Ottingham"},"type":"Feature"},
		{"geometry":{"coordinates":[-0.79113,53.05326],"type":"Point"},"properties":{"_source":"warm_welcome","address":"Mead Way, Newark, Nottinghamshire NG243GA","description":"","hours":{"_text":"Friday: 10:00 - 12:00","opening":"Fr 10:00-12:00"},"title":"Newark Salvation Army"},"type":"Feature"},
		{"geometry":{"coordinates":[-0.96431,53.06579],"type":"Point"},"properties":{"_source":"warm_welcome","address":"Nottingham Road, Southwell, Nottinghamshire NG25 0LG","description":"Open from 31st October 2022. Join us for free tea and coffee, biscuits and a warm welcome - there are craft activities to have a go at, jigsaws and puzzle books, or simply grab a cuppa and have a chat. Everyone is welcome. ","hours":{"_text":"Monday: 13:00 - 15:00","opening":"Mo 13:00-15:00"},"title":"Southwell Baptist Church"},"type":"Feature"},
		{"geometry":{"coordinates":[-0.80653,53.07570],"type":"Point"},"properties":{"_source":"warm_spaces","address":"Hope Community Methodist Church, Barnby Gate, Newark, England, NG24 1PX","hours":{"_text":"Wednesday 9.30am-3pm","opening":"We 09:30-15:00"},"title":"Open Door","url":"https://www.facebook.com/hopecommunitymethodistchurchnewark"},"type":"Feature"},
		{"geometry":{"coordinates":[-1.03931,52.94762],"type":"Point"},"properties":{"_source":"warm_spaces","address":"Shelford Road, Nottingham, England, NG12 2AG","hours":{"_text":"Friday 12pm-2pm","opening":"Fr 12:00-14:00"},"title":"Radcliffe Methodist Church ","url":"https://www.radcliffemethodist.org.uk"},"type":"Feature"},
		{"geometry":{"coordinates":[-0.95733,53.07348],"type":"Point"},"properties":{"_source":"warm_spaces","address":"Southwell Baptist Church, Nottingham Road, Southwell, England, NG25 0LG","hours":{"_text":"Mondays 1pm-3pm","opening":"Mo 13:00-15:00"},"title":"Renew Southwell","url":"https://southwellbaptistchurch.co.uk"},"type":"Feature"},
		{"geometry":{"coordinates":[-0.96122,53.07429],"type":"Point"},"properties":{"_source":"warm_spaces","address":"Holy Trinity Church, Southwell, Westgate, Southwell, England, NG25 0LD","hours":{"_text":"10am-1pm"},"title":"Connections @ Holy Trinity Church Southwell","url":"https://Holytrinitysouthwell.co.uk"},"type":"Feature"}
	]
}
