{
	"type": "FeatureCollection",
	"features": [
		{"geometry":{"coordinates":[-0.97604,51.14964],"type":"Point"},"properties":{"_source":"warm_welcome","address":"Alton Library, Vicarage Hill, Alton GU34 1HT","hours":{"_text":"Monday: 09:30 - 13:30, Tuesday: 09:30 - 17:00, Thursday: 09:30 - 17:00, Friday: 09:30 - 17:00, Saturday: 09:30 - 17:00","opening":"Mo 09:30-13:30; Tu 09:30-17:00; Th 09:30-17:00; Fr 09:30-17:00; Sa 09:30-17:00"},"title":"Alton Library- Hampshire Libraries"},"type":"Feature"},
		{"geometry":{"coordinates":[-0.75252,51.12167],"type":"Point"},"properties":{"_source":"warm_welcome","address":"Beacon Hill URC, Beacon Hill, Surrey GU26 6NL","description":"SPACE OPENING ON 8th January 2024** **Open from 8/1/2024.","hours":{"_text":"Monday: 09:00 - 12:00, Wednesday: 09:00 - 12:00","opening":"Mo 09:00-12:00; We 09:00-12:00"},"title":"Beacon Hill United Reformed Church"},"type":"Feature"},
		{"geometry":{"coordinates":[-0.85888,51.10841],"type":"Point"},"properties":{"_source":"warm_welcome","address":"Bordon Library, Forest Centre, Pinehill Road, Bordon","hours":{"_text":"Monday: 09:30 - 17:00, Tuesday: 09:30 - 17:00, Thursday: 09:30 - 17:00, Saturday: 09:30 - 13:30","opening":"Mo 09:30-17:00; Tu 09:30-17:00; Th 09:30-17:00; Sa 09:30-13:30"},"title":"Bordon Library- Hampshire Libraries"},"type":"Feature"},
		{"geometry":{"coordinates":[-0.72846,51.08781],"type":"Point"},"properties":{"_source":"warm_welcome","address":"91 Weyhill, Haslemere, Surrey GU27 1HP","description":"Haslemere library open to all","hours":{"_text":"Tuesday: 09:30 - 17:00, Wednesday: 09:30 - 17:00, Thursday: 09:30 - 17:00, Friday: 09:30 - 17:00, Saturday: 09:30 - 17:00","opening":"Tu 09:30-17:00; We 09:30-17:00; Th 09:30-17:00; Fr 09:30-17:00; Sa 09:30-17:00"},"title":"Haslemere Library"},"type":"Feature"},
		{"geometry":{"coordinates":[-0.73208,51.08778],"type":"Point"},"properties":{"_source":"warm_welcome","address":"Lion Green, Haslemere, Surrey GU27 1LD","description":"Cafe area plus church space available for anyone Tuesday to Saturday mornings from 10am to 12noon Free breakfast on Wednesdays and Fridays at 9.30am","hours":{"_text":"Tuesday: 10:00 - 12:00, Wednesday: 09:30 - 12:00, Thursday: 10:00 - 12:00, Friday: 09:30 - 12:00, Saturday: 10:00 - 12:00","opening":"Tu 10:00-12:00; We 09:30-12:00; Th 10:00-12:00; Fr 09:30-12:00; Sa 10:00-12:00"},"title":"Haslemere Methodist Church"},"type":"Feature"},
		{"geometry":{"coordinates":[-0.80490,51.12230],"type":"Point"},"properties":{"_source":"warm_welcome","address":"Headley Down Community Church, Bordon, Hampshire GU35 8HU","description":"Church and church hall","hours":{"_text":"Tuesday: 09:30 - 14:30, Wednesday: 13:00 - 15:00, Friday: 10:30 - 12:00","opening":"Tu 09:30-14:30; We 13:00-15:00; Fr 10:30-12:00"},"title":"Headley Down Community Church hall"},"type":"Feature"},
		{"geometry":{"coordinates":[-0.80140,51.07830],"type":"Point"},"properties":{"_source":"warm_welcome","address":"Liphook Library, 12B London Road, Liphook","hours":{"_text":"Monday: 13:00 - 17:00, Wednesday: 09:30 - 13:30, Friday: 09:30 - 13:30, Saturday: 09:30 - 13:30","opening":"Mo 13:00-17:00; We 09:30-13:30; Fr 09:30-13:30; Sa 09:30-13:30"},"title":"Liphook Library- Hampshire Libraries"},"type":"Feature"},
		{"geometry":{"coordinates":[-0.74206,50.98408],"type":"Point"},"properties":{"_source":"warm_welcome","address":"The Grange, Bepton Road, Midhurst, West Sussex GU29 9HD","hours":{"_text":"Monday: 09:00 - 18:00, Tuesday: 09:00 - 18:00, Wednesday: 09:00 - 18:00, Thursday: 09:00 - 18:00, Friday: 09:00 - 18:00, Saturday: 09:00 - 17:00","opening":"Mo 09:00-18:00; Tu 09:00-18:00; We 09:00-18:00; Th 09:00-18:00; Fr 09:00-18:00; Sa 09:00-17:00"},"title":"Midhurst Library"},"type":"Feature"},
		{"geometry":{"coordinates":[-0.93825,51.00377],"type":"Point"},"properties":{"_source":"warm_welcome","address":"Petersfield Library, 28 The Square, Petersfield GU32 3HH","hours":{"_text":"Monday: 09:30 - 17:00, Tuesday: 09:30 - 17:00, Wednesday: 09:30 - 17:00, Thursday: 09:30 - 13:30, Friday: 09:30 - 17:00, Saturday: 09:30 - 17:00","opening":"Mo 09:30-17:00; Tu 09:30-17:00; We 09:30-17:00; Th 09:30-13:30; Fr 09:30-17:00; Sa 09:30-17:00"},"title":"Petersfield Library- Hampshire Libraries"},"type":"Feature"},
		{"geometry":{"coordinates":[-0.86394,51.11271],"type":"Point"},"properties":{"_source":"warm_welcome","address":"Sacred Heart Catholic Church, Bordon, Hampshire GU35 0AU","description":"The parish is a place of welcome and support.","title":"Sacred Heart Parish Hall"},"type":"Feature"},
		{"geometry":{"coordinates":[-0.93558,51.00166],"type":"Point"},"properties":{"_source":"warm_welcome","address":"20 Dragon Street, Petersfield, East Hampshire GU31 4JJ","description":"Young people 11-18 We are an after school club for local young people. (No parents!) We would love to see you After School, come and visit.","hours":{"_text":"Monday: 15:30 - 17:00, Tuesday: 15:30 - 17:00, Wednesday: 14:30 - 16:00, Thursday: 15:30 - 17:00, Friday: 14:30 - 16:00","opening":"Mo 15:30-17:00; Tu 15:30-17:00; We 14:30-16:00; Th 15:30-17:00; Fr 14:30-16:00"},"title":"The Kings Arms Youth Project"},"type":"Feature"},
		{"geometry":{"coordinates":[-0.97614,51.14963],"type":"Point"},"properties":{"_source":"warm_welcome","address":"The Kings Arms Youth Project, Alton, Hampshire GU34 1HT","description":"Young people 11-18 We are an after school club for local young people. (No parents!) We would love to see you After School, come and visit.","hours":{"_text":"Monday: 15:00 - 16:30, Tuesday: 15:00 - 16:30, Wednesday: 15:00 - 16:30, Thursday: 15:00 - 16:30, Friday: 15:00 - 16:30","opening":"Mo 15:00-16:30; Tu 15:00-16:30; We 15:00-16:30; Th 15:00-16:30; Fr 15:00-16:30"},"title":"The Kings Arms Youth Project"},"type":"Feature"},
		{"geometry":{"coordinates":[-0.86149,51.12218],"type":"Point"},"properties":{"_source":"warm_welcome","address":"The Phoeinx Theatre, Bordon, Hampshire GU35 0LR","hours":{"_text":"Friday: 10:00 - 12:00","opening":"Fr 10:00-12:00"},"title":"The Phoenix Theatre"},"type":"Feature"}
	]
}
