{
	"type": "FeatureCollection",
	"features": [
		{"geometry":{"coordinates":[-0.97753,51.14969],"type":"Point"},"properties":{"_source":"warm_welcome","address":"Alton Community Centre, Amery Street, , Alton GU34 1HN","description":"All are welcome! No judgement, No criteria! We can provide free wi-fi and hot drinks, cup a soups, biscuits etc","hours":{"_text":"Monday: 10:00 - 14:00, Tuesday: 10:00 - 14:00, Wednesday: 10:00 - 14:00, Thursday: 10:00 - 14:00, Friday: 10:00 - 14:00, Saturday: 9:30 - 12:30","opening":"Mo 10:00-14:00; Tu 10:00-14:00; We 10:00-14:00; Th 10:00-14:00; Fr 10:00-14:00; Sa 09:30-12:30"},"title":"Alton Community Centre"},"type":"Feature"},
		{"geometry":{"coordinates":[-0.97604,51.14964],"type":"Point"},"properties":{"_source":"warm_welcome","address":"Alton Library, Vicarage Hill, Alton GU34 1HT","hours":{"_text":"Monday: 09:30 - 13:30, Tuesday: 09:30 - 17:00, Thursday: 09:30 - 17:00, Friday: 09:30 - 17:00, Saturday: 09:30 - 17:00","opening":"Mo 09:30-13:30; Tu 09:30-17:00; Th 09:30-17:00; Fr 09:30-17:00; Sa 09:30-17:00"},"title":"Alton Library- Hampshire Libraries"},"type":"Feature"},
		{"geometry":{"coordinates":[-0.75278,51.12182],"type":"Point"},"properties":{"_source":"warm_welcome","address":"Beacon Hill URC, Churt Road, Beacon Hill, Surrey GU26 6NL","description":"Open from 09/01/2023.","hours":{"_text":"Monday: 09:00 - 12:00, Wednesday: 09:00 - 12:00","opening":"Mo 09:00-12:00; We 09:00-12:00"},"title":"Beacon Hill United Reformed Church"},"type":"Feature"},
		{"geometry":{"coordinates":[-0.85844,51.10839],"type":"Point"},"properties":{"_source":"warm_welcome","address":"Bordon Library, Forest Centre, Pinehill Road, Bordon GU35 0TN","hours":{"_text":"Monday: 09:30 - 17:00, Tuesday: 09:30 - 17:00, Thursday: 09:30 - 17:00, Saturday: 09:30 - 13:30","opening":"Mo 09:30-17:00; Tu 09:30-17:00; Th 09:30-17:00; Sa 09:30-13:30"},"title":"Bordon Library- Hampshire Libraries"},"type":"Feature"},
		{"geometry":{"coordinates":[-0.80208,51.07800],"type":"Point"},"properties":{"_source":"warm_welcome","address":"Liphook Library, 12B London Road, Liphook GU30 7AN","hours":{"_text":"Monday: 13:00 - 17:00, Wednesday: 09:30 - 13:30, Friday: 09:30 - 13:30, Saturday: 09:30 - 13:30","opening":"Mo 13:00-17:00; We 09:30-13:30; Fr 09:30-13:30; Sa 09:30-13:30"},"title":"Liphook Library- Hampshire Libraries"},"type":"Feature"},
		{"geometry":{"coordinates":[-0.74206,50.98408],"type":"Point"},"properties":{"_source":"warm_welcome","address":"The Grange, Bepton Road, Midhurst, West Sussex GU29 9HD","hours":{"_text":"Monday: 09:00 - 18:00, Tuesday: 09:00 - 18:00, Wednesday: 09:00 - 18:00, Thursday: 09:00 - 18:00, Friday: 09:00 - 18:00, Saturday: 09:00 - 17:00","opening":"Mo 09:00-18:00; Tu 09:00-18:00; We 09:00-18:00; Th 09:00-18:00; Fr 09:00-18:00; Sa 09:00-17:00"},"title":"Midhurst Library"},"type":"Feature"},
		{"geometry":{"coordinates":[-0.93772,51.00378],"type":"Point"},"properties":{"_source":"warm_welcome","address":"Petersfield Library, 27 The Square, Petersfield GU32 3HH","hours":{"_text":"Monday: 09:30 - 17:00, Tuesday: 09:30 - 17:00, Wednesday: 09:30 - 17:00, Thursday: 09:30 - 13:30, Friday: 09:30 - 17:00, Saturday: 09:30 - 17:00","opening":"Mo 09:30-17:00; Tu 09:30-17:00; We 09:30-17:00; Th 09:30-13:30; Fr 09:30-17:00; Sa 09:30-17:00"},"title":"Petersfield Library- Hampshire Libraries"},"type":"Feature"},
		{"geometry":{"coordinates":[-0.93558,51.00166],"type":"Point"},"properties":{"_source":"warm_welcome","address":"20 Dragon Street, Petersfield, East Hampshire GU31 4JJ","description":"Young people 11-18 We are an after school club for local young people. (No parents!) We would love to see you After School, come and visit.","hours":{"_text":"Monday: 15:15 - 16:45, Tuesday: 15:15 - 16:55, Wednesday: 14:30 - 16:00, Thursday: 15:15 - 16:45, Friday: 14:30 - 16:00","opening":"Mo 15:15-16:45; Tu 15:15-16:55; We 14:30-16:00; Th 15:15-16:45; Fr 14:30-16:00"},"title":"The Kings Arms youth project"},"type":"Feature"},
		{"geometry":{"coordinates":[-0.70943,51.08755],"type":"Point"},"properties":{"_source":"surrey_county_council_warm_hubs","address":"High St, Haslemere, GU29 9EL","hours":{"_text":"Monday, Wednesday and Friday 13:00 - 15:00","opening":"Mo 13:00-15:00; We 13:00-15:00; Fr 13:00-15:00"},"title":"Haslemere Town Hall"},"type":"Feature"},
		{"geometry":{"coordinates":[-0.70944,51.08755],"type":"Point"},"properties":{"_source":"surrey_county_council_warm_hubs","address":"High St Haslemere, GU29 9EL","hours":{"_text":"Monday and Wednesday from 12pm to 3pm","opening":"Mo 12:00-15:00; We 12:00-15:00"},"title":"Haslemere Town Hall"},"type":"Feature"},
		{"geometry":{"coordinates":[-0.70745,51.09018],"type":"Point"},"properties":{"_source":"surrey_county_council_warm_hubs","address":"78 High St, Haslemere GU27 2LA","hours":{"_text":"Tuesday 14:00 - 16:00","opening":"Tu 14:00-16:00"},"title":"Haslemere Educational Museum"},"type":"Feature"},
		{"geometry":{"coordinates":[-0.71167,51.09325],"type":"Point"},"properties":{"_source":"surrey_county_council_warm_hubs","address":"Tanners Ln, Church Hill, Haslemere GU27 1BW","hours":{"_text":"Thursday 10:00 - 12:00","opening":"Th 10:00-12:00"},"title":"The Link"},"type":"Feature"},
		{"geometry":{"coordinates":[-0.73257,51.08758],"type":"Point"},"properties":{"_source":"surrey_county_council_warm_hubs","address":"5 to 7 Junction Place, Haslemere, GU27 1LE","hours":{"_text":"Tuesday, Wednesday, Thursday, Friday and Saturday from 10am to 12pm","opening":"Tu 10:00-12:00; We 10:00-12:00; Th 10:00-12:00; Fr 10:00-12:00; Sa 10:00-12:00"},"title":"Haslemere Methodist Church"},"type":"Feature"},
		{"geometry":{"coordinates":[-0.73127,51.08751],"type":"Point"},"properties":{"_source":"surrey_county_council_warm_hubs","address":"Lion Green, Haslemere, GU27 1LD","hours":{"_text":"Monday, Tuesday, Wednesday and Friday from 9.30am to 11.30pm","opening":"Mo 09:30-23:30; Tu 09:30-23:30; We 09:30-23:30; Fr 09:30-23:30"},"title":"Haslewey Community Centre"},"type":"Feature"},
		{"geometry":{"coordinates":[-0.70956,51.09091],"type":"Point"},"properties":{"_source":"surrey_county_council_warm_hubs","address":"Fieldway (along the Greensand Way walking route), Haslemere, United Kingdom, GU27 2AX","hours":{"_text":"Thursday 12:00 - 14:00","opening":"Th 12:00-14:00"},"title":"Pathways Community Support"},"type":"Feature"}
	]
}
