{
	"type": "FeatureCollection",
	"features": [
		{"geometry":{"coordinates":[-3.22915,56.62160],"type":"Point"},"properties":{"_source":"perth_and_kinross_council","address":"THRIFTY ONE POP IN CLUB AIRLIE ST ALYTH PH11 8AJ","description":"Warm space/ refreshments","hours":{"_text":"Warm space/ refreshments"},"title":"Thrifty One Community Interest Company"},"type":"Feature"},
		{"geometry":{"coordinates":[-3.32871,56.58849],"type":"Point"},"properties":{"_source":"perth_and_kinross_council","address":"PROCTORS GYM THE HAUGH ASHGROVE ROAD BLAIRGOWRIE PH10 7ER","description":"Warm space/ refreshments for weekly Mantalk group","hours":{"_text":"Warm space/ refreshments for weekly Mantalk group"},"title":"Mantalk"},"type":"Feature"},
		{"geometry":{"coordinates":[-3.46466,56.58139],"type":"Point"},"properties":{"_source":"perth_and_kinross_council","address":"CLUNIE COMMUNITY HALL CLUNIE BLAIRGOWRIE PH10 6RJ","description":"Warm space/ social activities/ refreshments","hours":{"_text":"Warm space/ social activities/ refreshments"},"title":"Clunie Hall Association"},"type":"Feature"},
		{"geometry":{"coordinates":[-3.34014,56.59522],"type":"Point"},"properties":{"_source":"perth_and_kinross_council","address":"HILL CHURCH, KIRK WYND, BLAIRGOWRIE PH10 6HN","description":"Warm space","hours":{"_text":"Warm space"},"title":"Blairgowrie Players"},"type":"Feature"},
		{"geometry":{"coordinates":[-3.50431,56.72352],"type":"Point"},"properties":{"_source":"perth_and_kinross_council","address":"SESSION HOUSE KIRKMICHAEL CHURCH MAIN STREET KIRKMICHAEL PH10 7NT","description":"Warm space","hours":{"_text":"Warm space"},"title":"Kirkmichael Session House"},"type":"Feature"},
		{"geometry":{"coordinates":[-3.32628,56.59574],"type":"Point"},"properties":{"_source":"perth_and_kinross_council","address":"RATTRAY COMMUNITY CONNECT HIGH ST BLAIRGOWRIE PH10 7DG","description":"Warm space/ refreshments for pre school coaching sessions for children and carers - Wednesdays from 3.45pm - 4.45pm","hours":{"_text":"Warm space/ refreshments for pre school coaching sessions for children and carers - Wednesdays from 3.45pm - 4.45pm","opening":"We 15:45-16:45"},"title":"Blairgowrie & Rattray Community Football Club"},"type":"Feature"}
	]
}
