{
	"type": "FeatureCollection",
	"features": [
		{"geometry":{"coordinates":[-1.13368,53.51973],"type":"Point"},"properties":{"_source":"warm_welcome","address":"Civic Quarter Car Park, Doncaster, South Yorkshire DN1 3JH","description":"Open from 01/10/2015. Not Really. We are open for all and where the need be, we shall sign post. Even though we are a christian organisation, our place space welcomes everybody in our community. irrespective of religion, ethnicity or background. We are here to help each other get through this difficult times together","hours":"Tu 09:00-17:00, We 09:00-17:00, Th 09:00-17:00, Fr 09:00-17:00, Sa 09:00-17:00, Su 13:00-19:00","title":"Agape Life Chapel International "},"type":"Feature"},
		{"geometry":{"coordinates":[-1.06054,53.53648],"type":"Point"},"properties":{"_source":"warm_welcome","address":"Armthorpe community Library, Church Street, , Armthorpe,, Doncaster DN3 3AL","description":"We are open to all It's a warm, friendly, inviting space staffed entirely by volunteers. There are opportunities to volunteer or learn in our space and we have links to a large support network","hours":"Mo 10:00-16:00, Tu 10:00-16:00, We 10:00-16:00, Fr 10:00-16:00, Sa 10:00-12:00","title":"Armthorpe Community Library"},"type":"Feature"},
		{"geometry":{"coordinates":[-1.06170,53.53677],"type":"Point"},"properties":{"_source":"warm_welcome","address":"Armthorpe Community Centre, Welfare Park, Church Street, Armthorpe, Doncaster, South Yorkshire DN33AG","description":"","hours":"Mo 09:00-12:00, Tu 18:00-21:00, Sa 09:00-12:00","title":"Armthorpe Parish Council"},"type":"Feature"},
		{"geometry":{"coordinates":[-1.07604,53.50666],"type":"Point"},"properties":{"_source":"warm_welcome","address":"Goodison Boulevard, Cantley, Doncaster DN4 6BT","description":" Please see our Facebook page for more details on events and activities (https://www.facebook.com/groups/1597637983819540) ","hours":"Mo 09:30-18:00, Tu 09:30-16:30, We 09:30-16:30, Th 09:30-16:30, Sa 09:30-12:00","title":"Cantley Community Library"},"type":"Feature"},
		{"geometry":{"coordinates":[-1.13292,53.51981],"type":"Point"},"properties":{"_source":"warm_welcome","address":"Waterdale, Doncaster, South Yorkshire DN1 3BZ","description":"","hours":"Mo 11:00-17:00, Tu 11:00-17:00, We 09:30-16:30, Th 13:00-19:00, Fr 10:00-16:00, Sa 10:00-16:00","title":"Danum Gallery, Library and Museum (DGLAM)"},"type":"Feature"},
		{"geometry":{"coordinates":[-1.12696,53.52157],"type":"Point"},"properties":{"_source":"warm_welcome","address":"The Point, 16 South Parade, Doncaster DN1 2DR","description":"We are open to all The Point is open to everyone and has a welcoming cafe and free exhibitions in our gallery. We have comfy sofas and quiet spaces to sit plus we run creative activities. We are Dementia Friendly and have a fully accessible building.","hours":"Mo 10:00-16:00, Tu 10:00-19:00, We 10:00-19:00, Th 10:00-19:00, Fr 10:00-16:00","title":"darts"},"type":"Feature"},
		{"geometry":{"coordinates":[-1.13469,53.52604],"type":"Point"},"properties":{"_source":"warm_welcome","address":"Doncaster Minster, Church Street, Doncaster DN1 1RD","description":"","hours":"Mo 10:30-15:00, Tu 10:30-15:00, We 10:30-15:00, Th 10:30-15:00, Fr 10:30-15:00, Sa 10:30-13:30","title":"Doncaster Minster"},"type":"Feature"}