{
	"type": "FeatureCollection",
	"features": [
		{"geometry":{"coordinates":[-1.37979,54.90661],"type":"Point"},"properties":{"_source":"warm_welcome","address":"River Wear Commissioners Building, City Centre, Sunderland SR1 1NW","description":"Open from 03/10/2022. We have no exclusions We are offering hot drinks, soup and snacks. We have one main large warm space and also other rooms if we have an influx of people. In these rooms we provide books for Adults/Children and we have paper pens and internet access for anyone wishing to use ","hours":"Mo 12:00-20:00, Tu 12:00-15:00, We 12:00-20:00, Th 12:00-15:00, Fr 12:00-20:00, Sa 00:00-00:00, Su 00:00-00:00","title":"I.M.P.A.C.T Northeast"},"type":"Feature"},
		{"geometry":{"coordinates":[-1.40581,54.92089],"type":"Point"},"properties":{"_source":"warm_welcome","address":"Holy Trinity Church, Church Bank, , Sunderland, Tyne and Wear SR5 2DU","description":"","hours":"Tu 16:00-19:00, Fr 10:00-14:30, Su 09:45-11:45","title":"Parish of North Wearside"},"type":"Feature"},
		{"geometry":{"coordinates":[-1.36988,54.90872],"type":"Point"},"properties":{"_source":"warm_welcome","address":"Sunderland Mind Wellbeing Hub, Sunderland, Tyne and Wear SR1 2BB","description":"","hours":"Mo 10:00-16:00, Tu 10:00-18:00, We 10:00-18:00, Th 10:00-18:00, Fr 10:00-15:00","title":"Sunderland Mind"},"type":"Feature"},
		{"geometry":{"coordinates":[-1.40045,54.92224],"type":"Point"},"properties":{"_source":"warm_welcome","address":"Austin House Family centre, Shakespeare street, Southwick, Sunderland, Tyne and wear SR5 2JX","description":"","hours":"Mo 09:00-12:00, Tu 09:00-12:00, We 09:00-12:00, Th 09:00-12:00, Fr 09:00-12:00","title":"The Salvation Army"},"type":"Feature"}
	]
}
