{
	"type": "FeatureCollection",
	"features": [
		{"geometry":{"coordinates":[-1.21683,54.57819],"type":"Point"},"properties":{"_source":"warm_welcome","address":"Riverside Stadium, Middlesbrough, Teesside TS3 6RS","description":"Open from 08-11-2022. Tuesdays - Riverside Stadium, TS3 6RS Wednesdays - Herlingshaw Centre, TS6 9AE","hours":"Tu 10:00-12:00; We 16:00-18:00","title":"Middlesbrough FC Foundation"},"type":"Feature"},
		{"geometry":{"coordinates":[-1.31058,54.58453],"type":"Point"},"properties":{"_source":"warm_welcome","address":"397- 399 Norton Methodist Church, Norton, cleveland TS20 2QQ","description":"Open from 04/11/22.","hours":"Fr 12:30-15:30","title":"norton methodist church"},"type":"Feature"},
		{"geometry":{"coordinates":[-1.28296,54.61123],"type":"Point"},"properties":{"_source":"warm_welcome","address":"St Columba's URC, Marsh House Avenue, Billingham, Teeside TS23 3AB","description":" A bowl of soup, A cup of tea and a warm place to sit. No charge","hours":"Tu 11:00-15:00; Fr 11:00-15:00","title":"St Columba's URC"},"type":"Feature"},
		{"geometry":{"coordinates":[-1.34570,54.58582],"type":"Point"},"properties":{"_source":"warm_welcome","address":"St Andrew's Methodist Church Hardwick Road, Stockton on Tees, Durham TS19 8PH","description":"WE have a community Larder at same time and also a book exchange","hours":"We 11:00-13:30","title":"Stockton Hope at St Andrew's Methodist Church"},"type":"Feature"},
		{"geometry":{"coordinates":[-1.06544,54.61894],"type":"Point"},"properties":{"_source":"warm_welcome","address":"28-29 Esplanade, Redcar, North Yorkshire TS10 3AE","description":"Open from 17/05/2021. We are in the process of setting up a cinema room for the public to come in and watch a movie free of charge.","hours":"Tu 10:00-16:00; We 10:00-16:00; Th 10:00-16:00; Fr 10:00-16:00; Sa 10:00-16:00","title":"Tees Valley Arts"},"type":"Feature"},
		{"geometry":{"coordinates":[-1.23539,54.57807],"type":"Point"},"properties":{"_source":"warm_welcome","address":"Dunsdas House, Middlesbrough, Middlesbrough TS1 1JA","description":"Open from 04/11/2022. All inclusive - everyone welcome Last Friday of Every Month - extra refreshements, service provider info sessions and signposting, seated exercise sessions.","hours":"Fr 10:00-14:00","title":"The Live Well Centre"},"type":"Feature"},
		{"geometry":{"coordinates":[-1.22357,54.67947],"type":"Point"},"properties":{"_source":"warm_spaces","address":"143 Elwick Road, Hartlepool, England, TS26 9JF","title":"Stranton Church and St Matthew's","url":"https://en-gb.facebook.com/StMatthewsCommunityCentre/"},"type":"Feature"},
		{"geometry":{"coordinates":[-1.32791,54.57535],"type":"Point"},"properties":{"_source":"warm_spaces","address":"Durham Road, Stockton-on-Tees, England, TS19 0DZ","title":"St John the Baptist Church","url":"https://en-gb.facebook.com/christchurchstockton/"},"type":"Feature"},
		{"geometry":{"coordinates":[-1.33908,54.58874],"type":"Point"},"properties":{"_source":"warm_spaces","address":"110 Ragpath Lane, Stockton-on-Tees, England, TS19 9AY","title":"St Chad's Church","url":"https://en-gb.facebook.com/christchurchstockton/"},"type":"Feature"},
		{"geometry":{"coordinates":[-1.27131,54.70880],"type":"Point"},"properties":{"_source":"warm_spaces","address":"St Mary Magdalene Church, Hart Village , Hartlepool, England, TS27 3AP","title":"Hart Church","url":"https://hartchurch.org"},"type":"Feature"},
		{"geometry":{"coordinates":[-1.31493,54.76389],"type":"Point"},"properties":{"_source":"durham_county_council","address":"Seventh Street, Horden, County Durham, SR8 4LX","contact":"Telephone: 0191 587 3123 Email: michael.fishwick@yahoo.co.uk","title":"Horden Centennial Centre","url":"https://www.durhamlocate.org.uk"},"type":"Feature"},
		{"geometry":{"coordinates":[-1.38736,54.75786],"type":"Point"},"properties":{"_source":"durham_county_council","address":"Shotton Community Hub, Bridge Road, Shotton Colliery, County Durham, DH6 2PQ","contact":"Telephone: 0191 5264213 0191 5208110 Email: dbrookssp2000@yahoo.co.uk","title":"Shotton Partnership 2000 Ltd","url":"https://www.durhamlocate.org.uk"},"type":"Feature"},
		{"geometry":{"coordinates":[-1.31734,54.77076],"type":"Point"},"properties":{"_source":"durham_county_council","address":"East Durham Partnership, 1 Kilburn Drive, Seaview Industrial Estate, Horden, County Durham, SR8 4TQ","contact":"Telephone: 0191 586 8493 Email: admin@eastdurhampartnership.co.uk","title":"East Durham Partnership (EDP) Support Services","url":"https://www.durhamlocate.org.uk"},"type":"Feature"},
		{"geometry":{"coordinates":[-1.29042,54.74677],"type":"Point"},"properties":{"_source":"durham_county_council","address":"Hesleden Road, Blackhall, Hartlepool, Cleveland, TS27 4LG","contact":"Telephone: 0191 586 7396 Email: reception.blackhallcommunity@gmail.com","title":"Blackhall Community Centre (the old Miners Welfare)","url":"https://www.durhamlocate.org.uk"},"type":"Feature"},
		{"geometry":{"coordinates":[-1.31493,54.76389],"type":"Point"},"properties":{"_source":"durham_county_council","address":"Horden Social Welfare Centre, Seventh Street, Horden, Peterlee, County Durham, SR8 4LX","contact":"Telephone: 0191 518 0823 Email: hordencouncil@btconnect.com","title":"Horden Social Welfare Centre","url":"https://www.durhamlocate.org.uk"},"type":"Feature"},
		{"geometry":{"coordinates":[-1.32082,54.76665],"type":"Point"},"properties":{"_source":"durham_county_council","address":"Horden Library, Sunderland Road, Horden, Peterlee, County Durham, SR8 4PF","contact":"Telephone: 03000 269 507 Email: horden.library@durham.gov.uk","title":"Horden Library","url":"https://www.durhamlocate.org.uk"},"type":"Feature"},
		{"geometry":{"coordinates":[-1.38754,54.76158],"type":"Point"},"properties":{"_source":"durham_county_council","address":"Shotton Library, Co-operative Terrace, Shotton Colliery, County Durham, DH6 2LW","contact":"Telephone: 03000 269 510 Email: shotton.lib@durham.gov.uk","title":"Shotton Library","url":"https://www.durhamlocate.org.uk"},"type":"Feature"},
		{"geometry":{"coordinates":[-1.37932,54.72577],"type":"Point"},"properties":{"_source":"durham_county_council","address":"Wingate Library, Front Street, Wingate, County Durham, TS28 5AA","contact":"Telephone: 03000 269 523 Email: wingate.lib@durham.gov.uk","title":"Wingate Library","url":"https://www.durhamlocate.org.uk"},"type":"Feature"},
		{"geometry":{"coordinates":[-1.28979,54.74726],"type":"Point"},"properties":{"_source":"durham_county_council","address":"Blackhall Library, Back Middle Street, Blackhall, Hartlepool, County Durham, TS27 4HD","contact":"Telephone: 03000 269 505 Email: blackhall.lib@durham.gov.uk","title":"Blackhall Library","url":"https://www.durhamlocate.org.uk"},"type":"Feature"},
		{"geometry":{"coordinates":[-1.33643,54.75680],"type":"Point"},"properties":{"_source":"durham_county_council","address":"Peterlee Library, Peterlee Leisure Centre, St Cuthberts Way, Peterlee, County Durham, SR8 1AF","contact":"Telephone: 03000 269 509 Email: peterlee.lib@durham.gov.uk","title":"Peterlee Library","url":"https://www.durhamlocate.org.uk"},"type":"Feature"},
		{"geometry":{"coordinates":[-1.38208,54.73160],"type":"Point"},"properties":{"_source":"durham_county_council","address":"Wingate Community Centre, Wingate, County Durham, TS28 5LQ","contact":"Telephone: 01429 836 092 Email: joyce.collins44@yahoo.co.uk","title":"Wingate Community Centre","url":"https://www.durhamlocate.org.uk"},"type":"Feature"},
		{"geometry":{"coordinates":[-1.31267,54.76320],"type":"Point"},"properties":{"_source":"durham_county_council","address":"Salvation Army, Dene Street, Horden, County Durham, SR8 4JY","contact":"Telephone: 07464 486 997 Email: angela.denton@salvationarmy.org.uk","title":"Horden Salvation Army","url":"https://www.durhamlocate.org.uk"},"type":"Feature"},
		{"geometry":{"coordinates":[-1.38176,54.72170],"type":"Point"},"properties":{"_source":"durham_county_council","address":"Bowls Pavilion, Welfare Park, Wingate, County Durham, TS28 5AL","contact":"Telephone: 0191 527 2582 Email: wingateparish@gmail.com","title":"Wingate Parish Council","url":"https://www.durhamlocate.org.uk"},"type":"Feature"},
		{"geometry":{"coordinates":[-1.23367,54.57425],"type":"Point"},"properties":{"_source":"middlesbrough_council","address":"Centre Square, Middlesbrough, TS1 2AY *","hours":"Mo-Sa 09:30-12:00,13:00-17:00","title":"Central Library"},"type":"Feature"},
		{"geometry":{"coordinates":[-1.23784,54.57339],"type":"Point"},"properties":{"_source":"middlesbrough_council","address":"131-133 Linthorpe Road, Middlesbrough, TS1 5DE *","hours":"Tu 14:00-16:00; Th 14:00-16:00","title":"Fork in the Road"},"type":"Feature"},
		{"geometry":{"coordinates":[-1.23587,54.57748],"type":"Point"},"properties":{"_source":"middlesbrough_council","address":"Dundas Shopping Centre, Dundas Street, Middlesbrough, TS1 1HR *","hours":"Fr 10:00-14:00","title":"Live Well Centre Middlesbrough"},"type":"Feature"},
		{"geometry":{"coordinates":[-1.23410,54.58352],"type":"Point"},"properties":{"_source":"middlesbrough_council","address":"North Street, Middlesbrough, TS2 1JP *","hours":"Mo-Th 09:00-14:30","title":"MyPlace"},"type":"Feature"},
		{"geometry":{"coordinates":[-1.21789,54.57803],"type":"Point"},"properties":{"_source":"middlesbrough_council","address":"Media Suite, Riverside Stadium, Middlesbrough, TS3 6RS *","title":"Riverside Stadium - Media Suite"},"type":"Feature"}
	]
}
