{
	"type": "FeatureCollection",
	"features": [
		{"geometry":{"coordinates":[-1.34759,54.53107],"type":"Point"},"properties":{"_source":"warm_welcome","address":"https://allsaints-church.net/, 22 Dunottar Avenue, Preston On Tees TS16 0AB","description":"Open from 29-11-2022. Every monday we run a free cafe which is ongoing. The Tuesday sessions are within the date frame given but are likely to be extended. We are runnign in partnership with the Locomotion pub which is open Wed, Thurs, Fri with free hot drinks.","hours":"Mo 09:30-11:30; Tu 10:00-12:00","title":"All Saints Church Preston On Tees"},"type":"Feature"},
		{"geometry":{"coordinates":[-1.31628,54.56432],"type":"Point"},"properties":{"_source":"warm_welcome","address":"Dovecot Street, Stockton on Tees, Tees Valley TS18 1LL","description":" We have a caf√© on the ground floor, but everyone is welcome to make use of the seating areas on the first floor and in the Gallery (second floor) of ARC, with no need to buy anything. ","hours":"Mo 12:00-16:00; Tu 10:00-18:00; We 10:00-21:00; Th 10:00-21:00; Fr 10:00-21:00; Sa 10:00-21:00","title":"ARC Stockton"},"type":"Feature"},
		{"geometry":{"coordinates":[-1.13420,54.48848],"type":"Point"},"properties":{"_source":"warm_welcome","address":"105b High Street , Great Ayton , North Yorkshire TS9 6NY","description":" We are a community hub that is also a library. We also sell art,crafts and second hand books.","hours":"Tu 10:00-16:00; We 10:00-16:00; Th 10:00-16:00; Fr 10:00-16:00; Sa 10:00-13:00","title":"Great Ayton Discovery Centre"},"type":"Feature"},
		{"geometry":{"coordinates":[-1.19765,54.53142],"type":"Point"},"properties":{"_source":"warm_welcome","address":"7 The Willows, Marton, Middlesbrough TS7 8BL","description":"Open from 11/11/2022.","hours":"Mo 09:30-12:00; Th 09:30-12:00; Fr 09:30-12:00; Sa 09:30-12:30","title":"Marton Community Hub & Library"},"type":"Feature"},
		{"geometry":{"coordinates":[-1.16647,54.56890],"type":"Point"},"properties":{"_source":"warm_welcome","address":"Herlingshaw Centre, , Normanby Road, Middlesbrough, England TS6 9AE","description":"Open from 09/11/2022.","hours":"We 16:00-18:00","title":"MFC Foundation "},"type":"Feature"},
		{"geometry":{"coordinates":[-1.22665,54.55895],"type":"Point"},"properties":{"_source":"warm_welcome","address":"Grove Hill Community Hub , Middlesbrough Council , Middlesbrough Ts4 2RP","description":"","hours":"Mo 09:00-16:00; Tu 09:00-16:00; We 09:00-16:00; Th 09:00-16:00; Fr 09:00-16:00","title":"Middlesbrough Council"},"type":"Feature"},
		{"geometry":{"coordinates":[-1.26226,54.55598],"type":"Point"},"properties":{"_source":"warm_welcome","address":"2-10 Whinney Banks Road , Middlesbrough , Teesside TS5 4LB","hours":"We 10:00-12:00","title":"St Martins Church"},"type":"Feature"},
		{"geometry":{"coordinates":[-1.33078,54.57031],"type":"Point"},"properties":{"_source":"warm_welcome","address":"St Paul's Church, Bishopton Road, Stockton on Tees TS18 4PB","description":"Tuesday is only for children and parents/guardians Tuesdays is Toddler morning - come and bring your little ones! Wednesday is open to all for coffee and a warm place. Thursday is Board Games Day - Bring a game or play one of ours!","hours":"Tu 10:00-11:30; We 10:00-12:00; Sa 10:00-12:00; Su 10:30-12:30","title":"St Paul's Church Stockton-on-Tees"},"type":"Feature"},
		{"geometry":{"coordinates":[-1.31290,54.56178],"type":"Point"},"properties":{"_source":"warm_welcome","address":"High Street, Stockton On Tees, Stockton on Tees TS18 1SP","description":" You are really welcome here","hours":"We 12:00-16:00; Su 10:15-12:30","title":"Stockton Parish Church"},"type":"Feature"},
		{"geometry":{"coordinates":[-1.23669,54.57064],"type":"Point"},"properties":{"_source":"warm_welcome","address":"Southfield Road, Middlesbrough, North Yorkshire TS1 3BX","description":"We only cater for Teesside University Students and Staff","hours":"Mo 00:00-23:59; Tu 00:00-23:59; We 00:00-23:59; Th 00:00-23:59; Fr 00:00-23:59; Sa 00:00-23:59; Su 00:00-23:59","title":"Teesside University"},"type":"Feature"},
		{"geometry":{"coordinates":[-1.31787,54.56490],"type":"Point"},"properties":{"_source":"warm_welcome","address":"The Salvation Army, Palmerston Street, Stockton on Tees TS18 1NU","description":"Open from 24-10-2022.","hours":"Mo 09:00-12:00; Tu 09:00-12:00","title":"The Salvation Army "},"type":"Feature"},
		{"geometry":{"coordinates":[-1.24271,54.56976],"type":"Point"},"properties":{"_source":"warm_welcome","address":"49 Clifton Street, Middlesbrough, North East TS1 4BX","description":"","hours":"We 11:00-15:00; Fr 11:00-15:00","title":"Ubuntu Multicultural Centre CIC"},"type":"Feature"},
		{"geometry":{"coordinates":[-1.25930,54.54837],"type":"Point"},"properties":{"_source":"middlesbrough_council","address":"Acklam Road, Middlesbrough, TS5 7AB *","hours":"Mo 09:30-12:00; Tu 09:30-12:00; Th 09:30-12:00; Fr 09:30-12:00; Sa 09:30-12:30","title":"Acklam Community Hub and Library"},"type":"Feature"},
		{"geometry":{"coordinates":[-1.22146,54.56938],"type":"Point"},"properties":{"_source":"middlesbrough_council","address":"Breckon Hill Road, Middlesbrough, TS4 2DS *","title":"Breckon Hill Community Centre"},"type":"Feature"},
		{"geometry":{"coordinates":[-1.22750,54.56893],"type":"Point"},"properties":{"_source":"middlesbrough_council","address":"169 Victoria Road, Middlesbrough, TS1 3HR *","hours":"Mo 11:00-15:00; We 11:00-15:00; Fr 11:00-15:00","title":"Community Information and BME Network CIC"},"type":"Feature"},
		{"geometry":{"coordinates":[-1.21637,54.54304],"type":"Point"},"properties":{"_source":"middlesbrough_council","address":"Broughton Avenue, Middlesbrough, TS4 3PZ *","hours":"Tu 09:00-17:00; Th 09:00-17:00; Fr 09:00-17:00","title":"Easterside Community Hub and Library"},"type":"Feature"},
		{"geometry":{"coordinates":[-1.22657,54.55900],"type":"Point"},"properties":{"_source":"middlesbrough_council","address":"Bishopton Road, Middlesbrough, TS4 2RP *","hours":"Mo 09:00-17:00; We 09:00-17:00; Fr 09:00-17:00","title":"Grove Hill Community Hub and Library"},"type":"Feature"},
		{"geometry":{"coordinates":[-1.24082,54.52507],"type":"Point"},"properties":{"_source":"middlesbrough_council","title":"Hemlington Community Hub and Library"},"type":"Feature"},
		{"geometry":{"coordinates":[-1.19781,54.53137],"type":"Point"},"properties":{"_source":"middlesbrough_council","address":"The Willows, Marton-in-Cleveland, Middlesbrough, TS7 8BL *","hours":"Mo 09:30-12:00; Th 09:30-12:00; Fr 09:30-12:00; Sa 09:30-12:30","title":"Marton Community Hub and Library"},"type":"Feature"},
		{"geometry":{"coordinates":[-1.24684,54.57106],"type":"Point"},"properties":{"_source":"middlesbrough_council","address":"St. Paul's Road, Middlesbrough, TS1 5NQ *","hours":"Mo-Th 09:00-16:30","title":"Newport Community Hub"},"type":"Feature"},
		{"geometry":{"coordinates":[-1.21137,54.57111],"type":"Point"},"properties":{"_source":"middlesbrough_council","address":"Derwent Street, North Ormesby, Middlesbrough, TS3 6JB *","hours":"Tu 09:00-17:00; Th 09:00-17:00; Fr 09:00-17:00; Sa 09:00-12:30","title":"North Ormesby Community Hub and Library"},"type":"Feature"},
		{"geometry":{"coordinates":[-1.23607,54.56999],"type":"Point"},"properties":{"_source":"middlesbrough_council","address":"Southfield Road, Middlesbrough, TS1 3BX *","title":"Teesside University Library"},"type":"Feature"},
		{"geometry":{"coordinates":[-1.18194,54.56302],"type":"Point"},"properties":{"_source":"middlesbrough_council","address":"Birkhall Road, Middlesbrough, TS3 9JW *","hours":"Mo-Fr 09:00-17:00","title":"Thorntree Community Hub and Library"},"type":"Feature"},
		{"geometry":{"coordinates":[-1.24292,54.56979],"type":"Point"},"properties":{"_source":"middlesbrough_council","address":"49 Clifton Street, Middlesbrough, TS1 4BX *","title":"Ubuntu Multicultural Centre CIC"},"type":"Feature"}
	]
}
