{
	"type": "FeatureCollection",
	"features": [
		{"geometry":{"coordinates":[-1.39498,54.09501],"type":"Point"},"properties":{"_source":"warm_welcome","address":"17, Boroughbridge, North Yorkshire YO51 9AR","description":"Our focus is older people. Board Games, books, puzzles and a warm welcome","hours":"Mo 09:30-12:30; Tu 09:30-12:30","title":"Boroughbridge & District Community Care"},"type":"Feature"},
		{"geometry":{"coordinates":[-1.07257,53.97657],"type":"Point"},"properties":{"_source":"warm_welcome","address":"187 -189 Huntington Rd, York, York YO31 9BP","description":"We cater for all. A full cafe is open on Tuesday and Wednesday and on Monday the cafe space is available. People do work in here with laptops and we have disabled access and toilets. We have a car park with free parking to building users and a bike shelter. ","hours":"Mo 09:30-16:00; Tu 09:30-16:00; We 09:30-16:00","title":"Living Word Church"},"type":"Feature"},
		{"geometry":{"coordinates":[-1.08531,53.96157],"type":"Point"},"properties":{"_source":"warm_welcome","address":"York Theatre Royal, St. Leonard's Place, York, North Yorkshire YO1 7HD","description":" Our caf√© is open from 10am - 4.30pm where you can purchase hot drinks, homemade pastries, and brownies, or hot food between 10am - 3pm.","hours":"Mo 10:00-17:00; Tu 10:00-20:00; We 10:00-20:00; Th 10:00-20:00; Fr 10:00-20:00; Sa 10:00-20:00","title":"York Theatre Royal"},"type":"Feature"},
		{"geometry":{"coordinates":[-1.08006,53.95992],"type":"Point"},"properties":{"_source":"warm_spaces","address":"3-4 King&#39;s Square, York, England, YO1 8BH","title":"Duke of York","url":"https://lbdukeofyork.co.uk"},"type":"Feature"},
		{"geometry":{"coordinates":[-1.39511,54.09286],"type":"Point"},"properties":{"_source":"warm_spaces","address":"Church Lane, York, England, YO51 9BA","title":"St James Church Boroughbridge","url":"https://boroughbridgechurches.uk"},"type":"Feature"}
	]
}
