{
	"type": "FeatureCollection",
	"features": [
		{"geometry":{"coordinates":[-1.12882,53.95416],"type":"Point"},"properties":{"_source":"warm_welcome","address":"Front Street, Acomb, York YO24 3BX","description":" Open Fridays (term-time only). A family-friendly community space. Free entry, with low-cost refreshments available. Toys and high chairs for small children; free WiFi and possibilities to charge devices.","hours":"Fr 10:00-13:30","title":"Acomb Methodist Church"},"type":"Feature"},
		{"geometry":{"coordinates":[-1.07609,53.78816],"type":"Point"},"properties":{"_source":"warm_welcome","address":"The Coultish Centre, 96 Charles St,, Selby, North Yorkshire YO8 4YQ","description":" A warm welcome and great value homecooked meals - 2 courses for Â£4","hours":"Mo 09:00-15:00","title":"Charles Street Social Cafe"},"type":"Feature"},
		{"geometry":{"coordinates":[-1.12715,53.95449],"type":"Point"},"properties":{"_source":"warm_welcome","address":"The Gateway Centre, Front Street, Acomb, YORK YO24 3BZ","description":" There is limited parking at the Gateway Centre which is reserved for staff and those who are disabled. However, Morrisons is just across the road and you can park in there free of charge.","hours":"Mo 10:00-14:00; Tu 10:00-14:00; We 10:00-14:00","title":"Gateway Church York"},"type":"Feature"},
		{"geometry":{"coordinates":[-1.06833,53.78489],"type":"Point"},"properties":{"_source":"warm_welcome","address":"52 Micklegate, Selby, North Yorkshire YO8 4EQ","description":"","hours":"Mo 09:30-19:30; Tu 09:30-17:30; We 09:30-17:30; Th 09:30-12:30; Fr 09:30-17:30; Sa 09:30-12:30","title":"Selby Library "},"type":"Feature"},
		{"geometry":{"coordinates":[-1.25216,53.79910],"type":"Point"},"properties":{"_source":"warm_welcome","address":"Sherburn & Villages Community Library, Finkle Hill, , Sherburn in Elmet, North Yorkshire LS25 6EA","description":"Open from 01-11-2022. We are opening on Wednesdays, not to lend books, but to open a warm friendly safe space for people to meet, have a chat and a hot drink. Activities and events will be scheduled on Wednesdays shortly. A warm welcome is always available Mon to Fri.","hours":"Mo 09:30-17:00; Tu 09:30-17:00; We 10:00-16:00; Th 09:30-17:00; Fr 09:30-13:00; Sa 09:30-12:30","title":"Sherburn and Villages Community Library"},"type":"Feature"},
		{"geometry":{"coordinates":[-1.08499,53.94920],"type":"Point"},"properties":{"_source":"warm_welcome","address":"97 Bishopthorpe Road, York, North Yorkshire YO23 1NX","description":" A warm space on a Thursday morning, alongside Planet Food's zero-waste cafe, where you can get pay-as-you-feel meals and groceries. On Saturdays we offer low-cost refreshments and a chance to see some of the artwork of the Southbank Studios artists.","hours":"Th 10:30-14:00; Sa 10:00-12:00","title":"Southlands Methodist Church"},"type":"Feature"},
		{"geometry":{"coordinates":[-1.38852,53.93262],"type":"Point"},"properties":{"_source":"warm_welcome","address":"Barleyfields Centre, Barleyfields Road, Wetherby, Yorkshire LS22 6PN","description":"","hours":"Tu 10:00-11:30; Fr 10:00-11:30; Sa 10:30-12:30","title":"Wetherby and District Foodbank"},"type":"Feature"},
		{"geometry":{"coordinates":[-1.25113,53.79824],"type":"Point"},"properties":{"_source":"warm_spaces","address":"Sherburn &amp; Villages Community Library, Finkle Hill, Leeds, England, LS25 6EA","title":"Sherburn &amp; Villages Community Library","url":"http://sherburninelmetcommunitytrust.co.uk/warm-welcome-space-sherburn-in-elmet/"},"type":"Feature"}
	]
}
