{
	"type": "FeatureCollection",
	"features": [
		{"geometry":{"coordinates":[-1.13967,53.55523],"type":"Point"},"properties":{"_source":"warm_welcome","address":"The Avenue, Bentley, Doncaster DN5 0NP","description":"","hours":"Mo 09:00-17:00; Tu 09:00-17:00; We 09:00-17:00; Th 09:00-17:00; Fr 09:00-16:00","title":"Bentley Family Hub"},"type":"Feature"},
		{"geometry":{"coordinates":[-1.35675,53.71971],"type":"Point"},"properties":{"_source":"warm_welcome","address":"Beancroft Street, Castleford, West Yorkshire WF10 5RR","description":"Open from 11/11/22. Grab a comfy chair and a brew, read a paper/magazine, access free wi-fi, light lunch served from 12pm","hours":"Fr 10:00-14:00","title":"Five Towns Christian Fellowship"},"type":"Feature"},
		{"geometry":{"coordinates":[-1.38230,53.57550],"type":"Point"},"properties":{"_source":"warm_welcome","address":"The Acorn Centre, High Street, Grimethorpe, Barnsley S72 7BB","description":"","hours":"Mo 09:00-13:00; Tu 09:00-13:00; We 09:00-13:00; Th 09:00-13:00; Fr 09:00-13:00","title":"Grimethorpe Library - Barnsley Libraries"},"type":"Feature"},
		{"geometry":{"coordinates":[-1.08661,53.54202],"type":"Point"},"properties":{"_source":"warm_welcome","address":"Unit12 Shaw Wood Way , Doncaster DN2 5TB","description":"","hours":"Tu 08:30-14:00; We 08:30-14:00; Th 08:30-14:00; Su 11:00-02:00","title":"Legacy Church "},"type":"Feature"},
		{"geometry":{"coordinates":[-1.30518,53.69393],"type":"Point"},"properties":{"_source":"warm_welcome","address":"Micklegate, Pontefract, West Yorkshire WF8 1QG","description":"Open from 24/11/2022.","hours":"Th 10:00-14:30","title":"Pontefract Methodist Church"},"type":"Feature"},
		{"geometry":{"coordinates":[-1.14867,53.55427],"type":"Point"},"properties":{"_source":"warm_welcome","address":"127 Askern Road, Bentley, Doncaster DN5 0GH","description":"Renew 127 is a place where everyone is welcome and it's okay not to be okay","hours":"Mo 10:00-14:00; We 10:00-14:00; Fr 10:00-14:00","title":"Renew 127 (Wellbeing Centre)"},"type":"Feature"},
		{"geometry":{"coordinates":[-1.31132,53.69132],"type":"Point"},"properties":{"_source":"warm_welcome","address":"St Giles Church Market Place, Pontefract, West Yorkshire WF8 4AT","description":"Open from Not decided. We are open specifically As a warm space on Thursday 12.00 noon to 2.00pm when tea, coffee, biscuits and soup are available. ","title":"St Giles Church, Pontefract"},"type":"Feature"},
		{"geometry":{"coordinates":[-1.07175,53.55617],"type":"Point"},"properties":{"_source":"warm_welcome","address":"The Church of the Good Shepherd, Church Balk, Edenthorpe, Doncaster DN3 2PP","description":"","hours":"We 14:00-16:00; Su 10:30-12:30","title":"The Church of the Good Shepherd, Kirk Sandall & Edenthorpe"},"type":"Feature"},
		{"geometry":{"coordinates":[-1.30853,53.54484],"type":"Point"},"properties":{"_source":"warm_welcome","address":"Thurnscoe Family Centre, Station Road, Thurnscoe, Rotherham S63 OJR","description":"","hours":"Th 15:30-19:00","title":"Thurnscoe Family Centre"},"type":"Feature"},
		{"geometry":{"coordinates":[-1.31141,53.54439],"type":"Point"},"properties":{"_source":"warm_welcome","address":"Shepherd Lane, Thurnscoe, Rotherham S63 0JS","description":" We have regular activities every week including Story & Rhyme sessions, Lego Club, Employment Support as well as a range of children and adult activities and school holiday activities. Details on our website","hours":"Mo 10:00-13:00; Tu 10:00-13:00; Th 10:00-13:00; Fr 10:00-13:00; Sa 09:30-12:30","title":"Thurnscoe Library - Barnsley Libraries"},"type":"Feature"},
		{"geometry":{"coordinates":[-1.28301,53.61342],"type":"Point"},"properties":{"_source":"warm_welcome","address":"High Street, Upton, Pontefract WF9 1HQ","description":"Open from 01/11/22. Sessions on Monday, Thursday and Friday morning are held at the Library. All others are held at the Village Hall. Sessions supported by Upton Parish Council, UNEF, Friends of the Community and Upton Methodist Church. ","hours":"Tu 13:00-15:30; We 10:00-14:00; Th 09:30-12:30; Fr 09:30-12:30","title":"Upton Methodist Church"},"type":"Feature"},
		{"geometry":{"coordinates":[-1.19281,53.56576],"type":"Point"},"properties":{"_source":"warm_welcome","address":"Woodlands Community Library, Woodlands, Doncaster DN6 7SB","description":"","hours":"Mo 10:00-04:30; Tu 10:00-02:00; We 10:00-04:30; Th 10:00-02:00; Fr 10:00-02:00","title":"Woodlands Community Library"},"type":"Feature"},
		{"geometry":{"coordinates":[-1.08640,53.55007],"type":"Point"},"properties":{"_source":"warm_spaces","address":"The Copper Pipe Cafe The Bridge, Barnby Dun Road, Doncaster, England, DN2 4RG","hours":"Tu 09:00-13:00; We 09:00-13:00; Th 09:00-13:00","title":"The Copper Pipe Cafe (Cambeth Community Project CIV)","url":"https://www.facebook.com/TheCopperPipe/"},"type":"Feature"}
	]
}
