{
	"type": "FeatureCollection",
	"features": [
		{"geometry":{"coordinates":[-1.13368,53.51973],"type":"Point"},"properties":{"_source":"warm_welcome","address":"Civic Quarter Car Park, Doncaster, South Yorkshire DN1 3JH","description":"Open from 01/10/2015. Not Really. We are open for all and where the need be, we shall sign post. Even though we are a christian organisation, our place space welcomes everybody in our community. irrespective of religion, ethnicity or background. We are here to help each other get through this difficult times together","hours":"Tu 09:00-17:00; We 09:00-17:00; Th 09:00-17:00; Fr 09:00-17:00; Sa 09:00-17:00; Su 13:00-19:00","title":"Agape Life Chapel International "},"type":"Feature"},
		{"geometry":{"coordinates":[-1.15692,53.50403],"type":"Point"},"properties":{"_source":"warm_welcome","address":"Alder Grove , Doncaster, South Yorkshire DN4 8RF","description":" We offer a Warm welcome. Hot drinks, soup and a roll","hours":"We 10:00-14:00","title":"Alder Grove Church "},"type":"Feature"},
		{"geometry":{"coordinates":[-1.06054,53.53648],"type":"Point"},"properties":{"_source":"warm_welcome","address":"Armthorpe community Library, Church Street, , Armthorpe,, Doncaster DN3 3AL","description":"We are open to all It's a warm, friendly, inviting space staffed entirely by volunteers. There are opportunities to volunteer or learn in our space and we have links to a large support network","hours":"Mo 10:00-16:00; Tu 10:00-16:00; We 10:00-16:00; Fr 10:00-16:00; Sa 10:00-12:00","title":"Armthorpe Community Library"},"type":"Feature"},
		{"geometry":{"coordinates":[-1.06170,53.53677],"type":"Point"},"properties":{"_source":"warm_welcome","address":"Armthorpe Community Centre, Welfare Park, Church Street, Armthorpe, Doncaster, South Yorkshire DN33AG","description":"","hours":"Mo 09:00-12:00; Tu 18:00-21:00; Sa 09:00-12:00","title":"Armthorpe Parish Council"},"type":"Feature"},
		{"geometry":{"coordinates":[-1.31725,53.36288],"type":"Point"},"properties":{"_source":"warm_welcome","address":"Aston Library and Neighbourhood Hub, Worksop Road, Aston, Swallownest , Sheffield S26 4WD","description":"","hours":"Mo 09:00-17:00; Tu 09:00-17:00; We 09:00-19:00; Th 09:00-17:00; Fr 09:00-17:00; Sa 09:00-13:00","title":"Aston Library and Neighbourhood Hub"},"type":"Feature"},
		{"geometry":{"coordinates":[-1.15530,53.50487],"type":"Point"},"properties":{"_source":"warm_welcome","address":"High Road, Balby, Doncaster, South Yorkshire DN4 0PL","description":"","hours":"Mo 10:00-15:00; Tu 10:00-15:00; We 10:00-15:00; Fr 10:00-16:00","title":"Balby Community Library"},"type":"Feature"},
		{"geometry":{"coordinates":[-1.32404,53.51588],"type":"Point"},"properties":{"_source":"warm_welcome","address":"willowcroft independent living scheme, bolton upon dearne, rotherham s63 8LF","description":"","hours":"Tu 10:00-14:00","title":"Berneslai homes"},"type":"Feature"},
		{"geometry":{"coordinates":[-1.36687,53.40463],"type":"Point"},"properties":{"_source":"warm_welcome","address":"Field View , Brinsworth, South Yorkshire S60 5DG","description":"","hours":"Mo 09:00-12:30; Tu 09:00-12:30; Th 09:00-12:30; Sa 09:00-13:00","title":"Brinsworth Community Library and Neighbourhood hubs"},"type":"Feature"},
		{"geometry":{"coordinates":[-1.07604,53.50666],"type":"Point"},"properties":{"_source":"warm_welcome","address":"Goodison Boulevard, Cantley, Doncaster DN4 6BT","description":" Please see our Facebook page for more details on events and activities (https://www.facebook.com/groups/1597637983819540) ","hours":"Mo 09:30-18:00; Tu 09:30-16:30; We 09:30-16:30; Th 09:30-16:30; Sa 09:30-12:00","title":"Cantley Community Library"},"type":"Feature"},
		{"geometry":{"coordinates":[-1.25560,53.48586],"type":"Point"},"properties":{"_source":"warm_welcome","address":"Charlie's cafe, Harrogate court , Denaby main , Doncaster Dn12 4hb","description":"We cater for absolutely everyone, with budget friendly options available daily. ","hours":"Mo 09:00-13:30; Tu 09:00-13:30; We 09:00-13:30; Th 09:00-13:30; Fr 09:00-13:30; Sa 09:00-13:30","title":"Charlie's cafe harrogate court "},"type":"Feature"},
		{"geometry":{"coordinates":[-1.10830,53.43151],"type":"Point"},"properties":{"_source":"warm_welcome","address":"Castle Close Community Centre , Tickhill , Doncaster DN11 9QT","description":"Open from 12/12/2022.","hours":"Mo 09:00-11:00","title":"Circle of Friends Tickhill"},"type":"Feature"},
		{"geometry":{"coordinates":[-1.34833,53.42990],"type":"Point"},"properties":{"_source":"warm_welcome","address":"Clifton Lane Clifton Park Museum, ROTHERHAM, South Yorkshire S65 2AA","description":"","hours":"Tu 10:00-04:00; We 10:00-04:00; Th 10:00-04:00; Fr 10:00-04:00; Sa 10:00-04:00; Su 10:00-04:00","title":"Clifton Park Museum"},"type":"Feature"},
		{"geometry":{"coordinates":[-1.23738,53.48253],"type":"Point"},"properties":{"_source":"warm_welcome","address":"Ivanhoe Centre, Doncaster, Yorkshire DN123JX","description":"Open from 30/9/2022.","hours":"Mo 09:30-15:00; Tu 09:30-15:00; We 09:30-15:00; Th 09:00-16:00; Fr 09:00-14:30","title":"Conisbrough Community Association"},"type":"Feature"},
		{"geometry":{"coordinates":[-1.14599,53.49482],"type":"Point"},"properties":{"_source":"warm_welcome","address":"Servant's Hall, Flourish Enterprises, , Woodfield Park, Tickhill Road, , Balby, Doncaster DN4 8QP","description":"We cater for people aged 18 and over. Feel free to fetch a craft project with you to work on. We can offer support and help with your project. If you don't have something to work on, let us know and we may be able to help.","hours":"Mo 12:00-14:00; Tu 12:00-14:00; We 12:00-14:00; Fr 12:00-14:00; Sa 12:00-14:00","title":"Dadesley Crafting CIC"},"type":"Feature"},
		{"geometry":{"coordinates":[-1.13292,53.51981],"type":"Point"},"properties":{"_source":"warm_welcome","address":"Waterdale, Doncaster, South Yorkshire DN1 3BZ","description":"","hours":"Mo 11:00-17:00; Tu 11:00-17:00; We 09:30-16:30; Th 13:00-19:00; Fr 10:00-16:00; Sa 10:00-16:00","title":"Danum Gallery, Library and Museum (DGLAM)"},"type":"Feature"},
		{"geometry":{"coordinates":[-1.37264,53.53370],"type":"Point"},"properties":{"_source":"warm_welcome","address":"Church Street, Darfield, Barnsley S73 9LG","description":" We have regular activities every week including Story & Rhyme sessions, Lego Club, Employment Support as well as a range of children and adult activities and school holiday activities. Details on our website","hours":"Mo 10:00-13:00; Tu 10:00-13:00; Th 10:00-13:00; Fr 10:00-13:00; Sa 09:30-12:30","title":"Darfield Library - Barnsley Libraries"},"type":"Feature"},
		{"geometry":{"coordinates":[-1.12696,53.52157],"type":"Point"},"properties":{"_source":"warm_welcome","address":"The Point, 16 South Parade, Doncaster DN1 2DR","description":"We are open to all The Point is open to everyone and has a welcoming cafe and free exhibitions in our gallery. We have comfy sofas and quiet spaces to sit plus we run creative activities. We are Dementia Friendly and have a fully accessible building.","hours":"Mo 10:00-16:00; Tu 10:00-19:00; We 10:00-19:00; Th 10:00-19:00; Fr 10:00-16:00","title":"darts"},"type":"Feature"},
		{"geometry":{"coordinates":[-1.20890,53.37182],"type":"Point"},"properties":{"_source":"warm_welcome","address":"Laughton Road, Dinnington, Sheffield S25 2PP","description":"Open from 28/11/2022.","hours":"Mo 09:00-17:30; Tu 09:00-19:00; We 09:00-17:30; Th 09:00-14:00; Fr 09:00-19:00; Sa 09:00-13:00","title":"Dinnington Community Library"},"type":"Feature"},
		{"geometry":{"coordinates":[-1.13469,53.52604],"type":"Point"},"properties":{"_source":"warm_welcome","address":"Doncaster Minster, Church Street, Doncaster DN1 1RD","description":"","hours":"Mo 10:30-15:00; Tu 10:30-15:00; We 10:30-15:00; Th 10:30-15:00; Fr 10:30-15:00; Sa 10:30-13:30","title":"Doncaster Minster"},"type":"Feature"},
		{"geometry":{"coordinates":[-1.19394,53.48096],"type":"Point"},"properties":{"_source":"warm_welcome","address":"Martinwells Centre, Thompson Avenue, Edlington, Doncaster DN12 1JD","description":"","hours":"Mo 08:40-13:00; Tu 08:40-13:00; We 08:40-13:00; Th 08:40-13:00; Fr 08:40-13:00; Sa 08:40-12:50","title":"Edlington Library"},"type":"Feature"},
		{"geometry":{"coordinates":[-1.31426,53.53312],"type":"Point"},"properties":{"_source":"warm_welcome","address":"Barnsley Road, Goldthorpe, Rotherham S63 9NE","description":" We have regular activities every week including Story & Rhyme sessions, Lego Club, Employment Support as well as a range of children and adult activities and school holiday activities. Details on our website","hours":"Mo 09:00-17:00; Tu 09:00-17:00; We 09:00-13:00; Th 09:00-19:00; Fr 09:00-13:00; Sa 09:30-12:30","title":"Goldthorpe Library - Barnsley Libraries"},"type":"Feature"},
		{"geometry":{"coordinates":[-1.37329,53.45472],"type":"Point"},"properties":{"_source":"warm_welcome","address":"8 coach road , Greasbrough, rotherham s61 4ed","description":"Open from 24/11/2022. we cater for all We have regular activities, lego club on saturdays, board games and jigsaws throughout the week.Free childrens christmas activities available throughout December during opening hours December","hours":"Mo 09:00-13:00; Tu 09:00-13:00; Th 09:00-13:00; Fr 09:00-14:00; Sa 09:00-13:00","title":"Greasbrough Library and neighbourhood Hub"},"type":"Feature"},
		{"geometry":{"coordinates":[-1.19547,53.47614],"type":"Point"},"properties":{"_source":"warm_welcome","address":"Edlington Lane, DONCASTER, Doncaster DN121PL","description":"Open from 28.11.22. We are a disability confident centre, staff and volunteers are Domestic Awareness trained. Empowering the community; to support the community The Helping Hands Community Centre is a sustainable project in the heart of the community of Edlington delivering a wide range of support services and other community provisions","hours":"Tu 10:00-14:00; Th 10:00-14:00","title":"Helping Hands Community Centre"},"type":"Feature"},
		{"geometry":{"coordinates":[-1.31300,53.41919],"type":"Point"},"properties":{"_source":"warm_welcome","address":"Wickersley Road, Rotherham, South Yorkshire S60 4JN","description":"Open from 01-11-2022.","hours":"Tu 13:00-16:00","title":"Herringthorpe URC"},"type":"Feature"},
		{"geometry":{"coordinates":[-1.07509,53.47595],"type":"Point"},"properties":{"_source":"warm_welcome","address":"Holmescarr Community Centre, Grange Lane, Rossington, Doncaster DN11 0LP","description":"Open from 01112022. We have games and a paperback library and exchange. We have Pay as you Feel food products","hours":"Mo 10:00-13:00; Tu 10:00-13:00; We 10:00-13:00; Th 10:00-13:00; Fr 10:00-13:00","title":"Holmescarr Ark and Crafts Ltd"},"type":"Feature"},
		{"geometry":{"coordinates":[-1.39299,53.43370],"type":"Point"},"properties":{"_source":"warm_welcome","address":"125 Church Street, Rotherham, South Yorkshire S61 1HA","description":"","hours":"Mo 09:30-13:00; Tu 09:30-13:00; Th 01:30-19:00; Fr 01:30-17:30; Sa 09:30-13:00","title":"kimberworth Community Library & Neighbourhood Hub"},"type":"Feature"},
		{"geometry":{"coordinates":[-1.27613,53.34100],"type":"Point"},"properties":{"_source":"warm_welcome","address":"133 Wales Road, Kiveton Park, Sheffield S26 6RB","description":"Open from 24/11/2022.","hours":"Mo 09:00-18:30; Tu 09:00-13:00; Th 09:00-18:30; Fr 09:00-17:30; Sa 09:00-13:00","title":"Kiveton Park Library and Neighbourhood Hub"},"type":"Feature"},
		{"geometry":{"coordinates":[-1.20377,53.42292],"type":"Point"},"properties":{"_source":"warm_welcome","address":"Maltby Library, Rotherham, South Yorkshire S66 8JE","description":"Open from 23-11-2022.","hours":"Mo 09:00-19:00; Tu 09:00-14:00; We 09:00-17:30; Th 09:00-19:00; Fr 09:00-17:30; Sa 09:00-13:00; Su 10:00-14:00","title":"Maltby Library and Neighbourhood Hub"},"type":"Feature"},
		{"geometry":{"coordinates":[-1.29160,53.49326],"type":"Point"},"properties":{"_source":"warm_welcome","address":"John Street, Mexborough, Doncaster S64 9HS","description":"","hours":"Mo 08:40-13:00; Tu 08:40-13:00; We 08:40-13:00; Th 08:40-13:00; Fr 08:40-13:00; Sa 08:40-13:00","title":"Mexborough Library"},"type":"Feature"},
		{"geometry":{"coordinates":[-1.32325,53.44034],"type":"Point"},"properties":{"_source":"warm_welcome","address":"Mowbray Gardens Library, Rotherham, South Yorkshire S65 2UH","description":" Games Night for families, Lego and Duplo provided for toddlers. ","hours":"Mo 09:00-19:00; Tu 09:00-14:00; Th 09:00-17:30; Fr 09:00-17:30; Sa 09:00-13:00; Su 10:00-14:00","title":"Mowbray Gardens Library and Neighbourhood Hub"},"type":"Feature"},
		{"geometry":{"coordinates":[-1.11071,53.43535],"type":"Point"},"properties":{"_source":"warm_welcome","address":"Northgate Community Hub, Northgate, Tickhill, Doncaster DN11 9HZ","description":"","hours":"Mo 11:00-12:00; Tu 10:00-15:00; We 09:30-12:00; Th 09:30-12:00","title":"Northgate Community Hub"},"type":"Feature"},
		{"geometry":{"coordinates":[-1.11862,53.37898],"type":"Point"},"properties":{"_source":"warm_welcome","address":"Now Church, Langold , Nottinghamshire S81 9RJ","description":"Open from 01-11-22. We have games, ping pong, under 3s play area and our Food Hub is open alongside the warm space. ","hours":"Tu 09:30-14:30; We 09:30-14:30; Fr 09:30-11:30","title":"Now Church"},"type":"Feature"},
		{"geometry":{"coordinates":[-1.36068,53.42946],"type":"Point"},"properties":{"_source":"warm_welcome","address":"Riverside House, Rotherham, Yorkshire S60 1AE","description":"","hours":"Mo 08:30-19:00; Tu 08:30-17:30; We 08:30-17:30; Th 08:30-19:00; Fr 08:30-17:30; Sa 09:00-16:00","title":"Riverside Library and Neighbourhood Hub"},"type":"Feature"},
		{"geometry":{"coordinates":[-1.24821,53.49129],"type":"Point"},"properties":{"_source":"warm_welcome","address":"School Walk, Doncaster, South Yorkshire DN12 4HZ","description":"Open from 17/11/22. Our focus is families with a child under 5","hours":"Mo 08:30-16:30; Tu 08:30-16:30; We 08:30-16:30; Th 08:30-16:30; Fr 08:30-16:00","title":"South Locality Family Hubs"},"type":"Feature"},
		{"geometry":{"coordinates":[-1.19077,53.51167],"type":"Point"},"properties":{"_source":"warm_welcome","address":"The Stables, Main Street, Sprotbrough, Doncaster DN5 7RH","description":"Open from Friday 2-4pm. We cater for ALL. The Stable is a community space spread over two rooms, you can read or join in with conversation, it's an evolving resource.","hours":"Fr 10:00-14:00","title":"Sprotbrough - St Mary's - Stable Building"},"type":"Feature"},
		{"geometry":{"coordinates":[-1.15590,53.52599],"type":"Point"},"properties":{"_source":"warm_welcome","address":"Sprotbrough Road, Sprotbrough, Doncaster DN5 8BA","description":"We cater for all ages We have IT support available. Children's activities","hours":"Mo 10:00-17:00; Tu 10:00-17:00; We 10:00-17:00; Th 10:00-17:00; Fr 10:00-18:00; Sa 10:00-13:00","title":"Sprotbrough Community Library Ltd"},"type":"Feature"},
		{"geometry":{"coordinates":[-1.38445,53.37140],"type":"Point"},"properties":{"_source":"warm_welcome","address":"St Mary's Community Hub, 402b Handsworth Road, Sheffield S13 9BZ","description":"Open from 14-11-2022.","hours":"Mo 13:00-16:00","title":"St Mary's Community Hub"},"type":"Feature"},
		{"geometry":{"coordinates":[-1.27981,53.43134],"type":"Point"},"properties":{"_source":"warm_welcome","address":"132 Flanderwell Lane, Rotherham, South Yorkshire S66 3RL","description":"","hours":"Tu 12:00-14:00","title":"Sunnyside Supplies"},"type":"Feature"},
		{"geometry":{"coordinates":[-1.15107,53.51554],"type":"Point"},"properties":{"_source":"warm_welcome","address":"Urban Road, Hexthorpe, Doncaster DN4 0EP","description":"Aimed at families but all welcome. No unaccompanied children.Warm Welcome Wednesdays providing hot drinks, soup and a space for homework / reading / board games, primarily for families on their way home from school.","hours":"We 15:20-17:30","title":"The King's Cross Church"},"type":"Feature"},
		{"geometry":{"coordinates":[-1.25346,53.39280],"type":"Point"},"properties":{"_source":"warm_welcome","address":"School Road , Thurcroft, Rotherham S66 9DE","description":"","hours":"Mo 01:30-18:45; Tu 10:00-12:30; Th 10:00-12:15; Fr 10:00-12:15; Sa 09:30-12:45","title":"Thurcroft Library and Neighbourhood Hub"},"type":"Feature"},
		{"geometry":{"coordinates":[-1.10999,53.42972],"type":"Point"},"properties":{"_source":"warm_welcome","address":"Castlegate , Tickhill , Doncaster DN11 9QU","description":"","hours":"Mo 10:00-13:00; Tu 14:00-17:00; We 10:00-13:00; Fr 10:00-13:00; Sa 10:00-13:00","title":"Tickhill Community Library"},"type":"Feature"},
		{"geometry":{"coordinates":[-1.34554,53.50270],"type":"Point"},"properties":{"_source":"warm_welcome","address":"Montgomery road, Wath upon Dearne, South yorkshire S63 7RZ","description":"","hours":"Mo 09:00-17:00; Tu 09:00-17:00; We 09:00-17:00; Th 09:00-19:00; Fr 09:00-17:00; Sa 09:00-13:00","title":"Wath Library and Neighbourhood Hub"},"type":"Feature"},
		{"geometry":{"coordinates":[-1.27977,53.42152],"type":"Point"},"properties":{"_source":"warm_welcome","address":"286 Bawtry Road, Wickersley, Rotherham S66 1JJ","description":"Open from 23-11-2022. We have a free Lego club, puzzles and board games to keep you entertained, plus access to local newspapers and our wonderful books! ","hours":"Mo 09:00-17:00; Tu 09:00-19:00; We 09:00-13:00; Th 09:00-19:00; Fr 09:00-13:00; Sa 09:00-13:00","title":"Wickersley Library & Neighbourhood Hub"},"type":"Feature"},
		{"geometry":{"coordinates":[-1.39247,53.52491],"type":"Point"},"properties":{"_source":"warm_welcome","address":"Station Road, Wombwell, Barnsley S73 0BA","description":" We have regular activities every week including Story & Rhyme sessions, Lego Club, Employment Support as well as a range of children and adult activities and school holiday activities. Details on our website","hours":"Mo 09:00-17:00; Tu 09:00-17:00; Th 09:00-19:00; Fr 09:00-17:00; Sa 09:30-12:30","title":"Wombwell Library - Barnsley Libraries"},"type":"Feature"},
		{"geometry":{"coordinates":[-1.37257,53.45361],"type":"Point"},"properties":{"_source":"warm_spaces","address":"8 Coach Road, Rotherham, England, S61 4ED","title":"Greasbrough Library and Neighbourhood Hub","url":"https://Rotherham.gov.uk"},"type":"Feature"}
	]
}
