{
	"type": "FeatureCollection",
	"features": [
		{"geometry":{"coordinates":[-1.30795,53.12675],"type":"Point"},"properties":{"_source":"warm_welcome","address":"Blackwell Road, Huthwaite, Nottinghamshire NG17 2JT","description":"","hours":"Mo 09:00-14:00, Tu 09:00-14:00, We 09:00-14:00, Th 09:00-14:00, Fr 09:00-14:00","title":"All Saints Church Huthwaite"},"type":"Feature"},
		{"geometry":{"coordinates":[-1.10689,53.32057],"type":"Point"},"properties":{"_source":"warm_welcome","address":"Kilton Forest Golf Course , Blyth Road, Worksop S81 0TL","description":"Open from 1/11/22.","hours":"Mo 10:00-15:00, Tu 10:00-15:00, We 10:00-15:00, Th 10:00-15:00, Fr 10:00-15:00, Sa 10:00-15:00, Su 10:00-15:00","title":"BPL"},"type":"Feature"},
		{"geometry":{"coordinates":[-1.21445,53.20413],"type":"Point"},"properties":{"_source":"warm_welcome","address":"c/o Hole In The Wall, Shirebrook, Derbyshire NG208PE","description":" Community Fridge, Craft Clubs, Skills and emplyoment support","hours":"Mo 16:00-18:00, Tu 10:00-12:00, We 10:00-12:00, Th 16:00-18:00","title":"BUILDING LIVES AROUND SHIREBROOK TOWN CIC"},"type":"Feature"},
		{"geometry":{"coordinates":[-1.11048,53.32496],"type":"Point"},"properties":{"_source":"warm_welcome","address":"Thievesdale Close,, Worksop, Notts S81 0XS","description":"Open from 31-10-2022.","title":"Christ Church Worksop "},"type":"Feature"},
		{"geometry":{"coordinates":[-1.19318,53.14314],"type":"Point"},"properties":{"_source":"warm_welcome","address":"Church Side, Mansfield, Nottinghamshire NG18 1AP","description":" Trussell Trust satellite Foodbank site (same day, 10-12:30). We have a microwave if anyone brings a heatable meal, free hot drinks/cuppa soups, toast","hours":"We 10:00-14:00","title":"Church of St Peter and St Paul"},"type":"Feature"},
		{"geometry":{"coordinates":[-1.37030,53.25555],"type":"Point"},"properties":{"_source":"warm_welcome","address":"Summerskill Green, Inkersall, Chesterfield S43 3SR","description":"We welcome everyone We are a small space but will provide magazines and table top games","hours":"Tu 09:00-13:00","title":"Inkersall Methodist Church"},"type":"Feature"},
		{"geometry":{"coordinates":[-1.31542,53.32570],"type":"Point"},"properties":{"_source":"warm_welcome","address":"Sheffield Road, Killamarsh , North East Derbyshire S21 1DY","description":"","hours":"Th 08:30-12:00, Fr 09:00-12:00, Su 09:30-12:00","title":"Killamarsh Methodist Church "},"type":"Feature"},
		{"geometry":{"coordinates":[-1.16521,53.32010],"type":"Point"},"properties":{"_source":"warm_welcome","address":"Shireoaks Road, Shireoaks, Worksop S81 8LX","description":"","hours":"Mo 13:30-15:00, Tu 14:00-19:00, Th 10:00-12:00","title":"Shireoaks Village Hall"},"type":"Feature"},
		{"geometry":{"coordinates":[-1.31791,53.32100],"type":"Point"},"properties":{"_source":"warm_welcome","address":"St Giles Church Hall, Sheepcote Road, Killamarsh, Sheffield S21 1DU","description":"","hours":"Tu 13:00-15:30","title":"St Giles Parish Church Hall, Killamarsh"},"type":"Feature"},
		{"geometry":{"coordinates":[-1.17854,53.14372],"type":"Point"},"properties":{"_source":"warm_welcome","address":"St Lawrence's Church, Skerry Hill, Mansfield, Nottinghamshire Ng18 2pw","description":"We are a toddler group open to pre-school aged children and their adult.","hours":"Tu 09:15-11:00","title":"St Lawrence's Church, Mansfield"},"type":"Feature"},
		{"geometry":{"coordinates":[-1.35695,53.26595],"type":"Point"},"properties":{"_source":"warm_welcome","address":"Staveley Methodist Church, Chesterfield Road, Staveley , Derbyshire S43 3XD","description":"","hours":"Tu 13:30-15:30, We 09:30-11:30, Th 12:00-15:00","title":"Staveley Edge Centre, Edge Ministries "},"type":"Feature"},
		{"geometry":{"coordinates":[-1.11935,53.30171],"type":"Point"},"properties":{"_source":"warm_welcome","address":"Vicars Walk, Worksop, Nottinghamshire S80 2HJ","description":"Mondays, Wednesdays and Fridays (3pm - 5pm term time) is for FSM Families - we provide free sandwiches and other food for free school meal families. Saturday Romanian church 10.30am, with many Ukrainians attending. Sunday church free hot drinks from 10.30 Youth games nights for Y6-Y11, Fridays 6.30pm - 8.30pm, Youth Food & Faith (discussions whilst eating!) on Wednesdays 6.30pm - 8.30pm, Term time only. ","hours":"Mo 15:00-17:00, We 15:00-17:00, Fr 15:00-17:00, Sa 10:30-12:30, Su 10:30-12:30","title":"Worksop Christian Centre"},"type":"Feature"},
		{"geometry":{"coordinates":[-1.40585,53.18991],"type":"Point"},"properties":{"_source":"warm_spaces","address":"The Britannia Inn, Ward Street, Chesterfield, England, S42 6XP","title":"The Britannia Inn","url":"https://www.facebook.com/TuptonPC"},"type":"Feature"},
		{"geometry":{"coordinates":[-1.34150,53.14433],"type":"Point"},"properties":{"_source":"warm_spaces","address":"Tibshelf Village Hall, 110 High Street, Alfreton, England, DE55 5NU","title":"Tibshelf Warm Space and Social"},"type":"Feature"},
		{"geometry":{"coordinates":[-1.21690,53.20360],"type":"Point"},"properties":{"_source":"warm_spaces","address":"Carter Lane, Mansfield, England, NG20 8PE","title":"Hole in the Wall"},"type":"Feature"},
		{"geometry":{"coordinates":[-1.17019,53.32205],"type":"Point"},"properties":{"_source":"warm_spaces","address":"Shireoaks Village Hall, Shireoaks Road, Worksop, England, S81 8LX","title":"St. Luke's Church, Shireoaks","url":"https://stlukeschurchshireoaks.org.uk"},"type":"Feature"},
		{"geometry":{"coordinates":[-1.11041,53.32489],"type":"Point"},"properties":{"_source":"warm_spaces","address":"Christ Church Worksop, Thievesdale Close, Worksop, England, S81 0XS","title":"Christ Church Worksop","url":"http://christchurchworksop.org.uk"},"type":"Feature"},
		{"geometry":{"coordinates":[-1.39560,53.21472],"type":"Point"},"properties":{"_source":"warm_spaces","address":"The Three Cottages, 229 Mansfield Road, Chesterfield, England, S41 0JJ","hours":"Mo-Su ","title":"The Three Cottages","url":"https://ourlocal.pub/pubs/the-three-cottages-hasland/"},"type":"Feature"}
	]
}
