{
	"type": "FeatureCollection",
	"features": [
		{"geometry":{"coordinates":[-1.13782,52.99560],"type":"Point"},"properties":{"_source":"warm_welcome","address":"14 Mansfield Road, Arnold, NOTTINGHAMSHIRE NG5 6AA","description":"Open from 01.2.22. All welcome. Job Club available through Foodbank from 1.30-3.30. Activities such as art materials, knitting, reading, jigsaws, games","hours":"We 10:30-15:00","title":"Arnold Foodbank/Daybrook baptist Church"},"type":"Feature"},
		{"geometry":{"coordinates":[-1.18399,52.97882],"type":"Point"},"properties":{"_source":"warm_welcome","address":"Basford Road Baptist Church, Nottingham, Nottinghamshire NG6 0JL","description":"","hours":"We 11:00-13:00","title":"Basford Road Baptist Church"},"type":"Feature"},
		{"geometry":{"coordinates":[-1.29436,53.05212],"type":"Point"},"properties":{"_source":"warm_welcome","address":"St Michaels and All Angels Church, Church Lane, Underwood,Notts, Underwood, Nottingham NG165GB","description":"Open from 19/10/22.","hours":"We 00:00-13:00; Th 10:00-00:00","title":"Brinsley with Underwood PCC"},"type":"Feature"},
		{"geometry":{"coordinates":[-1.18674,52.99773],"type":"Point"},"properties":{"_source":"warm_welcome","address":"Broomhill Road, Bulwell, Nottingham NG6 9JL","description":"Open from 28-11-2022. Everybody is welcome, but under 18's must be accompanied by an adult. Open every Monday evening (except bank hols) from 18:00-20:00 for warm space, free soup and refreshments, games, jigsaws & conversation","hours":"Mo 18:00-20:00","title":"BULWELL URC"},"type":"Feature"},
		{"geometry":{"coordinates":[-1.20681,52.98444],"type":"Point"},"properties":{"_source":"warm_welcome","address":"Bells Lane Community Centre, Nottingham, Nottingham NG8 6DD","description":"","hours":"Tu 11:00-13:00","title":"Diversify Education and Communities CIC"},"type":"Feature"},
		{"geometry":{"coordinates":[-1.30895,52.97413],"type":"Point"},"properties":{"_source":"warm_welcome","address":"4b, Ilkeston, Derbyshire DE7 8LH","description":"","hours":"We 11:00-13:00","title":"Elim Christian Centre"},"type":"Feature"},
		{"geometry":{"coordinates":[-1.24716,53.09899],"type":"Point"},"properties":{"_source":"warm_welcome","address":"Hodkinsons road, Kirkby in Ashfield, Nottingham NG17 7DJ","description":"Open from 05/12/22. we are an inclusive centre We are a welcoming centre and will be offering activities each week.","hours":"Mo 10:30-12:00","title":"Everyoneactive"},"type":"Feature"},
		{"geometry":{"coordinates":[-1.21585,52.93518],"type":"Point"},"properties":{"_source":"warm_welcome","address":"Hope House, Nottingham, Nottinghamshire NG9 2RF","description":" Hope House is a holistic community hub where everyone is welcome","hours":"Mo 09:30-12:00; We 09:30-12:00; Th 09:30-12:00; Sa 09:30-10:30","title":"Hope Nottingham CIO"},"type":"Feature"},
		{"geometry":{"coordinates":[-1.32245,53.01916],"type":"Point"},"properties":{"_source":"warm_welcome","address":"Linkmel Rd, nottingham, nottingham ng163RZ","description":"Open from 2/11/22.","hours":"Tu 12:00-14:00; We 10:00-14:00","title":"new horizon church"},"type":"Feature"},
		{"geometry":{"coordinates":[-1.16376,52.92497],"type":"Point"},"properties":{"_source":"warm_welcome","address":"Clifton Lane, Nottingham , Nottinghamshire NG11 7ES","description":"Open from 21/11/22. Also open on Sundays 10am-11am for Coffee and Bible Time We are next to Wilford Ambulance Station","hours":"Tu 12:00-14:00; Su 10:00-11:00","title":"Nottingham South Christadelphians"},"type":"Feature"},
		{"geometry":{"coordinates":[-1.30271,53.07332],"type":"Point"},"properties":{"_source":"warm_welcome","address":"Parish Hall Mansfield Rd, Selston, Nottinghamshire NG16 6EE","description":"Open from 23-11-2022. Book and Jigsaw swap. Selection of pre-school toys and books","hours":"We 10:00-14:00","title":"Seslton Parish Village Halls Charity"},"type":"Feature"},
		{"geometry":{"coordinates":[-1.34220,53.10676],"type":"Point"},"properties":{"_source":"warm_welcome","address":"Thrive, 39 High Street, South Normanton, Derbyshire DE55 2BP","hours":"Fr 09:30-12:30","title":"South Normanton Community Church"},"type":"Feature"},
		{"geometry":{"coordinates":[-1.40466,53.04282],"type":"Point"},"properties":{"_source":"warm_welcome","address":"109A Derby Road, Ripley, Derbyshire DE5 3HT","description":"Open from 09.12.22.","hours":"Fr 10:00-13:00","title":"Springs of Living Water Christian Centre "},"type":"Feature"},
		{"geometry":{"coordinates":[-1.24793,52.92387],"type":"Point"},"properties":{"_source":"warm_welcome","address":"Barn Croft, Inham Nook, Nottingham , Nottinghamshire NG9 4HU","description":" Hot and cold drinks. Food available during cafe hours. Board games available. We ask that children be accompanied by adults.","hours":"Mo 09:00-11:30; Tu 14:00-16:30; We 10:00-12:00; Fr 11:00-13:00","title":"St Barnabas Church, Inham Nook; Christ Church, Chilwell; Hope Nottingham."},"type":"Feature"},
		{"geometry":{"coordinates":[-1.21322,52.92831],"type":"Point"},"properties":{"_source":"warm_welcome","address":"83 High Road, Toton, Nottingham NG9 6EN","description":"Mainly seniors and we are dementia and wheelchair friendly. We are a Renew Wellbeing space. As well as drinks and cake we offer a place to sit and chat or be quiet if you prefer and simple crafts, games and jigsaws","hours":"Tu 10:00-12:00","title":"St Peter's Church Toton"},"type":"Feature"},
		{"geometry":{"coordinates":[-1.33990,53.10059],"type":"Point"},"properties":{"_source":"warm_welcome","address":"The Common, South Normanton, Alfreton, Derbyshire DE55 2EF","hours":"Th 13:00-15:00","title":"The Junction 28 Church"},"type":"Feature"},
		{"geometry":{"coordinates":[-1.20513,53.03650],"type":"Point"},"properties":{"_source":"warm_welcome","address":"Derbyshire Lame, Hucknall, Notts NG157JX","hours":"Tu 10:00-12:00; We 10:00-12:00; Fr 10:00-12:00","title":"The King's Family Church"},"type":"Feature"},
		{"geometry":{"coordinates":[-1.20183,53.03756],"type":"Point"},"properties":{"_source":"warm_welcome","address":"1 High Street, Hucknall , Notts Ng15 7HJ","description":"","hours":"Tu 09:00-12:00; Th 13:00-14:30; Fr 09:00-12:00; Sa 09:00-12:00; Su 10:00-12:00","title":"The Salvation Army "},"type":"Feature"},
		{"geometry":{"coordinates":[-1.14301,52.95633],"type":"Point"},"properties":{"_source":"warm_welcome","address":"The Salvation Army- King Edward Street, Nottingham NG1 1EU","description":"Open from 09 11 2022.","hours":"We 10:00-13:00","title":"The Salvation Army Nottingham WBMH "},"type":"Feature"},
		{"geometry":{"coordinates":[-1.20184,53.03683],"type":"Point"},"properties":{"_source":"warm_welcome","address":"3A Vine Terrace, Hucknall, Nottingham NG15 7HN","description":"Open from 07-11-2022.","hours":"Mo 09:30-14:00; Tu 09:30-14:00; We 09:30-14:00; Th 09:30-14:00; Fr 09:30-14:00","title":"Under One Roof Community Centre "},"type":"Feature"},
		{"geometry":{"coordinates":[-1.20325,53.03692],"type":"Point"},"properties":{"_source":"warm_welcome","address":"15 Watnall Road, Hucknall, Nottingham NG15 7LD","description":"","hours":"Mo 09:00-12:00; Tu 09:00-12:00; We 09:00-12:00; Th 09:00-12:00; Fr 09:00-12:00; Sa 09:00-12:00; Su 10:00-12:30","title":"Watnall Road Baptist Church"},"type":"Feature"},
		{"geometry":{"coordinates":[-1.19666,52.97030],"type":"Point"},"properties":{"_source":"warm_welcome","address":"St Margaret's Church, Nottingham NG8 5GE","description":"On Wednesday's we only cater for youth. Our space is open to everyone on a Thursday morning.","hours":"We 15:00-16:30; Th 10:00-12:00","title":"Woven St Margaret's"},"type":"Feature"},
		{"geometry":{"coordinates":[-1.16583,52.92278],"type":"Point"},"properties":{"_source":"warm_spaces","address":"Clifton Lane, Nottingham, England, NG11 7ES","title":"Nottingham South Christadelphian Church","url":"https://www.lightyourlife.org"},"type":"Feature"},
		{"geometry":{"coordinates":[-1.27829,52.93030],"type":"Point"},"properties":{"_source":"warm_spaces","address":"Warren Avenue, Nottingham, England, NG9 8FD","title":"Carnegie Centre","url":"https://www.thehelpfulbureau.org.uk"},"type":"Feature"},
		{"geometry":{"coordinates":[-1.16712,52.99519],"type":"Point"},"properties":{"_source":"warm_spaces","address":"Bestwood Estate Community Centre, Nottingham, England, NG5 5HT","title":"Better Off Together","url":"https://www.facebook.com/profile.php?id=100087856831151"},"type":"Feature"},
		{"geometry":{"coordinates":[-1.09241,53.03802],"type":"Point"},"properties":{"_source":"warm_spaces","address":"Main Street, Nottingham, England, NG14","title":"St Wilfrid's Church","url":"https://www.stwilfrids-church.co.uk"},"type":"Feature"},
		{"geometry":{"coordinates":[-1.30718,52.97162],"type":"Point"},"properties":{"_source":"warm_spaces","address":"Erewash Museum, High Street, Ilkeston, England, DE7 5JA","title":"The Old Stables Tea Room"},"type":"Feature"},
		{"geometry":{"coordinates":[-1.15698,52.95696],"type":"Point"},"properties":{"_source":"warm_spaces","address":"30 Chaucer Street, Nottingham, England, NG1 5LP","title":"Nottingham Women's Centre","url":"https://www.nottinghamwomenscentre.com"},"type":"Feature"},
		{"geometry":{"coordinates":[-1.20713,52.98369],"type":"Point"},"properties":{"_source":"warm_spaces","address":"Bells Lane Community Centre, 194 Amesbury Circus, Nottingham, England, NG8 6DD","title":"Bells Lane Community Centre"},"type":"Feature"},
		{"geometry":{"coordinates":[-1.28509,53.00863],"type":"Point"},"properties":{"_source":"warm_spaces","address":"The Hayloft, Nottingham Road, Nottingham, England, NG16 2GB","title":"The Hayloft","url":"https://www.hayloftgiltbrook.co.uk"},"type":"Feature"},
		{"geometry":{"coordinates":[-1.10016,52.97010],"type":"Point"},"properties":{"_source":"gedling_council","address":"Foxhill Road, Carlton, Nottingham, NG4 1RL","contact":"richard.herrod@gedling.gov.uk","description":"Daily newspapers, Wi-Fi and TV screens available. Tea and coffee available to purchase.","hours":"Mo-Su 08:15-21:00","title":"Richard Herrod Centre"},"type":"Feature"},
		{"geometry":{"coordinates":[-1.12748,53.00618],"type":"Point"},"properties":{"_source":"gedling_council","address":"High Street, Arnold, Nottingham, NG5 7EE","contact":"bonington.theatre@gedling.gov.uk","description":"Wi-Fi","title":"Bonington Theatre (Lounge Area)"},"type":"Feature"},
		{"geometry":{"coordinates":[-1.07560,52.96438],"type":"Point"},"properties":{"_source":"gedling_council","address":"Forester Street, Netherfield, NG4 2LJ","contact":"bethesda.ministries@ntlworld.com","description":"Wi-Fi, plenty of space for organised activities and fellowship","hours":"Tu 10:00-14:00","title":"Bethesda Community Hall (Netherfield)"},"type":"Feature"},
		{"geometry":{"coordinates":[-1.12932,53.00460],"type":"Point"},"properties":{"_source":"gedling_council","address":"High Street, Arnold, NG5 7DN","contact":"puk.nottingham@gmail.com","description":"Parkinsons Support Group","hours":"Tu 12:00-15:00","title":"Bonington Club"},"type":"Feature"},
		{"geometry":{"coordinates":[-1.07659,52.96341],"type":"Point"},"properties":{"_source":"gedling_council","address":"St George&apos;s Centre, 91 Victoria Road, Netherfield , NG4 2NN","contact":"0115 9113302 netherfieldforum@hotmail.com","description":"Wi-Fi available and a range of <br />social activities.","title":"Netherfield Forum"},"type":"Feature"},
		{"geometry":{"coordinates":[-1.12267,52.99049],"type":"Point"},"properties":{"_source":"gedling_council","address":"De Vere Gardens, Woodthorpe, NG5 4PH","contact":"0115 926 7859","description":"","hours":"Mo 10:00-12:00","title":"St Mark&apos;s Church, Woodthorpe"},"type":"Feature"},
		{"geometry":{"coordinates":[-1.09160,52.96787],"type":"Point"},"properties":{"_source":"gedling_council","address":"Foxhill Rd, Carlton, Nottingham NG4 1SE","contact":"0300 011 1144","description":"","hours":"Tu 10:00-12:00; Th 10:00-12:00; Fr 10:00-12:00","title":"Foxhill Court"},"type":"Feature"},
		{"geometry":{"coordinates":[-1.13752,52.99596],"type":"Point"},"properties":{"_source":"gedling_council","address":"14 Mansfield Road, Daybrook Square NG5 6AA","contact":"07854 690694 www.daybrookbaptist.org","description":"knitting/sewing, art, games, <br />magazines. Wi-Fi available if <br />assistance needed to <br />complete forms","hours":"We 10:30-12:30","title":"Daybrook Baptist Church - &quot;Kettles on!&quot;"},"type":"Feature"},
		{"geometry":{"coordinates":[-1.09353,52.96647],"type":"Point"},"properties":{"_source":"gedling_council","address":"Main street Methodist church, on the corner of Carlton Hill and Cromwell street, NG4 1EE","contact":"0303 040 1110","description":"","hours":"Tu 12:00-14:45; Fr 12:00-14:45; Sa 11:00-13:00","title":"Carlton Community Hub"},"type":"Feature"},
		{"geometry":{"coordinates":[-1.09643,52.96627],"type":"Point"},"properties":{"_source":"gedling_council","address":"91 Carlton Hill, NG4 1FP","contact":"ccen@dioceseofnottingham.uk0115 9118266","description":"Fully accessible, Wi-Fi, activities include bingo, cards games, dominos, newspapers and magazines, other social activities","hours":"Th 13:30-15:00","title":"Sacred Heart Catholic Church and Community Centre"},"type":"Feature"},
		{"geometry":{"coordinates":[-1.22167,53.07206],"type":"Point"},"properties":{"_source":"gedling_council","address":"Tilford Road, Newstead Village, Nottinghamshire. NG15 0BS","contact":"coordinator@newsteadcentre.co.uk01623 720 140","description":"The Newstead Centre is a Community Centre which supports the community offering classes and activities in the Centre.Â  We do have second hand books in the CafÃ© to purchase at only 50p and offer magazines to read forÂ free.","hours":"Mo-Fr 09:00-14:00","title":"Newstead Centre Courtyard CafÃ©"},"type":"Feature"},
		{"geometry":{"coordinates":[-1.12912,53.00503],"type":"Point"},"properties":{"_source":"gedling_council","address":"99 High Street, Arnold, NG5 7DQ","contact":"nottingham.arnold@salvationarmy.org.uk(0115) 920 8800","description":"A friendly chat is always<br />available","hours":"Mo-Th 09:30-12:00","title":"The Salvation Army"},"type":"Feature"},
		{"geometry":{"coordinates":[-1.09192,52.98056],"type":"Point"},"properties":{"_source":"gedling_council","address":"6A Wollaton Avenue, Gedling, NG4 4HY","contact":"07916 625928","description":"Dominoes, Jigsaws, Colouring in, knitting, Scrabble, a repair shop and lots of chat","hours":"Mo 11:00-14:00","title":"Phoenix Farm Methodist Church"},"type":"Feature"},
		{"geometry":{"coordinates":[-1.12884,53.00205],"type":"Point"},"properties":{"_source":"gedling_council","address":"54 Front Street Arnold, Nottingham, NG5 7EL","contact":"0115 926 6828","description":"","hours":"Fr 11:00-14:00","title":"Arnold Methodist Church"},"type":"Feature"},
		{"geometry":{"coordinates":[-1.08428,52.96657],"type":"Point"},"properties":{"_source":"gedling_council","address":"108 Station Road, Carlton, Nottingham, NG4 3DA","contact":"0115 6703307 inquiry@carltonbaptistchurch.org","description":"opportunities to socialise with others.","hours":"Mo 12:30-14:30","title":"Carlton Baptist Church Community Kitchen"},"type":"Feature"},
		{"geometry":{"coordinates":[-1.08709,53.04165],"type":"Point"},"properties":{"_source":"gedling_council","address":"Flatts Lane, Calverton, Nottingham, NG14 6JZ","contact":"sean.ryan@nottscc.gov.uk","description":"50p per session. Wi-Fi, plus a variety of activities available for young people from year 7 -13.","hours":"Tu 18:00-20:15; We 18:30-20:45; Th 18:30-20:45; Fr 18:30-20:45","title":"Calverton Young People&apos;s Centre (year 7 to 13)"},"type":"Feature"},
		{"geometry":{"coordinates":[-1.13047,53.00992],"type":"Point"},"properties":{"_source":"gedling_council","address":"Redhill Road, Arnold, Nottingham, NG5 8GX","contact":"cathryn.reade@nottscc.gov.uk","description":"50p per session. Wi-Fi, plus a variety of activities available for young people from year 7 -13.","hours":"Mo 18:15-20:30; Tu 18:30-20:45; We 18:30-20:45; Fr 18:30-20:45","title":"Redhill Young People&apos;s Centre (year 6 to 13)"},"type":"Feature"},
		{"geometry":{"coordinates":[-1.08709,53.04165],"type":"Point"},"properties":{"_source":"gedling_council","address":"Flatts Lane, Calverton, Nottingham, NG14 6JZ","contact":"info@calvertoncore.org.uk0115 8470551 or 07305 109358","description":"Ample Free Parking/Full <br />Disabled Access/Free <br />Wi-Fi and access to Public<br />Computer/Newspapers <br />and Board Games","hours":"Tu 18:00-20:15; We 18:30-20:45; Th 18:30-20:45; Fr 18:30-20:45","title":"The Core Centre Charity Hub"},"type":"Feature"},
		{"geometry":{"coordinates":[-1.08927,52.96577],"type":"Point"},"properties":{"_source":"gedling_council","address":"Back of St. Paulâs Church, 5 Church Street, Carlton, Nottingham NG4 1BJ","contact":"0705868230Â  Â  Â Â  Â  Â  Â  Â  Â  Â  Â  Â  Â  Â  Â  Â  Â  Â  Â  Â  paulhoward81@outlook.com","description":"Men in Sheds Carlton supports older men who want to get together, share and learn new skills - all in the welcoming space of a Shed.","title":"Men in Sheds Carlton"},"type":"Feature"},
		{"geometry":{"coordinates":[-1.13353,52.99628],"type":"Point"},"properties":{"_source":"gedling_council","address":"The Stores Building, The Stores Building, Nottingham Road, Daybrook, Nottingham, NG5 6LU","contact":"0115 920 8771 or 07872839570 les.taylor@ageuknotts.org.ukÂ meninsheds-daybrook@ageuknotts.org.uk","description":"Â£3 per session. Men in Sheds supports older men in search of a hobby and those who want to socialise, share and learn new skills all in the welcoming setting of a workshop. <br />Equipment and tools are provided and volunteers are there for support. Members take part in the day-to-day running of the shed and decide on activities they want to follow including woodworking, skills sharing and socialising.","hours":"Mo-We 09:00-00:00","title":"Men in Sheds Daybrook Age UK"},"type":"Feature"},
		{"geometry":{"coordinates":[-1.14151,53.00033],"type":"Point"},"properties":{"_source":"gedling_council","address":"Church Lane , Arnold, Nottingham, NG5 6HJ","contact":"Community Kitchen: 0115 9209153.Seniors Tea: 07957941947 admin@stmarysarnold.org.uk","description":"<p>Community Kitchen: A warm welcome and friendly chat is always available .</p><p>Seniors Tea: Games, Quizzes, and Sing Along. Community Cinema: Different film each month, chance to meet new people and watch a good old movie with friends</p>","hours":"Sa 12:15-13:30","title":"St Mary&apos;s Church and Family Centre"},"type":"Feature"},
		{"geometry":{"coordinates":[-1.11060,52.96603],"type":"Point"},"properties":{"_source":"gedling_council","address":"Inside the charity shop at 352-356 Carlton Hill, Carlton, Nottm, NG4 1JB","contact":"","description":"Newspapers available. Opportunity to meet with others in a welcoming environment.","hours":"Mo-Sa 09:00-00:00","title":"Age Concern Carlton &amp; District Tearoom"},"type":"Feature"},
		{"geometry":{"coordinates":[-1.09362,52.98160],"type":"Point"},"properties":{"_source":"gedling_council","address":"12 Wollaton Avenue, Gedling, Nottingham, NG4 4HX","contact":"0115 859 9556 orÂ theark@thearkgedling.org.uk","description":"Â Wi-Fi, computers, games and company.","hours":"Mo-Fr 10:00-00:00","title":"The Ark Advice Centre"},"type":"Feature"},
		{"geometry":{"coordinates":[-1.08309,53.03655],"type":"Point"},"properties":{"_source":"gedling_council","address":"Main Street, Calverton, Nottingham, NG14 6FG","contact":"office@stwilfrids-church.co.uk","description":"Tuesday - Parent and Toddler includes Tea and Toast.<br />Tuesday - Tea and Chat includes Tea, cake and biscuits<br />Refreshments also served on a Sunday between the morning services.","hours":"Tu 09:15-10:30; Tu 02:00-15:30; Th 09:00-12:00","title":"St Wilfrid&apos;s Church Calverton"},"type":"Feature"},
		{"geometry":{"coordinates":[-1.17775,53.02274],"type":"Point"},"properties":{"_source":"gedling_council","address":"Park Rd, Bestwood Village, Nottingham NG6 8TQ","contact":"bestwoodvillagesc@hotmail.co.ukÂ orÂ www.facebook.com/thewelfarecharity","description":"Newspapers, TV in all rooms, kids corner, place for older kids to do their homework.","hours":"Mo-Th 11:00-18:00","title":"Bestwood Miner&apos;s Welfare / Welfare Public House &amp; Kitchen"},"type":"Feature"},
		{"geometry":{"coordinates":[-1.13674,52.97582],"type":"Point"},"properties":{"_source":"gedling_council","address":"405 Woodborough Road, Mapperley,<br />Nottingham NG3 5HE","contact":"Amy Hanlon Church Office Administrator: T: (0115) 9856131 or 07483131011office@stjudes.churchwww.stjudes.church","description":"Free refreshments, free wi-fi, newspapers, books and activities. <br /><br />Church administrator is also availableÂ MonÂ 11.15am-3pm, Weds 1pm-3pm and Thurs/Fri 11am-3pm","hours":"Mo 09:30-12:00","title":"St Judes Church (WSM)"},"type":"Feature"},
		{"geometry":{"coordinates":[-1.07691,53.03568],"type":"Point"},"properties":{"_source":"gedling_council","address":"Bonner Lane, Calverton, NG14 6FS","contact":"0115 808 4191","description":"<p>WiFi available Â£1 per session</p><p>Refreshments available</p><p>Providing lite bites and hot affordable meals also tea and coffeeÂ </p><p>TV and sky sports available</p><p>Board games, pool, darts, dominoes and other games.</p>","hours":"Mo-Su 12:00-23:00","title":"Gleaners Inn"},"type":"Feature"},
		{"geometry":{"coordinates":[-1.15832,53.01208],"type":"Point"},"properties":{"_source":"gedling_council","address":"Emmanuel Church Bestwood, 10 Church View Cl, Arnold, Nottingham NG5 9QP","contact":"Revd Nikki Bates 0115 920 8879revnikkibates@gmail.com","description":"<p>Small donations welcome for a three course sit down menue of soup, main, desert and refreshments. Takeaway option available.Â </p><p>Activities for adults and children also on offer</p>","hours":"Tu 15:00-18:00","title":"St Albans Community Kitchen. (WSM)"},"type":"Feature"},
		{"geometry":{"coordinates":[-1.11186,53.00242],"type":"Point"},"properties":{"_source":"gedling_council","address":"The King&apos;s Church, Shirley Drive, Arnold, NG5 7JX","contact":"","description":"<p>Refreshments availableÂ at a small cost. Wi-Fi, activities and newspapers available.</p>","title":"The King&apos;s Church"},"type":"Feature"},
		{"geometry":{"coordinates":[-1.10887,52.98048],"type":"Point"},"properties":{"_source":"gedling_council","address":"Marshal Hill Drive, NG3 6FY","contact":"st-james-nottingham.org.ukoffice@st-james-nottingham.org.ukÂ 0115 9606185","description":"","title":"St James Church"},"type":"Feature"}
	]
}
