{
	"type": "FeatureCollection",
	"features": [
		{"geometry":{"coordinates":[-1.13782,52.99560],"type":"Point"},"properties":{"_source":"warm_welcome","address":"14 Mansfield Road, Arnold, NOTTINGHAMSHIRE NG5 6AA","description":"Open from 01.2.22. All welcome. Job Club available through Foodbank from 1.30-3.30. Activities such as art materials, knitting, reading, jigsaws, games","hours":"We 10:30-15:00","title":"Arnold Foodbank/Daybrook baptist Church"},"type":"Feature"},
		{"geometry":{"coordinates":[-1.18399,52.97882],"type":"Point"},"properties":{"_source":"warm_welcome","address":"Basford Road Baptist Church, Nottingham, Nottinghamshire NG6 0JL","description":"","hours":"We 11:00-13:00","title":"Basford Road Baptist Church"},"type":"Feature"},
		{"geometry":{"coordinates":[-1.29436,53.05212],"type":"Point"},"properties":{"_source":"warm_welcome","address":"St Michaels and All Angels Church, Church Lane, Underwood,Notts, Underwood, Nottingham NG165GB","description":"Open from 19/10/22.","hours":"We 00:00-13:00; Th 10:00-00:00","title":"Brinsley with Underwood PCC"},"type":"Feature"},
		{"geometry":{"coordinates":[-1.18674,52.99773],"type":"Point"},"properties":{"_source":"warm_welcome","address":"Broomhill Road, Bulwell, Nottingham NG6 9JL","description":"Open from 28-11-2022. Everybody is welcome, but under 18's must be accompanied by an adult. Open every Monday evening (except bank hols) from 18:00-20:00 for warm space, free soup and refreshments, games, jigsaws & conversation","hours":"Mo 18:00-20:00","title":"BULWELL URC"},"type":"Feature"},
		{"geometry":{"coordinates":[-1.20681,52.98444],"type":"Point"},"properties":{"_source":"warm_welcome","address":"Bells Lane Community Centre, Nottingham, Nottingham NG8 6DD","description":"","hours":"Tu 11:00-13:00","title":"Diversify Education and Communities CIC"},"type":"Feature"},
		{"geometry":{"coordinates":[-1.30895,52.97413],"type":"Point"},"properties":{"_source":"warm_welcome","address":"4b, Ilkeston, Derbyshire DE7 8LH","description":"","hours":"We 11:00-13:00","title":"Elim Christian Centre"},"type":"Feature"},
		{"geometry":{"coordinates":[-1.24716,53.09899],"type":"Point"},"properties":{"_source":"warm_welcome","address":"Hodkinsons road, Kirkby in Ashfield, Nottingham NG17 7DJ","description":"Open from 05/12/22. we are an inclusive centre We are a welcoming centre and will be offering activities each week.","hours":"Mo 10:30-12:00","title":"Everyoneactive"},"type":"Feature"},
		{"geometry":{"coordinates":[-1.21585,52.93518],"type":"Point"},"properties":{"_source":"warm_welcome","address":"Hope House, Nottingham, Nottinghamshire NG9 2RF","description":" Hope House is a holistic community hub where everyone is welcome","hours":"Mo 09:30-12:00; We 09:30-12:00; Th 09:30-12:00; Sa 09:30-10:30","title":"Hope Nottingham CIO"},"type":"Feature"},
		{"geometry":{"coordinates":[-1.32245,53.01916],"type":"Point"},"properties":{"_source":"warm_welcome","address":"Linkmel Rd, nottingham, nottingham ng163RZ","description":"Open from 2/11/22.","hours":"Tu 12:00-14:00; We 10:00-14:00","title":"new horizon church"},"type":"Feature"},
		{"geometry":{"coordinates":[-1.16376,52.92497],"type":"Point"},"properties":{"_source":"warm_welcome","address":"Clifton Lane, Nottingham , Nottinghamshire NG11 7ES","description":"Open from 21/11/22. We are next to Wilford Ambulance Station Sundays 10-11: Coffee and Bible Time","hours":"Tu 12:00-14:00; Su 10:00-11:00","title":"Nottingham South Christadelphians"},"type":"Feature"},
		{"geometry":{"coordinates":[-1.30271,53.07332],"type":"Point"},"properties":{"_source":"warm_welcome","address":"Parish Hall Mansfield Rd, Selston, Nottinghamshire NG16 6EE","description":"Open from 23-11-2022. Book and Jigsaw swap. Selection of pre-school toys and books","hours":"We 10:00-14:00","title":"Seslton Parish Village Halls Charity"},"type":"Feature"},
		{"geometry":{"coordinates":[-1.34220,53.10676],"type":"Point"},"properties":{"_source":"warm_welcome","address":"Thrive, 39 High Street, South Normanton, Derbyshire DE55 2BP","hours":"Fr 09:30-12:30","title":"South Normanton Community Church"},"type":"Feature"},
		{"geometry":{"coordinates":[-1.40466,53.04282],"type":"Point"},"properties":{"_source":"warm_welcome","address":"109A Derby Road, Ripley, Derbyshire DE5 3HT","description":"Open from 09.12.22.","hours":"Fr 10:00-13:00","title":"Springs of Living Water Christian Centre "},"type":"Feature"},
		{"geometry":{"coordinates":[-1.24793,52.92387],"type":"Point"},"properties":{"_source":"warm_welcome","address":"Barn Croft, Inham Nook, Nottingham , Nottinghamshire NG9 4HU","description":" Hot and cold drinks. Food available during cafe hours. Board games available. We ask that children be accompanied by adults.","hours":"Mo 09:00-11:30; Tu 14:00-16:30; We 10:00-12:00; Fr 11:00-13:00","title":"St Barnabas Church, Inham Nook; Christ Church, Chilwell; Hope Nottingham."},"type":"Feature"},
		{"geometry":{"coordinates":[-1.21322,52.92831],"type":"Point"},"properties":{"_source":"warm_welcome","address":"83 High Road, Toton, Nottingham NG9 6EN","description":"Mainly seniors and we are dementia and wheelchair friendly. We are a Renew Wellbeing space. As well as drinks and cake we offer a place to sit and chat or be quiet if you prefer and simple crafts, games and jigsaws","hours":"Tu 10:00-12:00","title":"St Peter's Church Toton"},"type":"Feature"},
		{"geometry":{"coordinates":[-1.33990,53.10059],"type":"Point"},"properties":{"_source":"warm_welcome","address":"The Common, South Normanton, Alfreton, Derbyshire DE55 2EF","hours":"Th 13:00-15:00","title":"The Junction 28 Church"},"type":"Feature"},
		{"geometry":{"coordinates":[-1.20513,53.03650],"type":"Point"},"properties":{"_source":"warm_welcome","address":"Derbyshire Lame, Hucknall, Notts NG157JX","hours":"Tu 10:00-12:00; We 10:00-12:00; Fr 10:00-12:00","title":"The King's Family Church"},"type":"Feature"},
		{"geometry":{"coordinates":[-1.20183,53.03756],"type":"Point"},"properties":{"_source":"warm_welcome","address":"1 High Street, Hucknall , Notts Ng15 7HJ","description":"","hours":"Tu 09:00-12:00; Th 13:00-14:30; Fr 09:00-12:00; Sa 09:00-12:00; Su 10:00-12:00","title":"The Salvation Army "},"type":"Feature"},
		{"geometry":{"coordinates":[-1.14301,52.95633],"type":"Point"},"properties":{"_source":"warm_welcome","address":"The Salvation Army- King Edward Street, Nottingham NG1 1EU","description":"Open from 09 11 2022.","hours":"We 10:00-13:00","title":"The Salvation Army Nottingham WBMH "},"type":"Feature"},
		{"geometry":{"coordinates":[-1.20184,53.03683],"type":"Point"},"properties":{"_source":"warm_welcome","address":"3A Vine Terrace, Hucknall, Nottingham NG15 7HN","description":"Open from 07-11-2022.","hours":"Mo 09:30-14:00; Tu 09:30-14:00; We 09:30-14:00; Th 09:30-14:00; Fr 09:30-14:00","title":"Under One Roof Community Centre "},"type":"Feature"},
		{"geometry":{"coordinates":[-1.20325,53.03692],"type":"Point"},"properties":{"_source":"warm_welcome","address":"15 Watnall Road, Hucknall, Nottingham NG15 7LD","description":"","hours":"Mo 09:00-12:00; Tu 09:00-12:00; We 09:00-12:00; Th 09:00-12:00; Fr 09:00-12:00; Sa 09:00-12:00; Su 10:00-12:30","title":"Watnall Road Baptist Church"},"type":"Feature"},
		{"geometry":{"coordinates":[-1.19666,52.97030],"type":"Point"},"properties":{"_source":"warm_welcome","address":"St Margaret's Church, Nottingham NG8 5GE","description":"On Wednesday's we only cater for youth. Our space is open to everyone on a Thursday morning.","hours":"We 15:00-16:30; Th 10:00-12:00","title":"Woven St Margaret's"},"type":"Feature"},
		{"geometry":{"coordinates":[-1.16583,52.92278],"type":"Point"},"properties":{"_source":"warm_spaces","address":"Clifton Lane, Nottingham, England, NG11 7ES","title":"Nottingham South Christadelphian Church","url":"https://www.lightyourlife.org"},"type":"Feature"},
		{"geometry":{"coordinates":[-1.27829,52.93030],"type":"Point"},"properties":{"_source":"warm_spaces","address":"Warren Avenue, Nottingham, England, NG9 8FD","title":"Carnegie Centre","url":"https://www.thehelpfulbureau.org.uk"},"type":"Feature"},
		{"geometry":{"coordinates":[-1.16712,52.99519],"type":"Point"},"properties":{"_source":"warm_spaces","address":"Bestwood Estate Community Centre, Nottingham, England, NG5 5HT","title":"Better Off Together","url":"https://www.facebook.com/profile.php?id=100087856831151"},"type":"Feature"},
		{"geometry":{"coordinates":[-1.09241,53.03802],"type":"Point"},"properties":{"_source":"warm_spaces","address":"Main Street, Nottingham, England, NG14","title":"St Wilfrid's Church","url":"https://www.stwilfrids-church.co.uk"},"type":"Feature"},
		{"geometry":{"coordinates":[-1.30718,52.97162],"type":"Point"},"properties":{"_source":"warm_spaces","address":"Erewash Museum, High Street, Ilkeston, England, DE7 5JA","title":"The Old Stables Tea Room"},"type":"Feature"}
	]
}
