{
	"type": "FeatureCollection",
	"features": [
		{"geometry":{"coordinates":[-1.14693,52.75103],"type":"Point"},"properties":{"_source":"warm_welcome","address":"Beveridge Street, Barrow upon Soar, Loughborough, Leicestershire LE128QQ","description":"Fridays is for seniors only. Anyone welcome to church services on Sundays.Available to all. Cafe on Monday and Tuesday.","hours":"Mo 11:00-12:30; Tu 11:30-13:30; Fr 10:00-12:00; Su 10:00-11:30","title":"Barrow Baptist Church"},"type":"Feature"},
		{"geometry":{"coordinates":[-1.36704,52.75395],"type":"Point"},"properties":{"_source":"warm_welcome","address":"Thringstone House, Thringstone, Leicestershire LE67 8NR","description":"","hours":"Mo 10:00-13:00; We 10:00-13:00; Th 10:00-13:00","title":"Charles Booth Centre"},"type":"Feature"},
		{"geometry":{"coordinates":[-1.38542,52.72799],"type":"Point"},"properties":{"_source":"warm_welcome","address":"ASHBY ROAD, COALVILLE, Leicestershire LE67 3LF","description":"Open from 18th November 2022. Hot soup Wednesdays when there is also a craft group pm","hours":"We 10:00-15:30; Fr 10:00-12:00","title":"Ebenezer Baptist Church"},"type":"Feature"},
		{"geometry":{"coordinates":[-1.29173,52.90719],"type":"Point"},"properties":{"_source":"warm_welcome","address":"The Petersham Hall, Long Eaton, Nottingham, Nottingham NG10 4DZ","hours":"Mo 09:00-11:00","title":"Hope Long Eaton"},"type":"Feature"},
		{"geometry":{"coordinates":[-1.27801,52.90104],"type":"Point"},"properties":{"_source":"warm_welcome","address":"82a Derby Road, Long Eaton, Nottinghamshire NG10 4LB","hours":"Tu 13:30-15:00; We 10:30-15:00; Th 10:30-15:00; Fr 10:30-15:00","title":"Infusion Coffee House"},"type":"Feature"},
		{"geometry":{"coordinates":[-1.27230,52.84026],"type":"Point"},"properties":{"_source":"warm_welcome","address":"High Street, Kegworth, Leicestershire De742fr","description":"Open from 04/11/2022.","hours":"Mo 14:00-16:00; Fr 10:00-12:00; Su 10:00-12:30","title":"Kegworth Baptist Church"},"type":"Feature"},
		{"geometry":{"coordinates":[-1.21212,52.77030],"type":"Point"},"properties":{"_source":"warm_welcome","address":"39 Frederick Street, Loughborough, Leicestershire LE11 3BH","description":"Open from 16-11-2022.","hours":"We 10:00-14:00; Fr 10:00-14:00","title":"Loughborough United Reformed Church"},"type":"Feature"},
		{"geometry":{"coordinates":[-1.37377,52.72211],"type":"Point"},"properties":{"_source":"warm_welcome","address":"85 Belvoir Rd , COALVILLE, Leicestershire LE67 3PH","description":"","hours":"We 18:00-20:00","title":"MRC Community Action"},"type":"Feature"},
		{"geometry":{"coordinates":[-1.13669,52.72953],"type":"Point"},"properties":{"_source":"warm_welcome","address":"The Parish Rooms, Little Lane, Mountsorrel , Leicestershire Le127bh","description":"Everyone is welcome. FREE cuppa soups, sanitary products and advice/information/support.","hours":"We 11:00-14:00; Sa 11:00-14:00","title":"Mug & Mingle (Leicestershire & Rutland Youth and Family Services)"},"type":"Feature"},
		{"geometry":{"coordinates":[-1.13958,52.70858],"type":"Point"},"properties":{"_source":"warm_welcome","address":"Woodgate , Rothley, Leicester LE7-7LJ","description":"","hours":"Tu 10:30-12:00; Fr 10:30-12:00","title":"Rothley Baptist Church"},"type":"Feature"},
		{"geometry":{"coordinates":[-1.13432,52.70896],"type":"Point"},"properties":{"_source":"warm_welcome","address":"School Street, Rothley, Leicester LE7 7PD","description":"Open from 18-11-2022. Unfortunately we cannot open on 2 December ","hours":"Fr 14:00-17:00","title":"Rothley Parish Church"},"type":"Feature"},
		{"geometry":{"coordinates":[-1.28678,52.88661],"type":"Point"},"properties":{"_source":"warm_welcome","address":"St Marys Church Wilsthorpe Rd, Sawley, Notts NG10 3JW","description":"Open from 04-11-2022. All ages welcome .Toddler toys available though limited space to play.Puzzle books, dominoes,jigsaws etc for al ages or a quiet area to sit socially distance if preferred Free tea coffee hot chocolate toast biscuits and porridge. Dietry requirements catered for. Newspapers,puzzles, table games,childrens toys, quiet area","hours":"Fr 10:30-02:00","title":"Sawley St Marys Church"},"type":"Feature"},
		{"geometry":{"coordinates":[-1.11004,52.72609],"type":"Point"},"properties":{"_source":"warm_welcome","address":"Cossington Road, Sileby, Loughborough, Leicestershire LE12 7RS","description":"Open from Monday, 7th November 2022.","hours":"Mo 14:00-17:00; We 10:00-13:00; Th 16:00-18:00; Fr 10:00-13:00; Sa 10:00-13:00","title":"Sileby Community Library"},"type":"Feature"},
		{"geometry":{"coordinates":[-1.33824,52.84152],"type":"Point"},"properties":{"_source":"warm_welcome","address":"St Anne's Lane, Castle Donington, Leicestershire DE74 2JH","description":"Open from 04-11-2022.","hours":"Fr 10:00-14:00","title":"St Edward's & Churches Together"},"type":"Feature"},
		{"geometry":{"coordinates":[-1.15111,52.89214],"type":"Point"},"properties":{"_source":"warm_welcome","address":"church street, Ruddington, Nottingham NG11 6EL","description":"Open from 1st and 4th Mondays. our focus is the hot meal to build community and this must be pre-booked if you wish to eat with us. Children are welcome but MUST be accompanied by an adult over 18. we offer a 2 course hot meal which must be booked in advance through Eventbrite, but you can also come for free refreshments and company. ","hours":"Mo 12:30-14:00","title":"St Peter's Church Ruddington"},"type":"Feature"},
		{"geometry":{"coordinates":[-1.21708,52.77283],"type":"Point"},"properties":{"_source":"warm_welcome","address":"St Peters Centre, , Storer Rd, Loughborough LE11 5EQ","description":"Tues has a family friendly focus; Thurs is a general welcome to all; Sundays a warm welcome is provided at our church services, hot and cold drinks are available before and after gatherings. ","hours":"Tu 15:30-17:30; Th 14:00-17:00; Su 10:00-12:30","title":"St Peters Centre"},"type":"Feature"},
		{"geometry":{"coordinates":[-1.21390,52.77110],"type":"Point"},"properties":{"_source":"warm_welcome","address":"Burleigh Road , LOUGHBOROUGH, Leicestershire LE11 3BA","description":"Open from 15th November 2022. Catering for all people Pool Table, Table Tennis, Board Games, Jigsaws","hours":"Tu 14:00-18:00","title":"The Salvation Army"},"type":"Feature"},
		{"geometry":{"coordinates":[-1.25622,52.90754],"type":"Point"},"properties":{"_source":"warm_welcome","address":"toton methodist church, toton, nottingham ng9 6ga","description":"can cater for all ages. Already have seniors and those with dementia attendLarge church area suitable for all ages, no stairs. Disabled toilet, baby changing facilities. Jig saws, board games etc. provided, childrens toys can be provided","hours":"Mo 11:00-15:00","title":"Toton churches"},"type":"Feature"},
		{"geometry":{"coordinates":[-1.07394,52.69985],"type":"Point"},"properties":{"_source":"warm_spaces","address":"3 High Street, Leicester, England, LE7 1GP","title":"The Pharmacie Arms","url":"https://pharmarms.co.uk"},"type":"Feature"},
		{"geometry":{"coordinates":[-1.21717,52.77288],"type":"Point"},"properties":{"_source":"warm_spaces","address":"Storer Road, Loughborough, England, LE11 5EQ","title":"St Peterâ€™s Centre","url":"https://www.thestpeterscentre.org.uk"},"type":"Feature"},
		{"geometry":{"coordinates":[-1.27797,52.90105],"type":"Point"},"properties":{"_source":"warm_spaces","address":"Infusion Coffee House, 82 Derby Road, Nottingham, England, NG10 4LB","hours":"We-Fr 10:30-15:00","title":"Infusion Coffee House","url":"https://www.longeatonoasis.co.uk"},"type":"Feature"}
	]
}
