{
	"type": "FeatureCollection",
	"features": [
		{"geometry":{"coordinates":[-1.16365,52.69191],"type":"Point"},"properties":{"_source":"warm_welcome","address":"All Saints Church , Thurcaston , Leicestershire LE7 7JB","description":"Open from 09-11-2022. Parent/ carers on school run Church space alongside warm meeting room","hours":"We 14:00-16:00","title":"All Saints Thurcaston "},"type":"Feature"},
		{"geometry":{"coordinates":[-1.14049,52.61179],"type":"Point"},"properties":{"_source":"warm_welcome","address":"Aylestone Library, Leicester, Leicestershire LE2 6LU","description":" Library is based within Aylestone Leisure Centre. ","hours":"Mo 08:00-19:00; Tu 08:00-19:00; We 08:00-19:00; Th 08:00-19:00; Fr 08:00-19:00; Sa 08:00-13:00; Su 08:00-13:00","title":"Aylestone Library"},"type":"Feature"},
		{"geometry":{"coordinates":[-1.36915,52.64757],"type":"Point"},"properties":{"_source":"warm_welcome","address":"Barlestone Baptist Church, Barlestone, Leics CV13 0EJ","hours":"We 10:00-16:00","title":"Barlestone Baptist Church"},"type":"Feature"},
		{"geometry":{"coordinates":[-1.16393,52.66616],"type":"Point"},"properties":{"_source":"warm_welcome","address":"Beaumont Way, Leicester, Leics LE4 1DS","description":" Wi-Fi and free computer use available to Library members, it is free to join Leicester Libraries.Parking is available at the shopping centre, disabled parking at the side of our building.","hours":"Mo 09:00-18:30; Tu 09:00-18:30; We 09:00-18:30; Th 09:00-18:30; Fr 09:00-17:00; Sa 09:30-13:00","title":"Beaumont Leys Library"},"type":"Feature"},
		{"geometry":{"coordinates":[-1.16416,52.62364],"type":"Point"},"properties":{"_source":"warm_welcome","address":"130 Braunstone Avenue, Braunstone, Leicester LE3 1LE","description":"everyone welcome from families to the elderly Cafe currently closed. but looking to reopen soon","hours":"Mo 09:00-17:00; Tu 09:00-19:00; We 09:00-17:00; Th 09:00-19:00; Fr 09:00-17:00; Sa 10:00-16:00","title":"Brite Centre"},"type":"Feature"},
		{"geometry":{"coordinates":[-1.35035,52.52683],"type":"Point"},"properties":{"_source":"warm_welcome","address":"40 Windsor Street, Burbage, HINCKLEY, LEICS LE10 2EF","description":"Open from 16/11/2022. All-age adults and accompanying children No hazard access for the infirm. Open WED 13:30 - 17:30 and FRI 09:00 - 13:00 during termite","hours":"We 13:30-17:30; Fr 09:00-13:00","title":"Burbage Methodist Church"},"type":"Feature"},
		{"geometry":{"coordinates":[-1.11557,52.61734],"type":"Point"},"properties":{"_source":"warm_welcome","address":"105a Clarendon Park Road, Leicester LE2 3AH","description":"Open from November 9 2022 onwards. A place to socialise, or read a book, or work, or do simple crafts, or relax. Board games available","hours":"We 14:00-20:00","title":"Christchurch, Clarendon Park"},"type":"Feature"},
		{"geometry":{"coordinates":[-1.19577,52.55013],"type":"Point"},"properties":{"_source":"warm_welcome","address":"Park Road, Cosby, Leicestershire LE9 1RN","description":"Open from 24/11/22. We cater for any age group - children to be accompanied by an adult. Books, jigsaws, quiet space, chatty space, but most importantly, a warm welcome and warm space!","hours":"Th 14:00-18:00","title":"Cosby Methodist Church"},"type":"Feature"},
		{"geometry":{"coordinates":[-1.35808,52.64415],"type":"Point"},"properties":{"_source":"warm_welcome","address":"Newbold Road, NUNEATON, Warwickshire CV13 0DZ","description":"Open from 10-10-2022. Every Friday lunch is available for Â£4.00 hot meal and a pudding, Booking is essential Tuesday morning we run a community cafe 10 -12 with a full menu","hours":"Mo 10:00-14:00; Tu 10:00-14:00; Th 10:00-14:00; Fr 10:00-14:00; Su 10:30-13:00","title":"Elohim Christian Church "},"type":"Feature"},
		{"geometry":{"coordinates":[-1.15101,52.63950],"type":"Point"},"properties":{"_source":"warm_welcome","address":"Mantle Road, Leicester, Leicestershire LE3 5HG","description":"","hours":"Mo 09:00-18:00; Tu 10:00-17:00; We 10:00-18:00; Th 10:00-17:00; Fr 10:00-16:00; Sa 10:00-16:00","title":"Fosse Neighbourhood Centre"},"type":"Feature"},
		{"geometry":{"coordinates":[-1.06573,52.65332],"type":"Point"},"properties":{"_source":"warm_welcome","address":"20 Maidenwell Avenue, Hamilton, Leicester LE5 1BL","description":"","hours":"Mo 10:00-14:00; Tu 10:00-17:00; We 10:00-17:00; Th 14:00-19:00; Fr 10:00-17:00; Sa 10:00-16:00; Su 12:00-16:00","title":"Hamilton Library"},"type":"Feature"},
		{"geometry":{"coordinates":[-1.37687,52.54188],"type":"Point"},"properties":{"_source":"warm_welcome","address":"1 Cleveland Road, Hinckley, Leicestershire LE10 0AJ","description":" You are welcome to join us for our weekly tea and coffee morning. Pop-in runs every Tuesday morning from 10:30am-12noon. Feel free to drop by at anytime and you can get a warm drink, a biscuit and have an opportunity to chat with others.","hours":"Tu 10:30-12:00","title":"Holy Trinity Hinckley"},"type":"Feature"},
		{"geometry":{"coordinates":[-1.11833,52.61648],"type":"Point"},"properties":{"_source":"warm_welcome","address":"165 Clarendon Park Road, Leicester, Leicester LE2 3AJ","description":"","hours":"Mo 10:00-18:30; Tu 10:00-18:30; We 10:00-18:30; Th 10:00-18:30; Fr 10:00-18:30; Sa 10:00-16:00","title":"Knighton Library"},"type":"Feature"},
		{"geometry":{"coordinates":[-1.13270,52.63300],"type":"Point"},"properties":{"_source":"warm_welcome","address":"Leicester Central Library, Bishop Street, Leicester LE1 6AA","description":"","hours":"Mo 09:30-19:00; Tu 09:30-19:00; We 09:30-19:00; Th 09:30-19:00; Fr 09:30-17:00; Sa 09:00-16:00","title":"Leicester Central Library "},"type":"Feature"},
		{"geometry":{"coordinates":[-1.13363,52.60992],"type":"Point"},"properties":{"_source":"warm_welcome","address":"2 Knighton Lane East, Leicester LE2 6LU","description":"","title":"Leicester City Council "},"type":"Feature"},
		{"geometry":{"coordinates":[-1.17675,52.64640],"type":"Point"},"properties":{"_source":"warm_welcome","address":"321 Aikman Avenue, Leicester LE3 9PW","description":"","hours":"Mo 10:00-17:00; Tu 10:00-17:00; We 10:00-19:00; Th 10:00-17:00; Fr 10:00-17:00; Sa 10:00-13:00","title":"Leicester City Council (New Parks Library)"},"type":"Feature"},
		{"geometry":{"coordinates":[-1.12063,52.65085],"type":"Point"},"properties":{"_source":"warm_welcome","address":"24 Cossington St, Leicester, Leicester LE4 6JD","description":"Open from 21/10/22.","hours":"Mo 10:00-19:00; Tu 10:00-19:00; We 10:00-19:00; Th 10:00-19:00; Fr 10:00-19:00; Sa 10:00-16:00; Su 12:00-16:00","title":"Leicester City Council Neighbourhood Services"},"type":"Feature"},
		{"geometry":{"coordinates":[-1.15310,52.62841],"type":"Point"},"properties":{"_source":"warm_welcome","address":"Harrow Rd, Leicester LE3 0BS","description":"Open from 07-12-2022. We cater for all ages, and welcome families. There is a pre-school play area, games, colouring and craft available for older children. Free lunch available and friendship group 2-4 every Wednesday. Closed 28th December re-0pen on 4th January.","hours":"We 09:00-17:00","title":"Leicester Elim Church"},"type":"Feature"},
		{"geometry":{"coordinates":[-1.13766,52.59709],"type":"Point"},"properties":{"_source":"warm_welcome","address":"Pork Pie Library and community Centre, Leicester, Leicestershire LE2 6QS","description":"","hours":"Mo 09:00-17:00; Tu 09:00-17:00; We 09:00-19:00; Th 09:00-17:00; Fr 09:00-17:00; Sa 10:00-13:00","title":"Pork Pie Library and Community Centre"},"type":"Feature"},
		{"geometry":{"coordinates":[-1.10473,52.66308],"type":"Point"},"properties":{"_source":"warm_welcome","address":"Rushey Mead Library, Lockerbie Avenue, Leicester LE4 7ZX","description":"","hours":"Mo 10:00-18:00; Tu 13:00-18:30; Th 13:00-18:30; Fr 10:00-17:00; Sa 10:00-13:00","title":"Rushey Mead Library"},"type":"Feature"},
		{"geometry":{"coordinates":[-1.12008,52.65442],"type":"Point"},"properties":{"_source":"warm_welcome","address":"2a wingfield street, LEICESTER, LEICESTER, Leicester LE45DS","description":"Elderly and vulnerable community. We have access to Asian Cuisine tiffins popular with the Indian and Asian community.","hours":"Mo 09:00-15:00; Tu 09:00-15:00; We 09:00-15:00; Th 09:00-15:00; Fr 09:00-15:00","title":"SANTOSH DAY CENTRE"},"type":"Feature"},
		{"geometry":{"coordinates":[-1.28120,52.53541],"type":"Point"},"properties":{"_source":"warm_welcome","address":"Church Street, Sapcote, Leicester LE9 4FG","description":"Open from Monday 14th November. Check posters for venues (All Saints Mon pm, Wed 11.30) (Methodist Mon am, Wed pm Fri am) All other times at Sapcote Community Library","hours":"Mo 10:00-13:00; Tu 10:00-12:00; We 11:30-13:30; Th 14:00-17:00; Fr 10:00-13:00; Sa 10:00-13:00","title":"Sapcote All Saints Church"},"type":"Feature"},
		{"geometry":{"coordinates":[-1.09698,52.64024],"type":"Point"},"properties":{"_source":"warm_welcome","address":"2 French Road, Leicester, Leicestershire LE5 4AH","description":"","hours":"Mo 09:30-17:00; Tu 09:30-19:00; We 09:30-19:00; Th 09:30-19:00; Fr 09:30-17:00; Sa 10:00-16:00","title":"St Barnabas Library Leicester City Council Neighbourhood Services "},"type":"Feature"},
		{"geometry":{"coordinates":[-1.34842,52.52970],"type":"Point"},"properties":{"_source":"warm_welcome","address":"St Catherine's Church, Hinckley Road, Burbage LE10 2DE","description":" Mondays - Soup and Roll Lunch, Alternate Wednesdays Lunch Club at 12:00, Every Wednesday activities for families 15:00-17:00","hours":"Mo 11:00-13:00; We 12:00-13:30","title":"St Catherine's Church, Burbage"},"type":"Feature"},
		{"geometry":{"coordinates":[-1.09010,52.63655],"type":"Point"},"properties":{"_source":"warm_welcome","address":"141a Coleman Road, Leicester, Leicestershire LE26SR","description":"Open from 03/10/22. All are welcome We have board games and jigsaws available. We are encouraging folks to come and cook their midday meal in our kitchen","hours":"Mo 10:00-15:00; Fr 10:00-15:00","title":"St Chad's church Hall"},"type":"Feature"},
		{"geometry":{"coordinates":[-1.15322,52.63428],"type":"Point"},"properties":{"_source":"warm_welcome","address":"St Paul's & St Augustine's Worship Centre, 2 Kirby Road, Leicester LE3 6BA","description":"People who need to socialise in a safe environment and enjoy chatting over refreshments. We also have various craft activities and jigsaws etc. Drop in tea/coffee every Wednesday PM. Table top sale held on 2nd Saturday of every month. Games afternoons held approx. bi-monthly","hours":"We 14:00-16:00","title":"ST PAULS PCC COMMUNITY HUB"},"type":"Feature"},
		{"geometry":{"coordinates":[-1.08071,52.59716],"type":"Point"},"properties":{"_source":"warm_welcome","address":"St Peter's Centre, Wigston Road, Oadby, Leicester LE2 5QE","description":"Open from 14-11-2022.","hours":"Mo 09:30-12:30; We 09:30-12:30; Fr 09:30-12:30","title":"St Peter's Church"},"type":"Feature"},
		{"geometry":{"coordinates":[-1.20565,52.64958],"type":"Point"},"properties":{"_source":"warm_welcome","address":"St Peter's Church Centre, Church Road, Glenfield, Leicester LE3 8DP","description":"Open from 27/10/2022.","hours":"Th 09:30-12:00","title":"St Peter's, Glenfield"},"type":"Feature"},
		{"geometry":{"coordinates":[-1.10532,52.61502],"type":"Point"},"properties":{"_source":"warm_welcome","address":"315 London Road, Leicester, Leicestershire LE2 3ND","description":" Chat with others, enjoy simple activities, or take time to be quiet. Hot drinks and snacks available, and please feel free to bring lunch.","title":"Stoneygate Baptist Church"},"type":"Feature"},
		{"geometry":{"coordinates":[-1.12683,52.64295],"type":"Point"},"properties":{"_source":"warm_welcome","address":"43 Melton Street, Leicester LE1 3NB","description":"","hours":"Mo 09:30-14:00; Tu 09:30-14:00; Th 09:30-14:00; Fr 09:30-14:00","title":"The Bridge Homelessness to Hope"},"type":"Feature"},
		{"geometry":{"coordinates":[-1.18322,52.62458],"type":"Point"},"properties":{"_source":"warm_welcome","address":"Bendbow Rise, Braunstone, Leicester LE3 1QA","description":" We are offering a free pie lunch at 12:30pm every Monday","hours":"Mo 09:00-14:00","title":"The Oak Centre"},"type":"Feature"},
		{"geometry":{"coordinates":[-1.37032,52.54298],"type":"Point"},"properties":{"_source":"warm_welcome","address":"The Pathways Centre, Hinckley Baptist Church, Baptist Walk, Hinckley, Leicestershire LE10 1PR","description":"We are open to anyone A bowl of soup, roll and hot drink available during this time free of charge.","hours":"Mo 10:00-15:00; We 10:00-15:00","title":"The Pathways Centre, Hinckley Baptist Church"},"type":"Feature"},
		{"geometry":{"coordinates":[-1.14079,52.58631],"type":"Point"},"properties":{"_source":"warm_welcome","address":"The salvation Army Ladysmith road, South Wigston, Leicester LE184UZ","description":"We cater for all age groups We have a coffee shop on site where hot drinks, cakes & sandwiches can be purchased","hours":"Mo 09:00-15:00; Tu 09:00-15:00; We 09:00-15:00; Th 09:00-15:00; Fr 09:00-15:00","title":"The Salvation Army Leicester South Corps"},"type":"Feature"},
		{"geometry":{"coordinates":[-1.40421,52.53528],"type":"Point"},"properties":{"_source":"warm_welcome","address":"Trinity House, Wharf Farm, Hinckley, Leicestershire Le10 0NF","description":"","hours":"Mo 14:00-20:00; Tu 14:00-20:00; We 14:00-20:00; Th 14:00-20:00; Fr 14:00-20:00; Sa 14:00-20:00; Su 14:00-20:00","title":"We Care UK"},"type":"Feature"},
		{"geometry":{"coordinates":[-1.11008,52.63638],"type":"Point"},"properties":{"_source":"warm_welcome","address":"Wesley Hall Community Centre, 76 Hartington Road , Leicester LE2 0GN","description":"","title":"Wesley Hall Community Centre"},"type":"Feature"},
		{"geometry":{"coordinates":[-1.12559,52.62456],"type":"Point"},"properties":{"_source":"warm_spaces","address":"Attenborough Arts Centre, Lancaster Road, Leicester, England, LE1 7HA","title":"Attenborough Arts Centre (University of Leicester)","url":"https://www.attenborougharts.com"},"type":"Feature"},
		{"geometry":{"coordinates":[-1.39685,52.68803],"type":"Point"},"properties":{"_source":"warm_spaces","address":"The Palace Community Centre Ltd, High Street, Ibstock, England, LE67 6LG","title":"The Palace Ibstock","url":"https://www.thepalaceibstock.co.uk"},"type":"Feature"}
	]
}
