{
	"type": "FeatureCollection",
	"features": [
		{"geometry":{"coordinates":[-1.08498,52.29812],"type":"Point"},"properties":{"_source":"warm_welcome","address":"Station Road, Long Buckby, Northants NN6 7QB","description":"","hours":"Tu 10:00-16:30; We 14:00-16:00; Th 10:00-16:30; Fr 10:00-16:30; Sa 10:00-12:30","title":"Buckby Library & Hub"},"type":"Feature"},
		{"geometry":{"coordinates":[-1.20058,52.45626],"type":"Point"},"properties":{"_source":"warm_welcome","address":"Chapel Street Christian Fellowship, Lutterworth, Leicestershire LE17 4EU","description":"Open from 20/10/2022. We offer hot drinks, soups, toasties and plenty of snacks. There's also toys and games available for families with children.","hours":"Th 14:00-17:00","title":"Chapel Street Christian Fellowship"},"type":"Feature"},
		{"geometry":{"coordinates":[-1.20449,52.45698],"type":"Point"},"properties":{"_source":"warm_welcome","address":"Lutterworth Sports Centre , Lutterworth , Leicestershire LE174RB","description":"","hours":"Mo 06:30-22:00; Tu 06:30-22:00; We 06:30-22:00; Th 06:30-22:00; Fr 06:30-22:00; Sa 08:00-18:00; Su 08:00-18:00","title":"Everyone Active"},"type":"Feature"},
		{"geometry":{"coordinates":[-1.25967,52.37390],"type":"Point"},"properties":{"_source":"warm_welcome","address":"23 Albert Street, Rugby, Warwickshire CV21 2SD","description":"We cater for everyone, including the elderly. We are also a CAP job club, and will be able to help with Job search issues. We provide a warm drink an sometimes warm soup and rolls. ","hours":"Mo 09:00-16:00; Tu 09:00-18:30; We 09:00-20:00; Th 09:00-16:00; Sa 09:00-12:00; Su 09:00-14:00","title":"Harvest Fellowship Church, Rugby"},"type":"Feature"},
		{"geometry":{"coordinates":[-1.30637,52.38002],"type":"Point"},"properties":{"_source":"warm_welcome","address":"Long Lawford Methodist Church, 18 School Street , Long Lawford, Rugby CV23 9AT","description":" Coffee, cake. soup and roll ","hours":"We 09:00-13:30","title":"Refresh warm space"},"type":"Feature"},
		{"geometry":{"coordinates":[-1.26085,52.37521],"type":"Point"},"properties":{"_source":"warm_welcome","address":"Regent Place, Rugby, United Kingdom CV21 2PJ","description":"Open from 02-12-22.","hours":"Fr 10:00-16:00","title":"Rugby Baptist Church"},"type":"Feature"},
		{"geometry":{"coordinates":[-1.26564,52.36976],"type":"Point"},"properties":{"_source":"warm_welcome","address":"Russellsheim Way, Rugby , Warwickshire CV22 7TB","description":"Everyone is welcome. We are an inclusive safe space There is also a cafe operating. ","hours":"Tu 10:00-14:00; We 10:00-14:00; Th 10:00-14:00; Fr 10:00-12:00","title":"Rugby Methodist Church Centre "},"type":"Feature"},
		{"geometry":{"coordinates":[-1.26638,52.37275],"type":"Point"},"properties":{"_source":"warm_welcome","address":"The Salvation Army, Bennfield Road, Rugby, Warwickshire CV21 2AS","description":"Open from 28th October 2022.","hours":"Fr 10:00-18:00","title":"Rugby Salvation Army"},"type":"Feature"},
		{"geometry":{"coordinates":[-1.27615,52.37299],"type":"Point"},"properties":{"_source":"warm_welcome","address":"St Oswald's Church, 131 Lawford Road, Rugby, Warwickshire CV21 2HR","description":"Aimed at adults, but all welcome. Connexions Drop-In with optional lunch. Tea/Coffee, games, occasional speakers.","hours":"Tu 10:45-13:00","title":"St Oswald's Church - Connexions"},"type":"Feature"},
		{"geometry":{"coordinates":[-1.26927,52.37364],"type":"Point"},"properties":{"_source":"warm_welcome","address":"Oliver Street, Rugby, Warwickshire CV22 2LE","description":"Open from 02-11-2022.","hours":"Mo 10:00-16:00; We 10:00-16:00","title":"The Church of Jesus Christ of Latter-day Saints"},"type":"Feature"},
		{"geometry":{"coordinates":[-1.26114,52.37456],"type":"Point"},"properties":{"_source":"warm_spaces","address":"Regent Place, Rugby, England, CV21 2PJ","title":"Rugby Baptist Church Warm Space"},"type":"Feature"},
		{"geometry":{"coordinates":[-1.23492,52.36099],"type":"Point"},"properties":{"_source":"warm_spaces","address":"Saint Johns Avenue, Rugby, England, CV22 5HR","title":"St George's Church Rugby","url":"https://stgeorgesrugby.org.uk"},"type":"Feature"},
		{"geometry":{"coordinates":[-1.26597,52.37501],"type":"Point"},"properties":{"_source":"warm_spaces","address":"Oliver Street, Rugby, England, CV21 2LE","title":"The Church of Jesus Christ of Latter-day Saints"},"type":"Feature"},
		{"geometry":{"coordinates":[-1.27660,52.37288],"type":"Point"},"properties":{"_source":"warm_spaces","address":"St Oswald&#39;s Church, Lawford Road, Rugby, England, CV21 2HR","title":"St Oswald's - Connexions","url":"https://www.smso.org.uk"},"type":"Feature"},
		{"geometry":{"coordinates":[-1.08255,52.30049],"type":"Point"},"properties":{"_source":"west_northamptonshire","address":"Station Road, Long Buckby, NN6 7QB","contact":"Phone: 07514 508204","title":"Buckby Library and Hub"},"type":"Feature"},
		{"geometry":{"coordinates":[-1.13819,52.34832],"type":"Point"},"properties":{"_source":"west_northamptonshire","address":"Church Street, Crick NN6 7TP","contact":"Phone: 07748 984628","title":"The Crick Old School"},"type":"Feature"}
	]
}
