{
	"type": "FeatureCollection",
	"features": [
		{"geometry":{"coordinates":[-1.16011,52.26001],"type":"Point"},"properties":{"_source":"warm_welcome","address":"Golding Close, Daventry, Northamptonshire NN11 4FB","description":" Everyone is welcome. Come and see us for a hot drink, warm welcome and friendly faces.","hours":"Tu 10:00-12:00; We 10:00-12:00; Th 10:00-12:00","title":"Daventry Methodist Church"},"type":"Feature"},
		{"geometry":{"coordinates":[-1.38567,52.25792],"type":"Point"},"properties":{"_source":"warm_welcome","address":"Southam Congregational Church, Wood Street, Southam CV47 1PP","description":"Open from 02-11-2022.","hours":"We 10:00-16:00","title":"Southam Congregational Church"},"type":"Feature"},
		{"geometry":{"coordinates":[-1.16082,52.25938],"type":"Point"},"properties":{"_source":"warm_spaces","address":"6 Golding Close, Daventry, England, NN11 4FH","title":"Open Door at Daventry Methodist","url":"https://www.daventrymethodist.org/alphabetcafe.htm"},"type":"Feature"},
		{"geometry":{"coordinates":[-1.34642,52.07870],"type":"Point"},"properties":{"_source":"warm_spaces","address":"Rotary Way, Banbury, England, OX16 1ER","title":"The Book Cafe at Hanwell Fields Community Centre","url":"https://www.facebook.com/groups/528384525387246"},"type":"Feature"},
		{"geometry":{"coordinates":[-1.15993,52.25772],"type":"Point"},"properties":{"_source":"west_northamptonshire","address":"The New Street Centre, 13 New Street, Daventry NN11 4BT","contact":"Phone: 01327 300614","title":"Daventry Volunteer Centre"},"type":"Feature"},
		{"geometry":{"coordinates":[-1.15993,52.25772],"type":"Point"},"properties":{"_source":"west_northamptonshire","address":"New street, Daventry NN11 4BT","contact":"Phone: 07484 286901","title":"Windsor Lodge Tea Room"},"type":"Feature"},
		{"geometry":{"coordinates":[-1.18155,52.22700],"type":"Point"},"properties":{"_source":"west_northamptonshire","address":"The Green, Badby, Daventry, NN11 3AF","contact":"Phone: 01327 439651","title":"Badby Village Hall"},"type":"Feature"},
		{"geometry":{"coordinates":[-1.16000,52.25900],"type":"Point"},"properties":{"_source":"west_northamptonshire","address":"The Abbey Market Square, Daventry, NN11 4XG","contact":"Phone: 0300 126 7000","title":"Daventry Library"},"type":"Feature"},
		{"geometry":{"coordinates":[-1.20297,52.17151],"type":"Point"},"properties":{"_source":"west_northamptonshire","address":"The Nest Scrivens Hill Woodford Halse, NN11 6SU","contact":"Phone: N/A","title":"Woodford Halse Community Larder"},"type":"Feature"},
		{"geometry":{"coordinates":[-1.27229,52.07125],"type":"Point"},"properties":{"_source":"west_northamptonshire","address":"Main Road, Middleton Cheney OX17 2PD","contact":"Phone: 01604 368277","title":"Middleton Cheney Community Library"},"type":"Feature"}
	]
}
