{
	"type": "FeatureCollection",
	"features": [
		{"geometry":{"coordinates":[-1.19635,51.76728],"type":"Point"},"properties":{"_source":"warm_welcome","address":"Barton Neighbourhood Centre Underhill Circus, Headington, Oxford , Oxfordshire OX3 9LS","description":"","hours":"Mo 14:00-18:00","title":"Barton Community Church"},"type":"Feature"},
		{"geometry":{"coordinates":[-1.19157,51.76164],"type":"Point"},"properties":{"_source":"warm_welcome","address":"Collinwood Rd, , Risinghurst, Headington, , Oxford OX3 8HW","description":"Open from 10-10-2022. Everyone is welcome to come to the coffee lounge at COLLINWOOD ROAD CHURCH, RISINGHURST (Collinwood Rd, Headington, Oxford OX3 8HW). We hope you will enjoy a warm welcome to a warm space, with a chance to get to know your neighbours and make new friends. ","hours":"Mo 10:00-16:00; Tu 10:00-16:00; Th 10:00-16:00; Su 10:00-12:00","title":"Collinwood Road Church"},"type":"Feature"},
		{"geometry":{"coordinates":[-1.22718,51.73077],"type":"Point"},"properties":{"_source":"warm_welcome","address":"Rose Hill Methodist Church, Rose Hill,Iffley, Oxford OX4 4HS","description":"","hours":"Mo 14:00-16:30","title":"Community Drop In at Rose Hill Methodist Church"},"type":"Feature"},
		{"geometry":{"coordinates":[-1.21103,51.76319],"type":"Point"},"properties":{"_source":"warm_welcome","address":"78, Old High Street, Old Headington, Oxford OX3 9HW","description":" Open from 01-11-2022.On Tuesdays there is Toddler Group at 9.30am-11.30am and A Kids club for ages 6-11 from 5pm-6pm.","hours":"Tu 12:00-18:00","title":"Headington Baptist Church"},"type":"Feature"},
		{"geometry":{"coordinates":[-1.28140,51.66982],"type":"Point"},"properties":{"_source":"warm_welcome","address":"under the County Hall Museum, Market Place, Abingdon, Oxon OX14 3HG","description":"","hours":"Th 10:00-16:00; Fr 10:00-16:00; Sa 10:00-16:00","title":"One Planet Abingdon"},"type":"Feature"},
		{"geometry":{"coordinates":[-1.32851,51.62071],"type":"Point"},"properties":{"_source":"warm_welcome","address":"St Michael's church hall, 127 The Causeway, Steventon OX13 6SJ","description":"Open from 4 October 2022. Everyone is welcome We offer lifts to those who have mobility issues","hours":"Tu 09:00-14:00","title":"Steventon Warm Space Cafe"},"type":"Feature"},
		{"geometry":{"coordinates":[-1.28320,51.66941],"type":"Point"},"properties":{"_source":"warm_welcome","address":"12 West Saint Helen Street , Abingdon, Oxfordshire OX145BL","description":"","hours":"We 10:00-14:00","title":"The Salvation Army"},"type":"Feature"},
		{"geometry":{"coordinates":[-1.27191,51.75395],"type":"Point"},"properties":{"_source":"warm_welcome","address":"New Inn Hall Street, Oxford, Oxfordshire OX2 0AD","description":"Open from 1st November 2022. Young families at Rainbow House and others We have various groups during the week offering a range of activities","hours":"Mo 10:00-16:00; Tu 10:00-16:00; We 10:00-16:00; Th 10:00-16:00; Fr 10:00-16:00; Su 10:30-12:00","title":"Wesley Memorial Church"},"type":"Feature"}
	]
}
