{
	"type": "FeatureCollection",
	"features": [
		{"geometry":{"coordinates":[-1.08749,51.26358],"type":"Point"},"properties":{"_source":"warm_welcome","address":"Basingstoke Discovery Centre, Festival Place Shopping Centre, Basingstoke RG21 7LS","hours":"Mo 09:30-17:00; Tu 09:30-13:30; We 09:30-17:00; Th 09:30-17:00; Fr 09:30-17:00; Sa 09:30-17:00","title":"Basingstoke Discovery Centre- Hampshire Libraries"},"type":"Feature"},
		{"geometry":{"coordinates":[-1.09844,51.25609],"type":"Point"},"properties":{"_source":"warm_welcome","address":"Wessex Close, Basingstoke, Hampshire RG21 3NP","description":"","hours":"Mo 09:30-12:00; We 09:30-12:00; Fr 09:30-12:00","title":"Basingstoke Salvation Army"},"type":"Feature"},
		{"geometry":{"coordinates":[-1.13412,51.25786],"type":"Point"},"properties":{"_source":"warm_welcome","address":"Chiltern Way, Basingstoke, Hampshire RG225BB","description":"Open from 25.10.22.","hours":"Tu 10:00-12:00","title":"Buckskin Evangelical Church "},"type":"Feature"},
		{"geometry":{"coordinates":[-1.05972,51.28420],"type":"Point"},"properties":{"_source":"warm_welcome","address":"Chineham Library, Chineham District Centre, Chineham RG24 8BQ","hours":"Tu 09:30-17:00; We 09:30-13:30; Fr 09:30-17:00; Sa 09:30-17:00","title":"Chineham Library- Hampshire Libraries"},"type":"Feature"},
		{"geometry":{"coordinates":[-1.07161,51.28138],"type":"Point"},"properties":{"_source":"warm_welcome","address":"Reading Road, Basingstoke, Hampshire RG24 8LT","description":"Most days we'll have different spaces for people who want to chat; a quiet Living Room space for people to read; a creche space for toddlers and a 'hot spot' space for workers need a desk and wifi. We are offering free hot drinks and cuppa soups; there may be other things donated as well.","hours":"Mo 09:30-12:00; Tu 09:30-12:00; We 09:30-12:00; Th 09:30-12:00; Fr 09:30-12:00; Su 09:30-12:00","title":"Christ Church Chineham"},"type":"Feature"},
		{"geometry":{"coordinates":[-1.33068,51.39642],"type":"Point"},"properties":{"_source":"warm_welcome","address":"12 Enborne Road, Newbury, Berkshire RG14 6AH","description":"Open from 01-11-2022.","hours":"Tu 13:00-15:00","title":"Kennet Christian Centre"},"type":"Feature"},
		{"geometry":{"coordinates":[-1.05756,51.27629],"type":"Point"},"properties":{"_source":"warm_welcome","address":"Lychpit Local Centre, Lychpit, Basingstoke RG24 8TF","description":"Open from 1st December 2022.","hours":"Th 12:00-15:00","title":"Lychpit Community Hall"},"type":"Feature"},
		{"geometry":{"coordinates":[-1.07956,51.27633],"type":"Point"},"properties":{"_source":"warm_welcome","address":"Oakridge Methodist Church Vivian Road , Basingstoke , Hampshire RG21 5QB","description":"Open from 28th October 2022 .","hours":"Fr 10:00-13:00","title":"Oakridge Methodist Church"},"type":"Feature"},
		{"geometry":{"coordinates":[-1.12456,51.26828],"type":"Point"},"properties":{"_source":"warm_welcome","address":"Church of the Good Shepherd, Winklebury Way, Basingstoke, Hampshire RG23 8BU","description":"Open from Already open. We cater for anyone and everyone We provide activities such as jigsaws and crafts","hours":"We 09:00-12:00","title":"Oasis"},"type":"Feature"},
		{"geometry":{"coordinates":[-1.26437,51.24384],"type":"Point"},"properties":{"_source":"warm_welcome","address":"Overton Library, High Street, Overton RG25 3HB","description":"","hours":"Tu 09:30-13:30; We 09:30-13:30; Th 13:00-17:00; Sa 09:30-13:30","title":"Overton Library- Hampshire Libraries"},"type":"Feature"},
		{"geometry":{"coordinates":[-1.34243,51.37894],"type":"Point"},"properties":{"_source":"warm_welcome","address":"St George's Church, Andover Road, Newbury, Berkshire RG14 6NU","description":"Open from 28-11-2022. We are open to anyone who would benefit from a hot drink in warm, friendly surroundings We have a warm relaxing space where fresh coffee and tea are served. Stay as long as you like. Come and work here for a few hours with free WiFi. Meet up with friends or make new ones. ","hours":"Mo 09:00-12:00; We 09:00-12:00","title":"South Newbury Benefice"},"type":"Feature"},
		{"geometry":{"coordinates":[-1.11302,51.25660],"type":"Point"},"properties":{"_source":"warm_welcome","address":"St Andrews Church, Western Way, Basingstoke , Hampshire RG22 6ER","hours":"Tu 10:00-13:30; We 10:00-13:30; Th 10:00-13:30","title":"St Andrews Methodist Church"},"type":"Feature"},
		{"geometry":{"coordinates":[-1.15529,51.35681],"type":"Point"},"properties":{"_source":"warm_welcome","address":"Bishopswood Road, Tadley, Hampshire RG26 4HQ","description":" Open daily but hot drinks and cake served 8:30 onwards on Wednesday and Sunday only","hours":"Mo 09:00-17:00; Tu 09:00-17:00; We 09:00-17:00; Th 09:00-17:00; Fr 09:00-17:00; Sa 09:00-17:00; Su 09:00-17:00","title":"St. Mary's, Tadley"},"type":"Feature"},
		{"geometry":{"coordinates":[-1.14190,51.35526],"type":"Point"},"properties":{"_source":"warm_welcome","address":"Tadley Library, Mulfords Hill, Tadley, Basingstoke RG26 3JE","hours":"Mo 09:30-17:00; Tu 09:30-13:30; Th 09:30-17:00; Fr 09:30-17:00; Sa 09:30-17:00","title":"Tadley Library- Hampshire Libraries"},"type":"Feature"},
		{"geometry":{"coordinates":[-1.10542,51.24868],"type":"Point"},"properties":{"_source":"warm_welcome","address":"Sullivan Road, Basingstoke, Hants RG22 4EH","description":" The Church of Christ the King on Brighton Hill in Basingstoke extends a warm welcome to our coffee morning held every Friday 9.30 - 11.30 am. Everyone welcome. Conversation, occasional crafts and children’s play area.","hours":"Fr 09:30-11:30","title":"The Church of Christ the King"},"type":"Feature"},
		{"geometry":{"coordinates":[-1.06615,51.39686],"type":"Point"},"properties":{"_source":"warm_welcome","address":"School Lane , Burghfield Common, Berkshire RG7 3JZ","description":"","hours":"Mo 14:00-17:00; We 14:00-17:00; Th 10:00-17:00; Fr 14:30-18:00; Sa 10:00-12:30","title":"West Berkshire Libraries"},"type":"Feature"},
		{"geometry":{"coordinates":[-1.06480,51.37735],"type":"Point"},"properties":{"_source":"warm_welcome","address":"27 Victoria Road, Mortimer, Berkshire RG7 3SH","description":"","hours":"Mo 13:00-17:00; Tu 09:30-17:00; Fr 13:00-18:00; Sa 10:00-12:30","title":"West Berkshire Libraries - Mortimer Library "},"type":"Feature"},
		{"geometry":{"coordinates":[-1.33806,51.22574],"type":"Point"},"properties":{"_source":"warm_welcome","address":"Whitchurch Library, Gill Nethercott Centre, Winchester Road, Whitchurch RG28 7HP","hours":"Mo 13:00-17:00; We 13:00-17:00; Fr 09:30-13:30; Sa 09:30-13:30","title":"Whitchurch Library- Hampshire Libraries"},"type":"Feature"},
		{"geometry":{"coordinates":[-1.08226,51.26503],"type":"Point"},"properties":{"_source":"warm_spaces","address":"Eastrop Lane, Basingstoke, England, RG21 7PZ","title":"Winter Coffee Shop St Marys","url":"https://www.stmarys-basingstoke.org.uk"},"type":"Feature"},
		{"geometry":{"coordinates":[-1.33059,51.39632],"type":"Point"},"properties":{"_source":"warm_spaces","address":"12 Enborne Road, Newbury, England, RG14 6AH","title":"KCC Warm Space","url":"https://www.thekcc.co.uk"},"type":"Feature"},
		{"geometry":{"coordinates":[-1.33059,51.39632],"type":"Point"},"properties":{"_source":"warm_spaces","address":"Kennet Christian Centre, 12 Enborne Road, Newbury, England, RG14 6AH","title":"Kennet Christian Centre","url":"https://www.thekcc.co.uk"},"type":"Feature"},
		{"geometry":{"coordinates":[-1.13856,51.35196],"type":"Point"},"properties":{"_source":"warm_spaces","address":"Salvation Army, Mulfords Hill, Tadley, England, RG26 3LJ","title":"The Salvation Army — Tadley","url":"https://Salvationarmy.org.uk/Tadley"},"type":"Feature"}
	]
}
