{
	"type": "FeatureCollection",
	"features": [
		{"geometry":{"coordinates":[-1.14284,50.67951],"type":"Point"},"properties":{"_source":"warm_welcome","address":"5 New Road, Brading , Isle of Wight PO36 0DU","description":"","hours":"Tu 08:30-13:00","title":"Brading Methodist Church"},"type":"Feature"},
		{"geometry":{"coordinates":[-1.16834,50.64692],"type":"Point"},"properties":{"_source":"warm_welcome","address":"42 Sandown Road, Lake, Sandown PO36 9JS","description":"Open from Thursdays Fortnightly. Cafe library open 2nd and 4th Thursday 10am to 12noon","hours":"Tu 14:00-15:30; Th 12:00-14:00","title":"Lake Methodist Church"},"type":"Feature"},
		{"geometry":{"coordinates":[-1.29820,50.69893],"type":"Point"},"properties":{"_source":"warm_welcome","address":"82-83 High Street , NEWPORT , Isle of wight Po33 1bh","description":"","hours":"Mo 11:00-14:00; Th 11:00-14:00","title":"Revive Newport "},"type":"Feature"},
		{"geometry":{"coordinates":[-1.16164,50.72799],"type":"Point"},"properties":{"_source":"warm_welcome","address":"Ryde Library, 101 George Street, Ryde, Isle of Wight PO33 2JE","description":" We have information and advice from other services and groups in the town. We offer free activities for adults and children","hours":"Mo 09:00-17:30; Tu 09:00-17:30; We 10:30-19:00; Fr 09:00-17:30; Sa 09:00-17:00","title":"Ryde Library"},"type":"Feature"},
		{"geometry":{"coordinates":[-1.14990,50.71753],"type":"Point"},"properties":{"_source":"warm_welcome","address":"High Park Road, Ryde, Isle of Wight PO33 1BX","description":"Open from 24th November 2022.","hours":"Th 14:00-17:00","title":"St. John's church"},"type":"Feature"},
		{"geometry":{"coordinates":[-1.14800,50.72326],"type":"Point"},"properties":{"_source":"warm_spaces","address":"High Park Road, Ryde, England, PO33 1BX","title":"St. Johns Church","url":"https://en-gb.facebook.com/stjohnsryde/"},"type":"Feature"},
		{"geometry":{"coordinates":[-1.29217,50.70199],"type":"Point"},"properties":{"_source":"warm_spaces","address":"Sea Street, Newport, England, PO30 5BD","title":"Quay Arts Cafe","url":"https://www.quayarts.org"},"type":"Feature"},
		{"geometry":{"coordinates":[-1.15354,50.72983],"type":"Point"},"properties":{"_source":"warm_spaces","address":"11 East Street, Ryde, England, PO33 1JP","title":"Monkton Arts","url":"https://Www.monktonarts.co.uk"},"type":"Feature"},
		{"geometry":{"coordinates":[-1.30729,50.68581],"type":"Point"},"properties":{"_source":"warm_spaces","address":"39 Whitcombe Road, Newport, England, PO30 1YS","title":"Carisbrooke Priory","url":"https://carisbrookepriory.org.uk"},"type":"Feature"},
		{"geometry":{"coordinates":[-1.20032,50.59679],"type":"Point"},"properties":{"_source":"warm_spaces","address":"High Street, Ventnor, England, PO38 1LZ","title":"Ventnor Library","url":"https://www.iow.gov.uk/Residents/Libraries-Cultural-and-Heritage/"},"type":"Feature"},
		{"geometry":{"coordinates":[-1.15094,50.65582],"type":"Point"},"properties":{"_source":"warm_spaces","address":"High Street, Sandown, England, PO36 8AF","title":"Sandown Library","url":"https://www.iow.gov.uk/Residents/Libraries-Cultural-and-Heritage/"},"type":"Feature"},
		{"geometry":{"coordinates":[-1.29393,50.69815],"type":"Point"},"properties":{"_source":"warm_spaces","address":"Orchard Street, Newport, England, PO30 1LL","title":"Lord Louis Library","url":"https://www.iow.gov.uk/Residents/Libraries-Cultural-and-Heritage/"},"type":"Feature"},
		{"geometry":{"coordinates":[-1.29517,50.69976],"type":"Point"},"properties":{"_source":"warm_spaces","address":"The Creative Hub, 48-49 High Street, Newport, England, PO30 1SE","title":"Independent Art","url":"https://Www.independentarts.org.uk"},"type":"Feature"},
		{"geometry":{"coordinates":[-1.29299,50.69902],"type":"Point"},"properties":{"_source":"warm_spaces","address":"Newport Parish Centre, Town Lane, Newport, England, PO30 1JU","title":"Newport Minster Parish Centre","url":"https://newportminster.org"},"type":"Feature"},
		{"geometry":{"coordinates":[-1.31375,50.69183],"type":"Point"},"properties":{"_source":"warm_spaces","address":"St Mary&#39;s Church Hall, Carisbrooke High Street, Newport, England, PO30 1NN","title":"St Mary's Church Hall","url":"http://carisbrookestmary.org.uk"},"type":"Feature"},
		{"geometry":{"coordinates":[-1.15781,50.72781],"type":"Point"},"properties":{"_source":"warm_spaces","address":"Aspire Ryde, Dover Street, Ryde, England, PO33 2BN","title":"Aspire Ryde","url":"https://www.aspireryde.org.uk"},"type":"Feature"},
		{"geometry":{"coordinates":[-1.29729,50.69906],"type":"Point"},"properties":{"_source":"warm_spaces","address":"Newport Congregational Church, 98 Pyle Street, Newport, England, PO30 1UH","title":"Newport Congregational Church","url":"https://www.newportcongregationalchurch.com"},"type":"Feature"},
		{"geometry":{"coordinates":[-1.29536,50.70059],"type":"Point"},"properties":{"_source":"warm_spaces","address":"Wessex Cancer Trust, 21A Lugley Street, Newport, England, PO30 5HD","title":"Wessex Cancer Trust","url":"https://www.wessexcancer.org.uk/support-services/isle-of-wight/?gclid=Cj0KCQjwhsmaBhCvARIsAIbEbH4Or-MpMUA7xTO9Oe_TWLOH87jFv2kFK_Jya_7cTO8hQV42PML-KqkaAolVEALw_wcB"},"type":"Feature"},
		{"geometry":{"coordinates":[-1.29054,50.70245],"type":"Point"},"properties":{"_source":"warm_spaces","address":"Riverside Centre, The Quay, Newport, England, PO30 2QR","title":"Carers Isle of Wight","url":"https://www.carersiw.org.uk"},"type":"Feature"},
		{"geometry":{"coordinates":[-1.16157,50.72807],"type":"Point"},"properties":{"_source":"warm_spaces","address":"George Street, Ryde, England, PO33 2JE","title":"Ryde Library","url":"https://www.iow.gov.uk/Residents/Libraries-Cultural-and-Heritage/"},"type":"Feature"}
	]
}
