{
	"type": "FeatureCollection",
	"features": [
		{"geometry":{"coordinates":[-4.05197,52.47841],"type":"Point"},"properties":{"_source":"warm_welcome","address":"Borth Community Hub, Clarach Rd, Borth SY245LW","description":"A Community Space where we usually also run a pay as you feel cafe from 11.30 to 13.30 . We serve a variety of warming home cooked foods . We also run a number of activities throughout the day which vary from week to week. Please see our Facebook page for updates .","hours":{"_text":"Friday: 09:00 - 15:30","opening":"Fr 09:00-15:30"},"title":"Borth Community Hub"},"type":"Feature"},
		{"geometry":{"coordinates":[-4.08315,52.41693],"type":"Point"},"properties":{"_source":"warm_welcome","address":"Queen's Rd, Ceredigion, Ceredigion SY23 2NN","description":"A community centre near the town library and cinema open 10.30 - 14.00 on Tuesdays and Thursdays offering hot meal (pay-as-you-feel) 12.15-13.15 and boardgames on Friday evenings (19.00-21.00).","hours":{"_text":"Tuesday: 10:30 - 14:00, Thursday: 10:30 - 14:00, Friday: 19:00 - 21:00","opening":"Tu 10:30-14:00; Th 10:30-14:00; Fr 19:00-21:00"},"title":"St Paul's Methodist Centre"},"type":"Feature"},
		{"geometry":{"coordinates":[-4.05452,52.47819],"type":"Point"},"properties":{"_source":"ceredigion_council","address":"Borth Community Hub,\nClarach Road,\nBorth,\nSY24 5NL","contact":"Helen WilliamsBen Freeman (Youth Club): helen@borthfamilycentre.co.ukyouth@borthfamilycentre.co.uk","description":"Community pay as you feel café. Games area. Crochet class and other talks and activities. Activities, warm food and a place to hang out for young people of Secondary school age.","loc_pcd":true,"title":"Borth Community Hub"},"type":"Feature"},
		{"geometry":{"coordinates":[-4.08896,52.41276],"type":"Point"},"properties":{"_source":"ceredigion_council","address":"The Castle Rooms\nSeaview Place\nAberystwyth\nSY23 1DZ","contact":"Liz Rees: liz@stmikes.net","description":"The Well Pool, games, chat, hot drinks and a hot meal at 12:30","loc_pcd":true,"title":"The Well"},"type":"Feature"},
		{"geometry":{"coordinates":[-4.07111,52.39970],"type":"Point"},"properties":{"_source":"ceredigion_council","address":"St Anne's Church\nPenparcau\nAberystwyth\nSY23 1RY","contact":"Liz Rees: lizrees@cinw.org.uk","description":"Mondays (term time): Baby and Toddler Group. A chance for the children to play and grown ups to enjoy a warm drink in the company of others in a similar situation. Drinks and snacks provided. Tuesdays: Games, company, warm drinks and food.","loc_pcd":true,"title":"St Anne's Church"},"type":"Feature"},
		{"geometry":{"coordinates":[-4.08315,52.41695],"type":"Point"},"properties":{"_source":"ceredigion_council","address":"St Paul's Methodist Centre, Queen's Road, Aberystwyth, SY23 2NN","contact":"Ruth: ceredigioncircuitpa@outlook.com","description":"Hot drinks, cooked meals and board games. Lunch - Tuesday and Thursday between 12:00 and 13:30.","loc_pcd":true,"title":"St Paul's"},"type":"Feature"},
		{"geometry":{"coordinates":[-4.08076,52.41671],"type":"Point"},"properties":{"_source":"ceredigion_council","address":"Morlan Centre, Queen's Road, Aberystwyth, SY23 2HH","contact":"Eifion Roberts: morlan.aber@gmail.com01970 617996","description":"Hot drinks, light lunch, a space to relax, have a chat and advice on everyday matters.","loc_pcd":true,"title":"Morlan Centre"},"type":"Feature"},
		{"geometry":{"coordinates":[-4.06850,52.41449],"type":"Point"},"properties":{"_source":"ceredigion_council","address":"The National Library of Wales\nAberystwyth\nCeredigion\nSY23 3BU","contact":"Ffion Morris: enquiry@library.wales01970 632800","description":"A comfortable space for people to visit to read, relax, socialise and have free internet access.","loc_pcd":true,"title":"The National Library of Wales"},"type":"Feature"},
		{"geometry":{"coordinates":[-4.08887,52.41145],"type":"Point"},"properties":{"_source":"ceredigion_council","address":"The Bookshop by the Sea,\n7 Market St, Aberystwyth,\nSY23 1JX","contact":"Freya Blythe: thebookshopbythesea@gmail.com","description":"A warm space for people to come and sit. A work space is available for students and members of the public, a hot drink will be on offer.","loc_pcd":true,"title":"The Bookshop by the Sea"},"type":"Feature"},
		{"geometry":{"coordinates":[-4.07194,52.40081],"type":"Point"},"properties":{"_source":"ceredigion_council","address":"Penparcau Community Centre,\nPenparcau Road,\nAberystwyth,\nSY23 1RU","contact":"Sam Hughes-Evans : contact@penparcau.cymru","description":"A free bowl of soup and roll in the cafe area for Penparcau residents and toys to help entertain children. There will be jigsaws and 'grown up' games on offer, too.","loc_pcd":true,"title":"Penparcau Community Centre"},"type":"Feature"},
		{"geometry":{"coordinates":[-4.06281,52.41590],"type":"Point"},"properties":{"_source":"ceredigion_council","address":"Aberystwyth Arts Centre, Aberystwyth University, Aberystwyth SY23 3DE","contact":"Louise Amery: 01970 62 32 32 artsadmin@aber.ac.uk","description":"All are welcome to come and work or socialise in the theatre bar. It's warm and there is free wifi.","loc_pcd":true,"title":"Aberystwyth Arts Centre"},"type":"Feature"},
		{"geometry":{"coordinates":[-3.99465,52.28798],"type":"Point"},"properties":{"_source":"ceredigion_council","address":"Bronant Vestry SY23 4TG","contact":"Eirlys Morgan: 01974 251610 m.morgan620@outlook.com","description":"An opportunity to socialise, to learn more about the history of our village, and possibly to play board games or do some craft work; an opportunity also for learners to practice their Welsh. But, most importantly, to enjoy each other’s company.","loc_pcd":true,"title":"Bronant Vestry"},"type":"Feature"},
		{"geometry":{"coordinates":[-4.08172,52.41731],"type":"Point"},"properties":{"_source":"ceredigion_council","address":"Aberystwyth Library, SY23 2EB","contact":": homestartaberaeron@gmail.com","description":"Pre School Group. We offer families, warm space, hot refreshments and food for the children","title":"Home Start"},"type":"Feature"},
		{"geometry":{"coordinates":[-4.07127,52.40047],"type":"Point"},"properties":{"_source":"ceredigion_council","address":"Penparcau Community Centre,\nPenparcau Road,\nAberystwyth,\nSY23 1RU","contact":": homestartaberaeron@gmail.com","description":"Pre School Group. We offer families, warm space, hot refreshments and food for the children","title":"Home Start"},"type":"Feature"},
		{"geometry":{"coordinates":[-3.98904,52.43837],"type":"Point"},"properties":{"_source":"ceredigion_council","address":"Village Hall Penrhyncoch, SY23 3ER","contact":": homestartaberaeron@gmail.com","description":"Pre School Group. We offer families, warm space, hot refreshments and food for the children.","title":"Home Start"},"type":"Feature"},
		{"geometry":{"coordinates":[-4.08315,52.41695],"type":"Point"},"properties":{"_source":"ceredigion_council","address":"The Arcade, 5 Bath St, Aberystwyth SY23 2NN","contact":": ecohubaber@gmail.commaeverosemoran@gmail.com","description":"A series of craft workshops focussed on making and mending textiles, drawing upon heritage methods of sustainably, communally and cosily crafting. Friday 6th December - Frame Loom Weaving for Beginners\nFriday 13th December - Star and Pom Pom Garlands\nFriday 3rd January - Visible Mending - Darning\nFriday 17th January - Visible Mending - Patching Friday 7th February - Crochet for Absolute Beginners\nFriday 21st February - Frame Loom Weaving for Beginners\nFriday 7th March - Visible Mending - Darning\nFriday 21st March - Visible Mending - Patching Booking Essential - maeverosemoran@gmail.com and see website ecohubaber.com for more information","loc_pcd":true,"title":"Eco Hub Aber"},"type":"Feature"},
		{"geometry":{"coordinates":[-4.08279,52.41406],"type":"Point"},"properties":{"_source":"ceredigion_council","address":"2 Alexandra Road, Aberystwyth SY23 1LE","contact":"Lt. Paul Sass: 07774 625842aberystwyth@salvationarmy.org.uk","description":"Wednesday 2pm-3.30pm CAMEO “Come and meet each other” – activity and refreshments Thursday 10am-1pm Drop-In with refreshments available","title":"Salvation Army"},"type":"Feature"}
	]
}
