{
	"type": "FeatureCollection",
	"features": [
		{"geometry":{"coordinates":[-4.05197,52.47841],"type":"Point"},"properties":{"_source":"warm_welcome","address":"Borth Community Hub, Clarach Rd, Borth SY245LW","description":"A Community Space where we usually also run a pay as you feel cafe from 11.30 to 13.30 . We serve a variety of warming home cooked foods . We also run a number of activities throughout the day which vary from week to week. Please see our Facebook page for updates .","hours":{"_text":"Friday: 09:00 - 15:30","opening":"Fr 09:00-15:30"},"title":"Borth Community Hub"},"type":"Feature"},
		{"geometry":{"coordinates":[-4.08315,52.41693],"type":"Point"},"properties":{"_source":"warm_welcome","address":"Queen's Rd, Ceredigion, Ceredigion SY23 2NN","description":"A community centre near the town library and cinema open 10.30 - 14.00 on Tuesdays and Thursdays offering hot meal (pay-as-you-feel) 12.15-13.15 and boardgames on Friday evenings (19.00-21.00).","hours":{"_text":"Tuesday: 10:30 - 14:00, Thursday: 10:30 - 14:00, Friday: 19:00 - 21:00","opening":"Tu 10:30-14:00; Th 10:30-14:00; Fr 19:00-21:00"},"title":"St Paul's Methodist Centre"},"type":"Feature"},
		{"geometry":{"coordinates":[-4.08172,52.41731],"type":"Point"},"properties":{"_source":"ceredigion_council","address":"Aberystwyth Library, SY23 2EB","contact":": homestartaberaeron@gmail.com","description":"Pre School Group. We offer families, warm space, hot refreshments and food for the children","hours":{"_text":"Tuesday 09:30-11:00","opening":"Tu 09:30-11:00"},"title":"Home Start"},"type":"Feature"},
		{"geometry":{"coordinates":[-4.07127,52.40047],"type":"Point"},"properties":{"_source":"ceredigion_council","address":"Penparcau Community Centre,\nPenparcau Road,\nAberystwyth,\nSY23 1RU","contact":": homestartaberaeron@gmail.com","description":"Pre School Group. We offer families, warm space, hot refreshments and food for the children","hours":{"_text":"Tuesday 12:00-13:30","opening":"Tu 12:00-13:30"},"title":"Home Start"},"type":"Feature"},
		{"geometry":{"coordinates":[-3.98904,52.43837],"type":"Point"},"properties":{"_source":"ceredigion_council","address":"Village Hall Penrhyncoch, SY23 3ER","contact":": homestartaberaeron@gmail.com","description":"Pre School Group. We offer families, warm space, hot refreshments and food for the children.","hours":{"_text":"Every Thursday 12:30-14:00","opening":"Th 12:30-14:00"},"title":"Home Start"},"type":"Feature"}
	]
}
