{
	"type": "FeatureCollection",
	"features": [
		{"geometry":{"coordinates":[-4.16187,51.67296],"type":"Point"},"properties":{"_source":"warm_welcome","address":"Copperworks Road, Llanelli, Carmarthenshire SA15 2NE","description":"Our community We are a community cafe, you can sit and read, craft or work. We also offer hot meals from Â£2.50.","hours":{"_text":"Tuesday: 10:00 - 13:30, Wednesday: 10:00 - 13:30, Thursday: 10:00 - 13:30","opening":"Tu 10:00-13:30; We 10:00-13:30; Th 10:00-13:30"},"title":"Antioch Christian Centre"},"type":"Feature"},
		{"geometry":{"coordinates":[-4.03310,51.71282],"type":"Point"},"properties":{"_source":"warm_welcome","address":"Bont Elim Community Church, Alltiago Road, Pontarddulais, SWANSEA SA4 8HU","description":"Follow us on Facebook for up-to-date information on daily events. https://www.facebook.com/BontElimCommunityChurch","hours":{"_text":"Monday: 07:30 - 16:00, Tuesday: 07:30 - 16:00, Wednesday: 07:30 - 16:00, Thursday: 07:30 - 16:00, Friday: 07:30 - 16:00, Sunday: 07:30 - 17:00","opening":"Mo 07:30-16:00; Tu 07:30-16:00; We 07:30-16:00; Th 07:30-16:00; Fr 07:30-16:00; Su 07:30-17:00"},"title":"BONT ELIM COMMUNITY CHURCH"},"type":"Feature"},
		{"geometry":{"coordinates":[-4.16306,51.68383],"type":"Point"},"properties":{"_source":"warm_welcome","address":"Hall Street Church, Hall Street, Llanelli SA15 3BB","description":"Open from 24-11-22. All are welcome, For more information on us: https://www.facebook.com/HallStreetChurch","hours":{"_text":"Thursday: 10:00 - 14:00","opening":"Th 10:00-14:00"},"title":"Hall Street Church (Methodist & United Reformed)"},"type":"Feature"},
		{"geometry":{"coordinates":[-3.95343,51.63934],"type":"Point"},"properties":{"_source":"warm_welcome","address":"Elgin street, Manselton, Swansea Sa58qw","description":"Open from 30/11/2022.","hours":{"_text":"Wednesday: 12:00 - 14:00","opening":"We 12:00-14:00"},"title":"Mount Calvary Baptist Church"},"type":"Feature"},
		{"geometry":{"coordinates":[-4.15478,51.67993],"type":"Point"},"properties":{"_source":"warm_welcome","address":"22 Myrtle Terrace, LLANELLI, Carmarthenshire SA15 1LH","description":"Open from 3/10/22. The Community Life Hub at Myrtle House provides a warm, safe & welcoming environment for people in our local community.","hours":{"_text":"Monday: 10:00 - 13:00, Wednesday: 10:00 - 13:00, Friday: 11:00 - 14:30","opening":"Mo 10:00-13:00; We 10:00-13:00; Fr 11:00-14:30"},"title":"Myrtle House Community Church"},"type":"Feature"},
		{"geometry":{"coordinates":[-4.02020,51.77926],"type":"Point"},"properties":{"_source":"warm_welcome","address":"St Edmund`s Curch, Tycroes, Carmarthenshire SA18 3QJ","description":"Open from 14-11-2022.","hours":{"_text":"Monday: 13:30 - 16:30","opening":"Mo 13:30-16:30"},"title":"St Edmunds Church Tycroes"},"type":"Feature"},
		{"geometry":{"coordinates":[-3.96243,51.61832],"type":"Point"},"properties":{"_source":"warm_welcome","address":"St James Parish Centre, Swansea, SWANSEA SA1 4QF","description":"Also Friday 1600-1900: focus on asylum seekers and refugees All welcome","hours":{"_text":"Wednesday: 11:30 - 15:00","opening":"We 11:30-15:00"},"title":"St James Church (with Swansea Asylum Seekers Support"},"type":"Feature"},
		{"geometry":{"coordinates":[-3.95564,51.64143],"type":"Point"},"properties":{"_source":"warm_welcome","address":"Straeon House, 66 Brondeg, Swansea, Swansea SA5 8PY","description":"Open from 31/10/22.","hours":{"_text":"Monday: 14:00 - 18:00, Tuesday: 14:00 - 18:00, Wednesday: 14:00 - 18:00, Thursday: 13:00 - 17:00, Friday: 14:00 - 18:00, Saturday: 14:00 - 18:00, Sunday: 14:00 - 18:00","opening":"Mo 14:00-18:00; Tu 14:00-18:00; We 14:00-18:00; Th 13:00-17:00; Fr 14:00-18:00; Sa 14:00-18:00; Su 14:00-18:00"},"title":"The People's Library"},"type":"Feature"},
		{"geometry":{"coordinates":[-4.03788,51.71479],"type":"Point"},"properties":{"_source":"warm_spaces","address":"Canolfan Y Bont, 228 Dulais Road, Swansea, Wales, SA4 8PA","hours":{"_text":"Monday 1pm-4.30pm (Warm Space &amp; Soup - -Soup served 1pm-3pm); Tuesday 9am-11.30am &amp; Wednesday 1pm-4pm (Warm Space only) ","opening":"Mo 13:00-16:30; Tu 09:00-11:30; We 13:00-16:00"},"title":"Canolfan Cwtch"},"type":"Feature"},
		{"geometry":{"coordinates":[-3.96675,51.62604],"type":"Point"},"properties":{"_source":"warm_spaces","address":"Powys Avenue, Swansea, Wales, SA1 6PH","hours":{"_text":""},"title":"Scout/Guide Hall"},"type":"Feature"}
	]
}
