{
	"type": "FeatureCollection",
	"features": [
		{"geometry":{"coordinates":[-4.03731,51.71484],"type":"Point"},"properties":{"_source":"warm_welcome","address":"Canolfan Y Bont, 28 Dulais Road,, Pontarddulais, Swansea SA4 8PA","description":"We have a warm space within our community centre. We offer hot soup, cold and hot beverages, biscuits, toast. This is offered on a Monday throughout the Autumn/Winter months on a Monday between 1pm - 3pm. Come along for a chat, play board games, colouring, cards, computers are also available to use.","hours":{"_text":"Monday: 13:00 - 15:00","opening":"Mo 13:00-15:00"},"title":"Canolfan Y Bont (Canolfan Cwtch)"},"type":"Feature"},
		{"geometry":{"coordinates":[-3.99069,51.62125],"type":"Point"},"properties":{"_source":"warm_welcome","address":"Sketty Community Church, Swansea, West Glamorgan SA2 9BP","description":"Everyone knows what a Coffee Morning is? Well at ours, you can pop in for a T or C and some biscuits (or possibly a bacon roll!!) and then leave. Or you can stay for as long as you wish. There will be newspapers available for you. If you wish to be energetic you can play table tennis or snooker. You can play chess or Scrabble. Or, you can find a quiet corner and just sit and chill. The space is there for you to be comfortable. We also have plenty of folk on hand who would be happy to chat on any topic under the sun. This is why our Coffee Morning has a PLUS.","hours":{"_text":"Tuesday: 09:00 - 12:30","opening":"Tu 09:00-12:30"},"title":"Coffee Morning Plus"},"type":"Feature"},
		{"geometry":{"coordinates":[-3.99069,51.62125],"type":"Point"},"properties":{"_source":"warm_welcome","address":"Sketty Community Church, Swansea, West Glamorgan SA2 9BP","description":"Friendship Group does what it says on the tin! A chance to sit and chat over T&C and biscuits and make friends.","hours":{"_text":"Wednesday: 14:30 - 16:00","opening":"We 14:30-16:00"},"title":"Friendship Group"},"type":"Feature"},
		{"geometry":{"coordinates":[-4.16205,51.67953],"type":"Point"},"properties":{"_source":"warm_welcome","address":"Llanelli Mind, Llanelli, Dyfed SA15 1SA","description":"Providing mental health services across Carmarthenshire since 1986, we offer a safe, warm and welcoming environment for all who need us. Each Monday, from 4pm until 6pm during the winter months, you can drop in for hot soup and rolls, and grab a coat, blanket or hat too.","hours":{"_text":"Monday: 16:00 - 18:00, Sunday: 10:00 - 14:00","opening":"Mo 16:00-18:00; Su 10:00-14:00"},"title":"Llanelli Mind (Welcome Centre)"},"type":"Feature"},
		{"geometry":{"coordinates":[-3.99718,51.78127],"type":"Point"},"properties":{"_source":"warm_welcome","address":"Elim Community Church, Dyfed SA18 3HL","description":"We offer a free lunch, tea and coffee and a warm welcome on the third Tuesday of every month.","hours":{"_text":"Tuesday: 12:00 - 14:00 Monthly","opening":"Tu 12:00-14:00"},"title":"Lunch Club"},"type":"Feature"},
		{"geometry":{"coordinates":[-3.88478,51.69782],"type":"Point"},"properties":{"_source":"warm_welcome","address":"New Community Pavilion, Swansea, Swansea SA6 5NS","description":"The space is open to all and has toilets , including disabled , baby change , phone charging , daily papers and more","hours":{"_text":"Monday: 09:00 - 03:00, Tuesday: 09:00 - 03:00, Wednesday: 09:00 - 03:00, Thursday: 09:00 - 03:00, Friday: 09:00 - 03:00, Saturday: 09:00 - 12:00, Sunday: 09:00 - 12:00","opening":"Mo 09:00-03:00; Tu 09:00-03:00; We 09:00-03:00; Th 09:00-03:00; Fr 09:00-03:00; Sa 09:00-12:00; Su 09:00-12:00"},"title":"New Community Pavilion Coed Gwilym Park Clydach Swansea"},"type":"Feature"},
		{"geometry":{"coordinates":[-3.94162,51.62384],"type":"Point"},"properties":{"_source":"warm_welcome","address":"216 High Street, Swansea, Swansea SA1 1PE","description":"Swansea MAD is a grassroots, anti-poverty, anti-racist, pro-equality, pro-environmental, inclusive youth and community charity. We work for a fair world in which people can be themselves and thrive! Swansea MAD develops inclusive safe spaces for people to access advocacy, creative arts, education, digital access, employability support, training, campaigning activities and projects to bring fairness and belonging and to influence change for the better. Swansea MAD is part of the Swansea Spaces scheme as a local drop-in Warm Welcome hub, supporting and welcoming people to free food, hot drinks, toiletries, period products, charging points, SIM cards, digital devices and data (and training and support on how to use them). We also provide information and support about energy tariffs and efficiency and support people to register for the Priority Services Register. Swansea MAD also hosts food event every month, where everyone is welcome to share a hot meal and have a chat. Connect with us on our social media platforms to know the dates.","hours":{"_text":"Monday: 09:00 - 17:00, Tuesday: 09:00 - 17:00, Wednesday: 09:00 - 17:00, Thursday: 09:00 - 17:00, Friday: 09:00 - 16:00","opening":"Mo 09:00-17:00; Tu 09:00-17:00; We 09:00-17:00; Th 09:00-17:00; Fr 09:00-16:00"},"title":"Swansea MAD Warm Hub Drop-in"},"type":"Feature"},
		{"geometry":{"coordinates":[-4.13705,51.70426],"type":"Point"},"properties":{"_source":"warm_welcome","address":"12 Heol Beili Glas, Llanelli, Dyfed SA14 8DT","description":"Every one","hours":{"_text":"Monday: 12:00 - 10:00, Tuesday: 12:00 - 10:00, Wednesday: 12:00 - 10:00, Thursday: 12:00 - 10:00, Friday: 12:00 - 11:00, Saturday: 12:00 - 11:00, Sunday: 12:00 - 10:00","opening":"Mo 12:00-10:00; Tu 12:00-10:00; We 12:00-10:00; Th 12:00-10:00; Fr 12:00-11:00; Sa 12:00-11:00; Su 12:00-10:00"},"title":"Tafarn y Felin"},"type":"Feature"},
		{"geometry":{"coordinates":[-3.97498,51.65383],"type":"Point"},"properties":{"_source":"warm_welcome","address":"104 Broughton Avenue, Swansea, Swansea SA5 5LN","description":"The 104 offers a warm and welcoming community live, work space. The community building has been brought back into use following a full refurbishment and is now a comfortable, social place to relax and enjoy a free hot drink, use the free wi-fi and find out about local opportunities or support available.","hours":{"_text":"Tuesday: 09:30 - 15:30, Wednesday: 09:30 - 15:30, Thursday: 09:30 - 15:30","opening":"Tu 09:30-15:30; We 09:30-15:30; Th 09:30-15:30"},"title":"The 104"},"type":"Feature"},
		{"geometry":{"coordinates":[-4.03349,51.71276],"type":"Point"},"properties":{"_source":"warm_welcome","address":"Bont Elim Community Church, Pontarddulais, SWANSEA SA4 8HU","description":"Follow us on Facebook for up-to-date information on daily events. https://www.facebook.com/BontElimCommunityChurch","hours":{"_text":"Monday: 07:30 - 16:00, Tuesday: 07:30 - 16:00, Wednesday: 07:30 - 16:00, Thursday: 07:30 - 16:00, Friday: 07:30 - 16:00, Saturday: 07:30 - 12:00, Sunday: 07:30 - 17:30","opening":"Mo 07:30-16:00; Tu 07:30-16:00; We 07:30-16:00; Th 07:30-16:00; Fr 07:30-16:00; Sa 07:30-12:00; Su 07:30-17:30"},"title":"The Lighthouse Coffee Shop"},"type":"Feature"},
		{"geometry":{"coordinates":[-3.88478,51.69782],"type":"Point"},"properties":{"_source":"warm_welcome","address":"The Pavilion, Swansea SA6 5NS","description":"A community cafe open 9am until 3pm Monday to Friday and 9am until 12 midday at weekends","hours":{"_text":"Monday: 09:00 - 15:00, Tuesday: 09:00 - 15:00, Wednesday: 09:00 - 15:00, Thursday: 09:00 - 15:00, Friday: 09:00 - 15:00, Saturday: 09:00 - 12:00, Sunday: 09:00 - 12:00","opening":"Mo 09:00-15:00; Tu 09:00-15:00; We 09:00-15:00; Th 09:00-15:00; Fr 09:00-15:00; Sa 09:00-12:00; Su 09:00-12:00"},"title":"The Pavilion Coed Gwilym Park"},"type":"Feature"},
		{"geometry":{"coordinates":[-4.16188,51.67294],"type":"Point"},"properties":{"_source":"warm_welcome","address":"Antioch Centre, Llanelli, Dyfed SA15 2NE","description":"We are a community cafe, offering a warm welcome and a comfortable space. You can sit and read, craft or work - we have free WiFi too. We also offer hot meals from £2.50 and soup and a roll from £1.50.","hours":{"_text":"Wednesday: 09:00 - 14:00, Thursday: 09:00 - 14:00","opening":"We 09:00-14:00; Th 09:00-14:00"},"title":"The Wheelhouse Cafe@antioch"},"type":"Feature"},
		{"geometry":{"coordinates":[-4.16316,51.68384],"type":"Point"},"properties":{"_source":"warm_welcome","address":"Hall Street Methodist Church, Dyfed SA15 3BB","description":"The space is open to all from","hours":{"_text":"Thursday: 10:00 - 01:00","opening":"Th 10:00-01:00"},"title":"Warm Hub @ Lantern Centre"},"type":"Feature"},
		{"geometry":{"coordinates":[-3.87953,51.77774],"type":"Point"},"properties":{"_source":"neath_port_talbot_council","address":"Hwb Y Gors, Heol Y Gors, Cwmgors, Ammanford, SA18 1RF","hours":{"_text":"Venue opens March 2023"},"title":"Hwb y Gors"},"type":"Feature"},
		{"geometry":{"coordinates":[-3.88265,51.79318],"type":"Point"},"properties":{"_source":"neath_port_talbot_council","address":"New Road Community Centre, New Road, Gwaun Cae Gurwen, Ammanford, SA18 1UN","hours":{"_text":"Monday 2.30pm - 4.30pm.\r\nTuesday 10.00am -12.00pm.\r\nWednesday 10.00am - 4.30pm.\r\nFriday 10.00am - 12.00pm.\r\nSaturday 10.00am - 12.00pm","opening":"Mo 14:30-16:30; Tu 10:00-12:00; We 10:00-16:30; Fr 10:00-12:00; Sa 10:00-12:00"},"title":"Gwaun Cae Gurwen Community Managed Library"},"type":"Feature"},
		{"geometry":{"coordinates":[-3.94245,51.62267],"type":"Point"},"properties":{"_source":"swansea_council","address":"Transport House, 19 High Street, Swansea, SA1 1LF","title":"Black Asian and Minority Ethnic Mental Health Support","url":"https://swansea.gov.uk/BAME"},"type":"Feature"},
		{"geometry":{"coordinates":[-3.94495,51.62264],"type":"Point"},"properties":{"_source":"swansea_council","address":"First Floor, Grove House, Swansea, SA1 5DF","title":"CETMA Swansea","url":"https://swansea.gov.uk/CETMA"},"type":"Feature"},
		{"geometry":{"coordinates":[-3.94293,51.62326],"type":"Point"},"properties":{"_source":"swansea_council","address":"Elysium Gallery, 34a Orchard Street, SA1 5AW","title":"Congolese Development Project","url":"https://swansea.gov.uk/congolesedevelopmentproject"},"type":"Feature"},
		{"geometry":{"coordinates":[-3.93577,51.61916],"type":"Point"},"properties":{"_source":"swansea_council","address":"Somerset Place, Swansea, SA1 1RR","title":"Dylan Thomas Centre","url":"https://swansea.gov.uk/dtc"},"type":"Feature"},
		{"geometry":{"coordinates":[-3.94222,51.62590],"type":"Point"},"properties":{"_source":"swansea_council","address":"Ebenezer Street, Swansea, SA1 5BJ","title":"Ebenezer Baptist Church","url":"https://swansea.gov.uk/ebenezerbaptistchurch"},"type":"Feature"},
		{"geometry":{"coordinates":[-3.94438,51.62383],"type":"Point"},"properties":{"_source":"swansea_council","address":"Alexandra Road, Swansea, SA1 5DZ","title":"Glynn Vivian Art Gallery","url":"https://swansea.gov.uk/glynnvivian"},"type":"Feature"},
		{"geometry":{"coordinates":[-3.95411,51.62266],"type":"Point"},"properties":{"_source":"swansea_council","address":"107 Rhondda Street, Mount Pleasant, Swansea, SA1 6EU","title":"Hub on the Hill","url":"https://swansea.gov.uk/hubonthehill"},"type":"Feature"},
		{"geometry":{"coordinates":[-3.95407,51.63087],"type":"Point"},"properties":{"_source":"swansea_council","address":"Mayhill Road, Mayhill, Swansea, SA1 6TD","title":"Mayhill Community Centre","url":"https://swansea.gov.uk/mayhillcommunitycentre"},"type":"Feature"},
		{"geometry":{"coordinates":[-3.94292,51.61913],"type":"Point"},"properties":{"_source":"swansea_council","address":"St Mary&apos;s Square, Swansea, SA1 3LP","title":"St Mary's Church Central Swansea","url":"https://swansea.gov.uk/stmaryschurch"},"type":"Feature"},
		{"geometry":{"coordinates":[-3.94190,51.62362],"type":"Point"},"properties":{"_source":"swansea_council","address":"216 High Street, Swansea, SA1 1PE","title":"Swansea MAD","url":"https://swansea.gov.uk/swanseaMAD"},"type":"Feature"},
		{"geometry":{"coordinates":[-3.94495,51.61923],"type":"Point"},"properties":{"_source":"swansea_council","address":"Oxford Street, Swansea, SA1 3PQ","title":"Swansea Market","url":"https://swansea.gov.uk/swanseamarket"},"type":"Feature"},
		{"geometry":{"coordinates":[-3.96583,51.62637],"type":"Point"},"properties":{"_source":"swansea_council","address":"Powys Avenue, Townhill, Swansea, SA1 6PH","title":"The Phoenix Centre","url":"https://swansea.gov.uk/thephoenixcentre"},"type":"Feature"},
		{"geometry":{"coordinates":[-3.95735,51.61944],"type":"Point"},"properties":{"_source":"swansea_council","address":"1 Ty Sivertsen, Walter Road (entrance on Burman Street), Swansea, SA1 5PQ","title":"The Swansea Wellbeing Centre","url":"https://swansea.gov.uk/swanseawellbeingcentre"},"type":"Feature"},
		{"geometry":{"coordinates":[-3.96586,51.62641],"type":"Point"},"properties":{"_source":"swansea_council","address":"The Phoenix Centre, Paradise Park, Powys Avenue, Townhill, Swansea, SA1 6PH","title":"Townhill Library","url":"https://swansea.gov.uk/townhilllibrary"},"type":"Feature"},
		{"geometry":{"coordinates":[-3.94579,51.63267],"type":"Point"},"properties":{"_source":"swansea_council","address":"Park Terrace, Brynmelyn, Swansea, SA1 2BY","title":"Waun Wen and Brynmelyn Community Centre","url":"https://swansea.gov.uk/brynmelyncommunitycentre"},"type":"Feature"},
		{"geometry":{"coordinates":[-3.94245,51.62267],"type":"Point"},"properties":{"_source":"swansea_council","address":"Transport House, 19 High Street, Swansea, SA1 1LF","title":"Bonymaen Community Centre","url":"https://swansea.gov.uk/bonymaencommunitycentre"},"type":"Feature"},
		{"geometry":{"coordinates":[-3.94495,51.62264],"type":"Point"},"properties":{"_source":"swansea_council","address":"First Floor, Grove House, Swansea, SA1 5DF","title":"Cwtch Craigfelen","url":"https://swansea.gov.uk/cwtchcraigfelen"},"type":"Feature"},
		{"geometry":{"coordinates":[-3.94293,51.62326],"type":"Point"},"properties":{"_source":"swansea_council","address":"Elysium Gallery, 34a Orchard Street, SA1 5AW","title":"Port Tennant Community Centre","url":"https://swansea.gov.uk/porttennantcommunitycentre"},"type":"Feature"},
		{"geometry":{"coordinates":[-3.93577,51.61916],"type":"Point"},"properties":{"_source":"swansea_council","address":"Somerset Place, Swansea, SA1 1RR","title":"St David's Church, Morriston","url":"https://swansea.gov.uk/stdavidschurchmorriston"},"type":"Feature"},
		{"geometry":{"coordinates":[-3.94222,51.62590],"type":"Point"},"properties":{"_source":"swansea_council","address":"Ebenezer Street, Swansea, SA1 5BJ","title":"St Thomas Church","url":"https://swansea.gov.uk/stthomaschurch"},"type":"Feature"},
		{"geometry":{"coordinates":[-3.94438,51.62383],"type":"Point"},"properties":{"_source":"swansea_council","address":"Alexandra Road, Swansea, SA1 5DZ","title":"St Thomas Library","url":"https://swansea.gov.uk/stthomaslibrary"},"type":"Feature"},
		{"geometry":{"coordinates":[-3.95411,51.62266],"type":"Point"},"properties":{"_source":"swansea_council","address":"107 Rhondda Street, Mount Pleasant, Swansea, SA1 6EU","title":"The Old Blacksmiths - Men's Shed Clydach","url":"https://swansea.gov.uk/theoldblacksmiths"},"type":"Feature"},
		{"geometry":{"coordinates":[-3.95407,51.63087],"type":"Point"},"properties":{"_source":"swansea_council","address":"Mayhill Road, Mayhill, Swansea, SA1 6TD","title":"The Salvation Army - Morriston","url":"https://swansea.gov.uk/salvationarmyfoodbank"},"type":"Feature"},
		{"geometry":{"coordinates":[-3.94245,51.62267],"type":"Point"},"properties":{"_source":"swansea_council","address":"Transport House, 19 High Street, Swansea, SA1 1LF","title":"Brynhyfryd Library","url":"https://swansea.gov.uk/brynhyfrydlibrary"},"type":"Feature"},
		{"geometry":{"coordinates":[-3.94495,51.62264],"type":"Point"},"properties":{"_source":"swansea_council","address":"First Floor, Grove House, Swansea, SA1 5DF","title":"Clase Community Cwtch - Faith in Families","url":"https://swansea.gov.uk/clasecommunitycwtch"},"type":"Feature"},
		{"geometry":{"coordinates":[-3.94293,51.62326],"type":"Point"},"properties":{"_source":"swansea_council","address":"Elysium Gallery, 34a Orchard Street, SA1 5AW","title":"Penlan Library","url":"https://swansea.gov.uk/penlanlibrary"},"type":"Feature"},
		{"geometry":{"coordinates":[-3.93577,51.61916],"type":"Point"},"properties":{"_source":"swansea_council","address":"Somerset Place, Swansea, SA1 1RR","title":"Swansea.com Stadium - Swansea City AFC Foundation","url":"https://swansea.gov.uk/swanseacityAFCfoundation"},"type":"Feature"},
		{"geometry":{"coordinates":[-3.94245,51.62267],"type":"Point"},"properties":{"_source":"swansea_council","address":"Transport House, 19 High Street, Swansea, SA1 1LF","title":"Bont Elim Community Church","url":"https://swansea.gov.uk/bontelimcommunitychurch"},"type":"Feature"},
		{"geometry":{"coordinates":[-3.94495,51.62264],"type":"Point"},"properties":{"_source":"swansea_council","address":"First Floor, Grove House, Swansea, SA1 5DF","title":"Gorseinon Library","url":"https://swansea.gov.uk/gorseinonlibrary"},"type":"Feature"},
		{"geometry":{"coordinates":[-3.94293,51.62326],"type":"Point"},"properties":{"_source":"swansea_council","address":"Elysium Gallery, 34a Orchard Street, SA1 5AW","title":"Penyrheol Community Church","url":"https://swansea.gov.uk/penyrheolcommunitychurch"},"type":"Feature"},
		{"geometry":{"coordinates":[-3.93577,51.61916],"type":"Point"},"properties":{"_source":"swansea_council","address":"Somerset Place, Swansea, SA1 1RR","title":"Pontarddulais Library","url":"https://swansea.gov.uk/pontarddulaislibrary"},"type":"Feature"},
		{"geometry":{"coordinates":[-3.94222,51.62590],"type":"Point"},"properties":{"_source":"swansea_council","address":"Ebenezer Street, Swansea, SA1 5BJ","title":"Pontlliw Park","url":"https://swansea.gov.uk/pontlliwpark"},"type":"Feature"},
		{"geometry":{"coordinates":[-3.94438,51.62383],"type":"Point"},"properties":{"_source":"swansea_council","address":"Alexandra Road, Swansea, SA1 5DZ","title":"St Catherine's Church, Gorseinon","url":"https://swansea.gov.uk/gorseinonfoodbank"},"type":"Feature"},
		{"geometry":{"coordinates":[-3.95411,51.62266],"type":"Point"},"properties":{"_source":"swansea_council","address":"107 Rhondda Street, Mount Pleasant, Swansea, SA1 6EU","title":"Waunarlwydd Community Centre","url":"https://swansea.gov.uk/waunarlwyddcommunitycentre"},"type":"Feature"},
		{"geometry":{"coordinates":[-3.94245,51.62267],"type":"Point"},"properties":{"_source":"swansea_council","address":"Transport House, 19 High Street, Swansea, SA1 1LF","title":"Killay Library","url":"https://swansea.gov.uk/killaylibrary"},"type":"Feature"},
		{"geometry":{"coordinates":[-3.94495,51.62264],"type":"Point"},"properties":{"_source":"swansea_council","address":"First Floor, Grove House, Swansea, SA1 5DF","title":"Poppy Lounge","url":"https://swansea.gov.uk/poppylounge"},"type":"Feature"},
		{"geometry":{"coordinates":[-3.94293,51.62326],"type":"Point"},"properties":{"_source":"swansea_council","address":"Elysium Gallery, 34a Orchard Street, SA1 5AW","title":"Swansea Seventh-day Adventist Church","url":"https://swansea.gov.uk/swanseaadventistchurch"},"type":"Feature"},
		{"geometry":{"coordinates":[-3.94245,51.62267],"type":"Point"},"properties":{"_source":"swansea_council","address":"Transport House, 19 High Street, Swansea, SA1 1LF","title":"Bookshop Café Lounge (St Peter's Church)","url":"https://swansea.gov.uk/newtoncommunityhall"},"type":"Feature"},
		{"geometry":{"coordinates":[-3.94495,51.62264],"type":"Point"},"properties":{"_source":"swansea_council","address":"First Floor, Grove House, Swansea, SA1 5DF","title":"Linden Church, West Cross","url":"https://swansea.gov.uk/mumblesfoodbank"},"type":"Feature"},
		{"geometry":{"coordinates":[-3.94293,51.62326],"type":"Point"},"properties":{"_source":"swansea_council","address":"Elysium Gallery, 34a Orchard Street, SA1 5AW","title":"Ostreme Community Centre","url":"https://swansea.gov.uk/ostremecommunitycentre"},"type":"Feature"},
		{"geometry":{"coordinates":[-3.93577,51.61916],"type":"Point"},"properties":{"_source":"swansea_council","address":"Somerset Place, Swansea, SA1 1RR","title":"Oystermouth Library","url":"https://swansea.gov.uk/oystermouthlibrary"},"type":"Feature"},
		{"geometry":{"coordinates":[-3.94222,51.62590],"type":"Point"},"properties":{"_source":"swansea_council","address":"Ebenezer Street, Swansea, SA1 5BJ","title":"Pennard Library","url":"https://swansea.gov.uk/pennardlibrary"},"type":"Feature"},
		{"geometry":{"coordinates":[-3.94438,51.62383],"type":"Point"},"properties":{"_source":"swansea_council","address":"Alexandra Road, Swansea, SA1 5DZ","title":"West Cross Community Centre","url":"https://swansea.gov.uk/westcrosscommunitycentre"},"type":"Feature"}
	]
}
