{
	"type": "FeatureCollection",
	"features": [
		{"geometry":{"coordinates":[-0.76877,50.83622],"type":"Point"},"properties":{"_source":"warm_welcome","address":"104 The Hornet, Chichester, Wet Sussex PO19 7JR","description":"Our space is an open access youth drop-in available to any local young person aged 11-17","hours":"Mo 03:30-05:30, Tu 03:30-05:30, We 03:30-05:30, Th 03:30-05:30, Fr 03:30-05:30","title":"Bell Tower Youth Drop-In"},"type":"Feature"},
		{"geometry":{"coordinates":[-0.78839,50.84381],"type":"Point"},"properties":{"_source":"warm_welcome","address":"124 Sherborne Road, Chichester PO19 3AW","description":"Open from 19-11-22. These evenings will be open to all ages across the family. we are hosting a fortnightly warm space family film and food evening which is free for everyone in our neighbourhood.","hours":"Fr 17:00-19:30, Sa 17:00-19:30","title":"Chichester Baptist Church"},"type":"Feature"},
		{"geometry":{"coordinates":[-0.78072,50.83613],"type":"Point"},"properties":{"_source":"warm_welcome","address":"Chichester Cathedral, Chichester, England PO19 1PX","description":" Day Chaplains are available. Join us for Warm Space pop-ups: Tuesday Lunchtime concert, 13:00- 14:20. (Please see Cathedral website for dates) First Saturday of the month: Friends Coffee Morning: 10-11:30am ","hours":"Mo 09:00-17:00, Tu 09:00-17:00, We 09:00-17:00, Th 09:00-17:00, Fr 09:00-17:00, Sa 09:00-17:00, Su 12:00-14:00","title":"Chichester Cathedral"},"type":"Feature"},
		{"geometry":{"coordinates":[-0.77905,50.84260],"type":"Point"},"properties":{"_source":"warm_welcome","address":"Chichester Festival Theatre, Oaklands Park, Chichester PO19 6AP","description":" CFT is very happy to be offering our foyer as a Warm Space. Open from 10am Monday â€“ Saturday until the end of the performance, if of","hours":"Mo 10:00-22:00, Tu 10:00-22:00, We 10:00-22:00, Th 10:00-22:00, Fr 10:00-22:00, Sa 09:00-22:00","title":"Chichester Festival Theatre"},"type":"Feature"},
		{"geometry":{"coordinates":[-0.78153,50.83795],"type":"Point"},"properties":{"_source":"warm_welcome","address":"Tower Street, Chichester, West Sussex PO19 1QJ","description":"","hours":"Mo 09:00-18:00, Tu 09:00-18:00, We 09:00-18:00, Th 09:00-18:00, Fr 09:00-18:00, Sa 09:00-17:00","title":"Chichester Library"},"type":"Feature"}