{
	"type": "FeatureCollection",
	"features": [
		{"geometry":{"coordinates":[-3.17354,51.46952],"type":"Point"},"properties":{"_source":"warm_welcome","address":"Dumballs Road, Cardiff, South Glamorgan CF10 5FE","description":"","hours":"Mo 09:00-17:00, Tu 09:00-17:00, We 09:00-17:00, Th 09:00-17:00, Fr 09:00-17:00","title":"Butetown Pavilion Hub"},"type":"Feature"},
		{"geometry":{"coordinates":[-3.20311,51.48223],"type":"Point"},"properties":{"_source":"warm_welcome","address":"Library Street, Canton, Cardiff CF5 1QD","description":" we have selective newspapers available free to read, we have desks to work with laptops on,","hours":"Mo 09:00-13:00, Tu 09:00-13:00, We 09:00-13:00, Fr 09:00-13:00, Sa 09:00-13:00","title":"Canton Library"},"type":"Feature"},
		{"geometry":{"coordinates":[-3.17545,51.47769],"type":"Point"},"properties":{"_source":"warm_welcome","address":"Caridff Central Library Hub, The Hayes, Cardiff CF10 1FL","description":"","hours":"Mo 09:00-18:00, Tu 09:00-18:00, We 09:00-18:00, Th 10:00-19:00, Fr 09:00-18:00, Sa 09:00-17:30","title":"Cardiff Central Library Hub"},"type":"Feature"},
		{"geometry":{"coordinates":[-3.17967,51.49956],"type":"Point"},"properties":{"_source":"warm_welcome","address":"Fairoak Road, Cathays, Cardiff CF24 4PW","description":"We facilitate activities for all ages","hours":"Mo 09:00-13:00, Tu 09:00-13:00, We 09:00-13:00, Th 09:00-13:00, Sa 09:00-13:00","title":"Cardiff Council - Cathays Branch & Heritage Library"},"type":"Feature"},
		{"geometry":{"coordinates":[-3.23530,51.48195],"type":"Point"},"properties":{"_source":"warm_welcome","address":"Ely and Caerau hub, Cowbridge Road West , Cardiff CF5 5BQ","hours":"Mo 09:00-18:00, Tu 09:00-18:00, We 09:00-18:00, Th 10:00-19:00, Fr 09:00-18:00, Sa 09:00-17:30","title":"Cardiff Council - Ely and Caerau Hub"},"type":"Feature"},
		{"geometry":{"coordinates":[-3.22302,51.49216],"type":"Point"},"properties":{"_source":"warm_welcome","address":"Doyle Avenue, Fairwater, Cardiff CF5 2HU","description":"","hours":"Mo 09:00-18:00, We 09:00-18:00, Th 10:00-19:00, Fr 09:00-18:00, Sa 09:00-17:30","title":"Fairwater Hub"},"type":"Feature"}