{
	"type": "FeatureCollection",
	"features": [
		{"geometry":{"coordinates":[-3.29780,56.37629],"type":"Point"},"properties":{"_source":"perth_and_kinross_council","address":"Madoch Centre, St Madoes, PH2 7FF","description":"Activities and refreshments","hours":{"_text":"From 1st Nov to 30th Mar- Mon 2pm-3pm / Tues 9.30am - 12pm; 12.30pm-1.30pm/ Wed 9.30am-11:30am, 2:30pm-4pm / Thurs 1pm-3pm / Fri 9am-10am; 10am-11am","opening":"Mo 14:00-15:00; Tu 09:30-12:00; We 09:30-11:30,14:30-16:00; Th 13:00-15:00; Fr 09:00-10:00"},"title":"Madoch Centre"},"type":"Feature"},
		{"geometry":{"coordinates":[-3.20997,56.39295],"type":"Point"},"properties":{"_source":"perth_and_kinross_council","address":"Errol Village Hall, North Bank Dykes, PH2 7QH","contact":"01821 642392","description":"Hot/cold drinks, snacks and mugs of soup and activities","hours":{"_text":"From 6th Nov to 27th March - Wednesdays 10am - 2pm","opening":"We 10:00-14:00"},"title":"Errol Warm Welcome Café"},"type":"Feature"},
		{"geometry":{"coordinates":[-3.20997,56.39295],"type":"Point"},"properties":{"_source":"perth_and_kinross_council","address":"Errol Village Hall, North Bank Dykes, PH2 7QH","contact":"01821 642392","description":"Tea/coffee and biscuits","hours":{"_text":"From 6th Nov to 27th March - Thursdays 11am -12pm","opening":"Th 11:00-12:00"},"title":"Errol FareShare Hour"},"type":"Feature"},
		{"geometry":{"coordinates":[-3.40401,56.41946],"type":"Point"},"properties":{"_source":"perth_and_kinross_council","address":"Scone Library, Sandy Road, PH2 6LH","description":"Hot drinks and snacks, games, jigsaws, books","hours":{"_text":"Tues 10am-1pm/2pm-7pm; Weds 10am-1pm/2pm-5pm; Thurs 10am-1pm/2pm-5pm;Friday 10am-1pm/2pm-5pm; Sat 10am-1pm","opening":"Tu 10:00-13:00,14:00-19:00; We 10:00-13:00,14:00-17:00; Th 10:00-13:00,14:00-17:00; Fr 10:00-13:00,14:00-17:00; Sa 10:00-13:00"},"title":"CPK Libraries"},"type":"Feature"},
		{"geometry":{"coordinates":[-3.26751,56.54571],"type":"Point"},"properties":{"_source":"perth_and_kinross_council","address":"Trades Lane, Coupar Angus, PH13 9DN","description":"Refreshments and literature","hours":{"_text":"Mon, Tues & Fri 10am-4.30pm; Wed 10am-12pm","opening":"Mo 10:00-16:30; Tu 10:00-16:30; Fr 10:00-16:30; We 10:00-12:00"},"title":"Strathmore Community Hub"},"type":"Feature"},
		{"geometry":{"coordinates":[-3.26637,56.54534],"type":"Point"},"properties":{"_source":"perth_and_kinross_council","address":"2 George Street, Coupar Angus, PH13 9DH","description":"Refreshment and chat","hours":{"_text":"Tues-Sat 10am-12.30pm","opening":"Tu-Sa 10:00-12:30"},"title":"Cascade Institute"},"type":"Feature"},
		{"geometry":{"coordinates":[-3.26267,56.54820],"type":"Point"},"properties":{"_source":"perth_and_kinross_council","address":"1 Forfar Road, Coupar Angus, PH139AN","contact":"01828 958296","description":"For ages 8-11, cycle maintenance, bike skills with refreshments","hours":{"_text":"Wed 3.30pm-5.30pm; Sat 10am-12pm","opening":"We 15:30-17:30; Sa 10:00-12:00"},"title":"Strathmore Cycle Hub"},"type":"Feature"},
		{"geometry":{"coordinates":[-3.26751,56.54571],"type":"Point"},"properties":{"_source":"perth_and_kinross_council","address":"Strathmore Hub, Trades Lane, Coupar Angus, PH13 9DN.","description":"Social activities for all for companionship, with refreshments","hours":{"_text":"Mondays 1:30pm-3:30pm","opening":"Mo 13:30-15:30"},"title":"New Age Curling"},"type":"Feature"},
		{"geometry":{"coordinates":[-3.29751,56.52395],"type":"Point"},"properties":{"_source":"perth_and_kinross_council","address":"Cargill Burrelton Church Hall, 3 Church Road, PH13 9QB","description":"Digital support","hours":{"_text":"Last Tuesday of the month 2pm-4pm","opening":"Tu[-1] 14:00-16:00"},"title":"Burrelton Hub - Digital Drop-in"},"type":"Feature"},
		{"geometry":{"coordinates":[-3.40598,56.46977],"type":"Point"},"properties":{"_source":"perth_and_kinross_council","address":"Guildtown Village Hall, Hall Road, PH2 6BX","contact":"01821 640625 (Fiona Cameron)/07792540569 (Marjory Moran)","description":"For Over 50s, social events","hours":{"_text":"Every 2nd Wednesday 2pm-4pm","opening":"We[2] 14:00-16:00"},"title":"Guildtown Friendship Club"},"type":"Feature"},
		{"geometry":{"coordinates":[-3.26751,56.54571],"type":"Point"},"properties":{"_source":"perth_and_kinross_council","address":"Strathmore Hub, Trades Lane, Coupar Angus, PH13 9DN.","contact":"07732333243","description":"For over 65s, refreshments and entertainment","hours":{"_text":"Every 2nd Thurs of the month 2.30pm-4.30pm","opening":"Th[2] 14:30-16:30"},"title":"Thursday Friends"},"type":"Feature"},
		{"geometry":{"coordinates":[-3.26333,56.54390],"type":"Point"},"properties":{"_source":"perth_and_kinross_council","address":"Queen Street, Coupar Angus, PH13 9DE","contact":"01828 627028","description":"Friendly Fridays - Hot drinks and home baking (Cash donations welcome)","hours":{"_text":"Fridays 1.30pm-3pm","opening":"Fr 13:30-15:00"},"title":"Abbey Church"},"type":"Feature"},
		{"geometry":{"coordinates":[-3.29751,56.52395],"type":"Point"},"properties":{"_source":"perth_and_kinross_council","address":"Cargill Burrelton Church Hall, 3 Church Road, PH13 9QB","hours":{"_text":"Fridays 3.30pm-5pm","opening":"Fr 15:30-17:00"},"title":"Burrelton Hub - Together Time"},"type":"Feature"},
		{"geometry":{"coordinates":[-3.26577,56.54335],"type":"Point"},"properties":{"_source":"perth_and_kinross_council","address":"35 Precinct Street, Coupar Angus, PH13 9DG","contact":"07889224879","description":"Lights switch on, with refreshments at Strathmore Hub afterwards","hours":{"_text":"24th Nov 4pm"},"title":"Coupar Angus Christmas Lights"},"type":"Feature"},
		{"geometry":{"coordinates":[-3.48432,56.42304],"type":"Point"},"properties":{"_source":"perth_and_kinross_council","address":"The Hub, 15 Adamson Avenue, Bertha Park, PH1 0AL","description":"Hot food and support","hours":{"_text":"Thursdays 12pm-2pm","opening":"Th 12:00-14:00"},"title":"Bertha Blethers"},"type":"Feature"},
		{"geometry":{"coordinates":[-3.44733,56.48328],"type":"Point"},"properties":{"_source":"perth_and_kinross_council","address":"Tayside Hotel, 51 Mill Street, PH1 4NL","contact":"7712219261","description":"Soup and refreshments","hours":{"_text":"Three Wednesdays per month until May 2025, 12pm-2pm"},"title":"Soup Club (50+)"},"type":"Feature"},
		{"geometry":{"coordinates":[-3.44733,56.48328],"type":"Point"},"properties":{"_source":"perth_and_kinross_council","address":"Tayside Hotel, 51 Mill Street, PH1 4NL","contact":"07712219261","description":"Hot meals and entertainment for families","hours":{"_text":"Sundays 4-6pm Monthly (24/11;29/12;19/01;16/02;23/03)","opening":"Su 16:00-18:00"},"title":"Family Fun and Food"},"type":"Feature"},
		{"geometry":{"coordinates":[-3.51212,56.49882],"type":"Point"},"properties":{"_source":"perth_and_kinross_council","address":"Bankfoot Bowling Club, Nicoll Drive, Bankfoot, PH1 4BL","contact":"01738787694","description":"Games and Refreshments","hours":{"_text":"Weds 12.30pm-3.30pm/ Thurs 1pm-2.30pm (for local primary school)","opening":"We 12:30-15:30; Th 13:00-14:30"},"title":"Cuppa and Company"},"type":"Feature"},
		{"geometry":{"coordinates":[-3.46854,56.40829],"type":"Point"},"properties":{"_source":"perth_and_kinross_council","address":"Tulloch Community Centre, Tulloch Terrace, PH1 2PF","contact":"7305094826","description":"Hot food, refreshments and activities","hours":{"_text":"Monday 4pm-5.30pm","opening":"Mo 16:00-17:30"},"title":"Tulloch Net"},"type":"Feature"},
		{"geometry":{"coordinates":[-3.46656,56.40150],"type":"Point"},"properties":{"_source":"perth_and_kinross_council","address":"Letham St Marks Church, Rannoch Road, PH1 2HH","contact":"01738 446377","description":"Hot refreshment and support","hours":{"_text":"Thursdays 2pm-7pm","opening":"Th 14:00-19:00"},"title":"Letham St Marks Church"},"type":"Feature"},
		{"geometry":{"coordinates":[-3.46745,56.40244],"type":"Point"},"properties":{"_source":"perth_and_kinross_council","address":"Letham Hub, Amulree Road, Letham, PH1 2HH","contact":"1738444061","description":"Hot food and drinks, children’s activities, board games and a social space","hours":{"_text":"Saturday & Sunday 4pm-8pm","opening":"Sa 16:00-20:00; Su 16:00-20:00"},"title":"Letham4All"},"type":"Feature"},
		{"geometry":{"coordinates":[-3.43480,56.39707],"type":"Point"},"properties":{"_source":"perth_and_kinross_council","address":"283 High Street, Perth, PH1 5QN","contact":"079 8463 1491","description":"Ages 16+, Unlimited hot drinks and light snacks available on a take away basis.","hours":{"_text":"Mon-Sat 9am-7pm (takeaway); Mon & Sat 6pm-8pm - full warm space","opening":"Mo-Sa 09:00-19:00; Mo 18:00-20:00; Sa 18:00-20:00"},"title":"Perth Minorities Association"},"type":"Feature"},
		{"geometry":{"coordinates":[-3.43392,56.39929],"type":"Point"},"properties":{"_source":"perth_and_kinross_council","address":"North Methven Street, Perth, PH1 5PP","contact":"01738 632053","description":"Breakfast Club - All ages","hours":{"_text":"Mondays 9am-11.30am","opening":"Mo 09:00-11:30"},"title":"St Ninians Cathedral"},"type":"Feature"},
		{"geometry":{"coordinates":[-3.44347,56.41352],"type":"Point"},"properties":{"_source":"perth_and_kinross_council","address":"Bute Drive, Perth, PH1 3BG","description":"Hot drinks and children's play area","hours":{"_text":"Tues-Fri 10am-2pm","opening":"Tu-Fr 10:00-14:00"},"title":"Perth Riverside Church"},"type":"Feature"},
		{"geometry":{"coordinates":[-3.43166,56.39715],"type":"Point"},"properties":{"_source":"perth_and_kinross_council","address":"209 High Street, Perth, PH1 5PB","contact":"01738 474566 / 07727632919","description":"Support in a warm safe environment for anyone living with or supporting people with dementia","hours":{"_text":"First Wednesday of every month from 10am-12:30pm","opening":"We[1] 10:00-12:30"},"title":"Dementia Café @ North Church"},"type":"Feature"},
		{"geometry":{"coordinates":[-3.43652,56.41036],"type":"Point"},"properties":{"_source":"perth_and_kinross_council","address":"Gowans Terrace, PH1 5BF","description":"Refreshments and activities","hours":{"_text":"Tues & Thurs 10am-7pm; Weds & Fri 10am-6pm; Sat 10am-1pm","opening":"Tu 10:00-19:00; Th 10:00-19:00; We 10:00-18:00; Fr 10:00-18:00; Sa 10:00-13:00"},"title":"North Inch Community Campus"},"type":"Feature"},
		{"geometry":{"coordinates":[-3.43248,56.40036],"type":"Point"},"properties":{"_source":"perth_and_kinross_council","address":"Perth Creative Exchange, Stormont Street, Perth, PH1 5NW","description":"Art Club for primary aged children P1-7 and their families attending with siblings","hours":{"_text":"Saturday 10am-12pm","opening":"Sa 10:00-12:00"},"title":"Creative Catalyst - Saturday Art Club"},"type":"Feature"},
		{"geometry":{"coordinates":[-3.42099,56.39582],"type":"Point"},"properties":{"_source":"perth_and_kinross_council","address":"Dundee Road, Perth, PH2 7EY","contact":"7444539052","description":"Soup and refreshments","hours":{"_text":"Tuesday and Friday 11.30am-3pm","opening":"Tu 11:30-15:00; Fr 11:30-15:00"},"title":"Kinnoull Parish Church"},"type":"Feature"},
		{"geometry":{"coordinates":[-3.43166,56.39715],"type":"Point"},"properties":{"_source":"perth_and_kinross_council","address":"209 High Street, Perth, PH1 5PB","description":"Refreshments and reading materials","hours":{"_text":"Thurs 10am-12pm","opening":"Th 10:00-12:00"},"title":"Perth North Church"},"type":"Feature"},
		{"geometry":{"coordinates":[-3.44251,56.41405],"type":"Point"},"properties":{"_source":"perth_and_kinross_council","address":"Bute Drive, Perth, PH1 3BG","contact":"07981 919742","description":"Men's Walking Football (Hot drinks afterwards","hours":{"_text":"Wednesday 9.30am-11.30am","opening":"We 09:30-11:30"},"title":"Jeanfield Swifts Community Football Club"},"type":"Feature"},
		{"geometry":{"coordinates":[-3.44251,56.41405],"type":"Point"},"properties":{"_source":"perth_and_kinross_council","address":"Bute Drive, Perth, PH1 3BG","contact":"07981 919742","description":"Activities for young people","hours":{"_text":"Fridays 5.30pm-7.30pm","opening":"Fr 17:30-19:30"},"title":"Jeanfield Swifts Community Football Club"},"type":"Feature"},
		{"geometry":{"coordinates":[-3.44821,56.41298],"type":"Point"},"properties":{"_source":"perth_and_kinross_council","address":"North Muirton Community Centre, Argyll Road, PH1 3BZ","contact":"1738808678","description":"Youth Club","hours":{"_text":"Fridays 4.30pm"},"title":"North Muirton Community Centre"},"type":"Feature"},
		{"geometry":{"coordinates":[-3.44821,56.41298],"type":"Point"},"properties":{"_source":"perth_and_kinross_council","address":"North Muirton Community Centre, Argyll Road, PH1 3BZ","contact":"1738808678","description":"Open to All - Games, arts and crafts, hot food and drinks","hours":{"_text":"Saturday 11am-1pm - fortnightly (every Saturday lunchtime for 13-17 year olds) ; Sun 15th Dec 12pm-4pm - Christmas fun and food for families","opening":"Sa 11:00-13:00"},"title":"North Muirton Community Centre"},"type":"Feature"},
		{"geometry":{"coordinates":[-3.44050,56.40909],"type":"Point"},"properties":{"_source":"perth_and_kinross_council","address":"3 The Rookery, Perth, PH1 5FX","description":"Warm spaces for families with snacks, games and a hot dinner","hours":{"_text":"Wed 3:30-5:30pm","opening":"We 15:30-17:30"},"title":"Families Empowering Communities"},"type":"Feature"},
		{"geometry":{"coordinates":[-3.43134,56.39503],"type":"Point"},"properties":{"_source":"perth_and_kinross_council","address":"Perth Methodist Church, Scott Street, PH2 8JN","contact":"7715499894","description":"Refreshments, activities and conversation (for ages 16+)","hours":{"_text":"Thursday 1.45pm-4pm","opening":"Th 13:45-16:00"},"title":"Renew 23.3"},"type":"Feature"},
		{"geometry":{"coordinates":[-3.42469,56.39630],"type":"Point"},"properties":{"_source":"perth_and_kinross_council","address":"Tay Street, Perth, PH1 5QJ","contact":"01738 636757 (Beverly Skene)","description":"Refreshments and activities","hours":{"_text":"From 8th Jan, Wednesday & Friday 1pm-4pm","opening":"We 13:00-16:00; Fr 13:00-16:00"},"title":"St Matthews Church"},"type":"Feature"},
		{"geometry":{"coordinates":[-3.43403,56.39667],"type":"Point"},"properties":{"_source":"perth_and_kinross_council","address":"240 High Street, Perth, PH1 5QJ","contact":"7915382851","description":"Saturdays - Hot food and Community Chat (for ages 16+); Thursday - Community Games Night","hours":{"_text":"Sat 12pm-2pm; Thurs 6pm-8pm","opening":"Sa 12:00-14:00; Th 18:00-20:00"},"title":"Perth Hope Hub"},"type":"Feature"},
		{"geometry":{"coordinates":[-3.42661,56.39404],"type":"Point"},"properties":{"_source":"perth_and_kinross_council","address":"Princes Street, PH2 8LJ","contact":"01738 634999","description":"Refreshments and activities","hours":{"_text":"Wednesdays 1pm-3pm","opening":"We 13:00-15:00"},"title":"St John the Baptist SEC"},"type":"Feature"},
		{"geometry":{"coordinates":[-3.43276,56.39936],"type":"Point"},"properties":{"_source":"perth_and_kinross_council","address":"19 Atholl Street, Perth, PH1 5NH","contact":"07553030464 (Matthew Malloch)","description":"For ages 12-25, warm space for young people with food","hours":{"_text":"Saturdays 2pm-3.30pm (excl. 21/12 and 04/01); 27th Dec 2pm-4pm; 28th Dec 2pm-4pm","opening":"Sa 14:00-15:30"},"title":"YMCA Tayside"},"type":"Feature"},
		{"geometry":{"coordinates":[-3.38007,56.53098],"type":"Point"},"properties":{"_source":"perth_and_kinross_council","address":"Kinclaven, Stanley, PH1 4QW","contact":"07724844182","description":"Warm drinks, food and games","hours":{"_text":"First and third Thursday mornings of the month 10am-12.30pm"},"title":"Kinclaven Church Hall"},"type":"Feature"},
		{"geometry":{"coordinates":[-3.44882,56.48101],"type":"Point"},"properties":{"_source":"perth_and_kinross_council","address":"Perth Road, Stanley, PH1 4NQ","contact":"01738 718 733","description":"Refreshments and crafts","hours":{"_text":"Mondays 10am-1pm","opening":"Mo 10:00-13:00"},"title":"St Columba's Scottish Episcopal Church"},"type":"Feature"},
		{"geometry":{"coordinates":[-3.44311,56.39559],"type":"Point"},"properties":{"_source":"perth_and_kinross_council","address":"28 Glasgow Road, Perth, PH2 0NX","description":"Soup and roll with social hub activities","hours":{"_text":"Thursdays 6pm-8pm","opening":"Th 18:00-20:00"},"title":"Perthshire Welfare Society"},"type":"Feature"},
		{"geometry":{"coordinates":[-3.16763,56.44582],"type":"Point"},"properties":{"_source":"perth_and_kinross_council","address":"Inchture Village Hall, Main Street, Inchture, PH14 9RR","contact":"07974739306","description":"For parents & children (birth to 5yrs) Refreshments, activities, friendship and advice","hours":{"_text":"Thursday 9.30am-11.30am during term time","opening":"Th 09:30-11:30"},"title":"Inchture Tea & Tots"},"type":"Feature"}
	]
}
