{
	"type": "FeatureCollection",
	"features": [
		{"geometry":{"coordinates":[-3.21141,56.39284],"type":"Point"},"properties":{"_source":"perth_and_kinross_council","address":"Errol Village Hall, North Bank Dykes, PH2 7QH","contact":"Tel: ; Email: errolvillagebabyandtoddlers@gmail.com","description":"Weekly meet up - parents/ carers & children from birth - P1 age. Healthy snacks.","hours":{"_text":"Tuesdays 9.30am -11.00am November - March","opening":"Tu 09:30-11:00"},"title":"Errol Baby and Toddler Group"},"type":"Feature"},
		{"geometry":{"coordinates":[-3.21141,56.39284],"type":"Point"},"properties":{"_source":"perth_and_kinross_council","address":"Errol Village Hall, North Bank Dykes, PH2 7QH","contact":"Tel: 07740981369; Email: m.crerar@btinternet.com","description":"Lunch Club with Warm Spaces and Fairshare","hours":{"_text":"Warm Spaces Wednesdays 12.30 - 3.30pm in Errol Village Hall. Fairshare Thursdays in Errol Church 11.00 - 12.00 noon","opening":"We 12:30-15:30"},"title":"Errol Village Hall"},"type":"Feature"},
		{"geometry":{"coordinates":[-3.16908,56.44570],"type":"Point"},"properties":{"_source":"perth_and_kinross_council","address":"Inchture Village Hall, Main Street, Inchture, PH14 9RR","contact":"Tel: 7974739306; Email: inchtureteaandtots@hotmail.com","description":"Parents and carers with children birth - school age. Hot drinks & snacks","hours":{"_text":"Thursday 9.30am-11.30am during term time","opening":"Th 09:30-11:30"},"title":"Inchture Tea & Tots"},"type":"Feature"},
		{"geometry":{"coordinates":[-3.29923,56.37618],"type":"Point"},"properties":{"_source":"perth_and_kinross_council","address":"Madoch Centre, St Madoes, PH2 7FF","contact":"Tel: 1738861023; Email: anthea@madochcentre.com","description":"Warm space for parents/ carers and young children with educational activities and refreshments","hours":{"_text":"Fridays 9.00am - 10.30am 1st Nov 2025-30th April 2026","opening":"Fr 09:00-10:30"},"title":"Madoch Centre - Peep Parenting"},"type":"Feature"},
		{"geometry":{"coordinates":[-3.29923,56.37618],"type":"Point"},"properties":{"_source":"perth_and_kinross_council","address":"Madoch Centre, St Madoes, PH2 7FF","contact":"Tel: 1738861023; Email: anthea@madochcentre.com","description":"Chair based exercise with social time and refreshments. Transport provided.","hours":{"_text":"Wednesdays 1.30pm - 4.00pm 1st Nov 2025-30th April 2026","opening":"We 13:30-16:00"},"title":"Madoch Centre - Seated Exercise"},"type":"Feature"},
		{"geometry":{"coordinates":[-3.29923,56.37618],"type":"Point"},"properties":{"_source":"perth_and_kinross_council","address":"Madoch Centre, St Madoes, PH2 7FF","contact":"Tel: 1738861023; Email: anthea@madochcentre.com","description":"Warm space for parents/ carers and under 5's with educational activities and refreshments","hours":{"_text":"Wednesdays 9.30-11.30am 1st Nov 2025-30th April 2026","opening":"We 09:30-11:30"},"title":"Madoch Centre - Under 5s"},"type":"Feature"},
		{"geometry":{"coordinates":[-3.46797,56.40138],"type":"Point"},"properties":{"_source":"perth_and_kinross_council","address":"Letham St Marks Church, Rannoch Road, PH1 2HH","contact":"Tel: 7549104044; Email: NSlowman@churchofscotland.org.uk","description":"Hot refreshments and support","hours":{"_text":"Thursdays 1pm-6pm","opening":"Th 13:00-18:00"},"title":"Letham St Marks Church"},"type":"Feature"},
		{"geometry":{"coordinates":[-3.46178,56.41178],"type":"Point"},"properties":{"_source":"perth_and_kinross_council","address":"Tulloch Primary School, Gillespie Place, Perth PH1 2QX","contact":"Tel: 7305094826; Email: gavinmar.tullochnet@perthnorthchurch.org.uk","description":"Hot food, refreshments and activities","hours":{"_text":"Tuesday from 5pm-6:30pm- Community Meal ","opening":"Tu 17:00-18:30"},"title":"Tulloch Net"},"type":"Feature"},
		{"geometry":{"coordinates":[-3.44392,56.41392],"type":"Point"},"properties":{"_source":"perth_and_kinross_council","address":"Riverside Stadium Bute Drive, Perth, PH1 3BG","contact":"Tel: 01738 658252; Email: fdo@jeanfieldswifts.co.uk","description":"Weekly Walk &Talk Coffee Morning 16+, intergenerational","hours":{"_text":"Tuesday mornings following Walk & Talk Group "},"title":"Jeanfield Swifts Community Football Club"},"type":"Feature"},
		{"geometry":{"coordinates":[-3.44392,56.41392],"type":"Point"},"properties":{"_source":"perth_and_kinross_council","address":"Riverside Stadium, Bute Drive, Perth, PH1 3BG","contact":"Tel: 01738 658252; Email: fdo@jeanfieldswifts.co.uk","description":"Extra Time with Swifts for 11-16 year olds","hours":{"_text":"Wednesdays after school"},"title":"Jeanfield Swifts Community Football Club"},"type":"Feature"},
		{"geometry":{"coordinates":[-3.43793,56.41023],"type":"Point"},"properties":{"_source":"perth_and_kinross_council","address":"Gowans Terrace, Perth PH1 5BF","contact":"Tel: 01738 454406; Email: northinchlibrary@culturepk.org.uk","description":"Refreshments with access to warm space and library resources","hours":{"_text":"Tues & Thurs 10am-7pm; Weds & Fri 10am-6pm; Sat 10am-1pm","opening":"Tu 10:00-19:00; Th 10:00-19:00; We 10:00-18:00; Fr 10:00-18:00; Sa 10:00-13:00"},"title":"North Inch Community Library"},"type":"Feature"},
		{"geometry":{"coordinates":[-3.43533,56.39917],"type":"Point"},"properties":{"_source":"perth_and_kinross_council","address":"North Methven Street, Perth, PH1 5PP","contact":"Tel: 01738 632053; Email: office@perthcathedral.co.uk","description":"Breakfast for all ages with coffee/ chat/ activities and advice services. In partnership with SFRS and YMCA.","hours":{"_text":"Mondays 9am-11.30am","opening":"Mo 09:00-11:30"},"title":"Perth Cathedral St Ninian's"},"type":"Feature"},
		{"geometry":{"coordinates":[-3.43544,56.39655],"type":"Point"},"properties":{"_source":"perth_and_kinross_council","address":"240 High Street, Perth, PH1 5QJ","contact":"Tel: 7915382851; Email: perthhopehub@proton.me","description":"Café with free hot drinks, sweet treats, soup & hot meals","hours":{"_text":"Wednesdays 11am - 4pm","opening":"We 11:00-16:00"},"title":"Perth Hope Hub"},"type":"Feature"},
		{"geometry":{"coordinates":[-3.43544,56.39655],"type":"Point"},"properties":{"_source":"perth_and_kinross_council","address":"240 High Street, Perth, PH1 5QJ","contact":"Tel: 7915382851; Email: perthhopehub@proton.me","description":"Board games night with snacks & hot drinks","hours":{"_text":"Thursdays 6-8pm","opening":"Th 18:00-20:00"},"title":"Perth Hope Hub"},"type":"Feature"},
		{"geometry":{"coordinates":[-3.43544,56.39655],"type":"Point"},"properties":{"_source":"perth_and_kinross_council","address":"240 High Street, Perth, PH1 5QJ","contact":"Tel: 7915382851; Email: perthhopehub@proton.me","description":"Film nights with hot and cold drinks","hours":{"_text":"Wednesdays 12th & 26th November, 10th& 24th December, 7th & 21st January, 4th & 18th February, 18th March (5:30 – 8pm) "},"title":"Perth Hope Hub"},"type":"Feature"},
		{"geometry":{"coordinates":[-3.43685,56.39618],"type":"Point"},"properties":{"_source":"perth_and_kinross_council","address":"29-30 Market Street, Perth PH1 5QH","contact":"Tel: 01738 508966; Email: perthwsociety@outlook.com","description":"Warm space with activities. Soup & bread served on Wednesdays. All ages welcome, children must be accompanied by an adult","hours":{"_text":"Mondays - Fridays, 9:00 AM – 2:00 PM ","opening":"Mo-Fr 09:00-14:00"},"title":"Perthshire Welfare Society"},"type":"Feature"},
		{"geometry":{"coordinates":[-3.42802,56.39392],"type":"Point"},"properties":{"_source":"perth_and_kinross_council","address":"The Threshold, Princes Street, Perth PH2 8LJ","contact":"Tel: 01738 634999; Email: treasurer@episcopal-perth.org.uk","description":"Refreshments and activities","hours":{"_text":"Wednesdays 1pm-3pm ","opening":"We 13:00-15:00"},"title":"St John the Baptist SEC"},"type":"Feature"},
		{"geometry":{"coordinates":[-3.42610,56.39617],"type":"Point"},"properties":{"_source":"perth_and_kinross_council","address":"Tay Street, Perth, PH1 5QJ","contact":"Tel: 01738 636757; Email: FMBruce6@googlemail.com /janet.rosecottage@gmail.com","description":"Refreshments and activities. Open to all ages","hours":{"_text":"Wednesday & Friday afternoons January, February & March 2026"},"title":"St Matthew's Church"},"type":"Feature"},
		{"geometry":{"coordinates":[-3.43417,56.39924],"type":"Point"},"properties":{"_source":"perth_and_kinross_council","address":"The Y Centre 19 Atholl Street, Perth, PH1 5NH","contact":"Tel: 01738 580001; Email: info@ymcatayside.com","description":"For ages 12-20, warm space with hot food & cooking group on Saturdays","hours":{"_text":"Wednesdays 4pm-5.30pm, Fridays 4pm-5.30pm, Saturdays 10am-12pm","opening":"We 16:00-17:30; Fr 16:00-17:30; Sa 10:00-12:00"},"title":"YMCA Tayside"},"type":"Feature"},
		{"geometry":{"coordinates":[-3.44962,56.41285],"type":"Point"},"properties":{"_source":"perth_and_kinross_council","address":"North Muirton Community Centre, Argyll Road, PH1 3BZ","contact":"Tel: ; Email: craig.nmcc@gmail.com","description":"Community lunches","hours":{"_text":"Biweekly Saturdays, 11am-1pm. Pensioners lunches - dates tbc","opening":"Sa 11:00-13:00"},"title":"Your North Muirton"},"type":"Feature"},
		{"geometry":{"coordinates":[-3.44962,56.41285],"type":"Point"},"properties":{"_source":"perth_and_kinross_council","address":"North Muirton Community Centre, Argyll Road, PH1 3BZ","contact":"Tel: ; Email: craig.nmcc@gmail.com","description":"School hot chocolates – school age pupils","hours":{"_text":"Biweekly Thursdays in term time "},"title":"Your North Muirton"},"type":"Feature"},
		{"geometry":{"coordinates":[-3.44962,56.41285],"type":"Point"},"properties":{"_source":"perth_and_kinross_council","address":"North Muirton Community Centre, Argyll Road, PH1 3BZ","contact":"Tel: ; Email: craig.nmcc@gmail.com","description":"Christmas Event","hours":{"_text":"Saturday December 13th 2025"},"title":"Your North Muirton"},"type":"Feature"},
		{"geometry":{"coordinates":[-3.44527,56.40269],"type":"Point"},"properties":{"_source":"perth_and_kinross_council","address":"Unit 20, St Catherine’s Road Perth PH1 5RY","contact":"Tel: 01738 633077;","description":"Hot Meals , free Laundry services, shower facilities, crisis support. All Age 16+welcome","hours":{"_text":"Monday to Thursday: 9:15 am – 4:30 pm, Friday: 9:15 am – 4:00 pm, 1st Saturday of Month 9.30-11.30am. Open through Festive Period (closed weekends)","opening":"Mo-Th 09:15-16:30; Fr 09:15-16:00; Sa[1] 09:30-11:30"},"title":"CATH Community Hub"},"type":"Feature"},
		{"geometry":{"coordinates":[-3.26477,56.54376],"type":"Point"},"properties":{"_source":"perth_and_kinross_council","address":"Queen Street, Coupar Angus, PH13 9DE","contact":"Tel: ; Email: Kathleengodfrey15@yahoo.com / Rachel.ewins@btinternet.com","description":"Friendly Fridays - hot drinks and home baking","hours":{"_text":"1st Friday of every month 1.00pm - 3.00pm . (except Jan) ","opening":"Fr[1] 13:00-15:00"},"title":"Abbey Church - Friendly Fridays"},"type":"Feature"},
		{"geometry":{"coordinates":[-3.26477,56.54376],"type":"Point"},"properties":{"_source":"perth_and_kinross_council","address":"Queen Street, Coupar Angus, PH13 9DE","contact":"Tel: ; Email: Kathleengodfrey15@yahoo.com / Rachel.ewins@btinternet.com","description":"New Arrivals baby group - parents and carers with babies","hours":{"_text":"Mondays 10am-12 noon","opening":"Mo 10:00-12:00"},"title":"Abbey Church - New Arrivals"},"type":"Feature"},
		{"geometry":{"coordinates":[-3.26477,56.54376],"type":"Point"},"properties":{"_source":"perth_and_kinross_council","address":"Queen Street, Coupar Angus, PH13 9DE","contact":"Tel: ; Email: Kathleengodfrey15@yahoo.com / Rachel.ewins@btinternet.com","description":"Soup Lunches","hours":{"_text":"Wednesdays 12.30-2.30pm twice monthly, start of Oct – end March.","opening":"We 12:30-14:30"},"title":"Abbey Church - Soup Lunches"},"type":"Feature"},
		{"geometry":{"coordinates":[-3.29895,56.52385],"type":"Point"},"properties":{"_source":"perth_and_kinross_council","address":"Cargill Burrelton Church Hall, 3 Church Road, PH13 9QB","contact":"Tel: 07765 578926; Email: burreltoncommunityhub@gmail.com","description":"Homemade soups / rolls/ cakes tea & Coffee","hours":{"_text":"Tuesdays 12 noon -1.30pm","opening":"Tu 12:00-13:30"},"title":"Burrelton Community Hub - Communty Café"},"type":"Feature"},
		{"geometry":{"coordinates":[-3.29895,56.52385],"type":"Point"},"properties":{"_source":"perth_and_kinross_council","address":"Cargill Burrelton Church Hall, 3 Church Road, PH13 9QB","contact":"Tel: 07765 578926; Email: burreltoncommunityhub@gmail.com","description":"An opportunity to catch up with friends and neighbours for a chat with tea/ coffee/ biscs","hours":{"_text":"Fridays 2pm - 3pm ","opening":"Fr 14:00-15:00"},"title":"Burrelton Community Hub - Together Time"},"type":"Feature"},
		{"geometry":{"coordinates":[-3.26707,56.54593],"type":"Point"},"properties":{"_source":"perth_and_kinross_council","address":"The Y Hall, Union St, Coupar Angus PH13 9AE","contact":"Tel: 7597489127; Email: louiselaingcayag@outlook.com","description":"Tasty Tuesdays with hot meal. Suitable for P5 upwards - 9 years to 18 years.","hours":{"_text":"Tuesdays 3.30-4.30pm","opening":"Tu 15:30-16:30"},"title":"CAYAG"},"type":"Feature"},
		{"geometry":{"coordinates":[-3.26895,56.54557],"type":"Point"},"properties":{"_source":"perth_and_kinross_council","address":"Strathmore Community Hub, Trades Lane, Coupar Angus, PH13 9DN.","contact":"Tel: 7889344946; Email: Projects@happytochathappytolisten.co.uk","description":"Warm space with toasties and refreshments","hours":{"_text":"Fridays weekly 10.30am-12.30pm"},"title":"Happy to Chat Happy to Listen"},"type":"Feature"},
		{"geometry":{"coordinates":[-3.26895,56.54557],"type":"Point"},"properties":{"_source":"perth_and_kinross_council","address":"Trades Lane, Coupar Angus, PH13 9DN","contact":"Tel: ; Email: admin@strathmorehub.org","description":"Hub Grub - warm space with refreshments, meals and activities for all ages","hours":{"_text":"Mondays, Tuesdays, Thursdays and Fridays"},"title":"Strathmore Community Hub"},"type":"Feature"},
		{"geometry":{"coordinates":[-3.29895,56.52385],"type":"Point"},"properties":{"_source":"perth_and_kinross_council","address":"Cargill Burrelton Church Hall, 3 Church Road, Burrelton PH13 9QB","contact":"Tel: 07765 578926; Email: burreltoncommunityhub@gmail.com","description":"Busy Bees Playgroup for families and carers with children 0-5 years","hours":{"_text":"Mondays & Thursdays 10am - 12noon","opening":"Mo 10:00-12:00; Th 10:00-12:00"},"title":"Burrelton Community Hub - Busy Bees"},"type":"Feature"},
		{"geometry":{"coordinates":[-3.40543,56.41933],"type":"Point"},"properties":{"_source":"perth_and_kinross_council","address":"Scone Library, Sandy Road, Scone PH2 6LH","contact":"Tel: 01738 459565; Email: sconelibrary@culturepk.org.uk","description":"Hot drinks & access to library resources for all ages","hours":{"_text":"Tues 10am-1pm/2pm-7pm; Weds Thurs Fri 10am - 1pm / 2pm-5pm; Sat 10am-1pm","opening":"We 10:00-13:00,14:00-17:00; Th 10:00-13:00,14:00-17:00; Fr 10:00-13:00,14:00-17:00; Tu 10:00-13:00,14:00-19:00; Sa 10:00-13:00"},"title":"CPK Libraries"},"type":"Feature"},
		{"geometry":{"coordinates":[-3.40740,56.46964],"type":"Point"},"properties":{"_source":"perth_and_kinross_council","address":"Guildtown Village Hall, Hall Road, Guildtown PH2 6BX","contact":"Tel: 01821 640625; Email: fionacameron51@btinternet.com","description":"Friendship Club for 50+ with food, entertainment, transport and social events","hours":{"_text":"Every 2nd Wednesday 2pm-4pm","opening":"We[2] 14:00-16:00"},"title":"Guildtown Friendship Club"},"type":"Feature"},
		{"geometry":{"coordinates":[-3.26895,56.54557],"type":"Point"},"properties":{"_source":"perth_and_kinross_council","address":"Strathmore Community Hub, Trades Lane, Coupar Angus, PH13 9DN.","contact":"Tel: 1828627398; Email: Knbstewart28@gmail.com.","description":"Social activity with cards, dominoes and refreshments for age 50+","hours":{"_text":"Mondays 1:30pm-3:30pm","opening":"Mo 13:30-15:30"},"title":"New Age Kurling"},"type":"Feature"},
		{"geometry":{"coordinates":[-3.48572,56.42292],"type":"Point"},"properties":{"_source":"perth_and_kinross_council","address":"The Hub, 15 Adamson Avenue, Bertha Park, PH1 0AL","contact":"Tel: ; Email: chair.bpresgroup@outlook.com","description":"Soup and sandwiches, activities and speakers","hours":{"_text":"Thursdays 12pm-2pm","opening":"Th 12:00-14:00"},"title":"Bertha Blethers"},"type":"Feature"},
		{"geometry":{"coordinates":[-3.51352,56.49868],"type":"Point"},"properties":{"_source":"perth_and_kinross_council","address":"Bankfoot Bowling Club, Nicoll Drive, Bankfoot, PH1 4BL","contact":"Tel: 7913977591; Email: johnlkellas@hotmail.com","description":"Chat, games and refreshments","hours":{"_text":"Weds 12.30pm-3.30pm/ Thurs 1 x per month 1pm-2.30pm (for local primary school)","opening":"We 12:30-15:30"},"title":"Cuppa and Company"},"type":"Feature"},
		{"geometry":{"coordinates":[-3.38150,56.53084],"type":"Point"},"properties":{"_source":"perth_and_kinross_council","address":"Kinclaven, Stanley, PH1 4QW","contact":"Tel: 7724844182; Email: janetscoyle@btinternet.com","description":"Warm space with bacon rolls, hot drinks, open to all ages","hours":{"_text":"13/11, 27/11 10am-12.00pm. Going forward dates may vary - tbc"},"title":"Kinclaven Church Hall"},"type":"Feature"},
		{"geometry":{"coordinates":[-3.45023,56.48088],"type":"Point"},"properties":{"_source":"perth_and_kinross_council","address":"Perth Road, Stanley, PH1 4NQ","contact":"Tel: 7947321687; Email: revd.ross@hotmail.com","description":"Refreshments and crafts. All ages - Under 16s must be accompanied by an adult","hours":{"_text":"days and times tbc"},"title":"St Columba's Scottish Episcopal Church"},"type":"Feature"},
		{"geometry":{"coordinates":[-3.44875,56.48314],"type":"Point"},"properties":{"_source":"perth_and_kinross_council","address":"Tayside Hotel, 51 Mill Street, Stanley, PH1 4NL","contact":"Tel: 7712219261; Email: Karin@Stanleydevelopmenttrust.org","description":"Hot meal and entertainment for families with children aged under 16","hours":{"_text":"Sundays 4-6pm Monthly dates tbc - check Stanley development Trust FB page for dates","opening":"Su 16:00-18:00"},"title":"Stanley Family Fun and Food"},"type":"Feature"},
		{"geometry":{"coordinates":[-3.44875,56.48314],"type":"Point"},"properties":{"_source":"perth_and_kinross_council","address":"Tayside Hotel, 51 Mill Street, Stanley PH1 4NL","contact":"Tel: 7712219261; Email: Karin@Stanleydevelopmenttrust.org","description":"Lunch Club for age 50+","hours":{"_text":"3rd Wednesday of the month 12.30-1.30pm ","opening":"We[3] 12:30-13:30"},"title":"Stanley Lunch Club"},"type":"Feature"},
		{"geometry":{"coordinates":[-3.44875,56.48314],"type":"Point"},"properties":{"_source":"perth_and_kinross_council","address":"Tayside Hotel, 51 Mill Street, Stanley PH1 4NL","contact":"Tel: 7712219261; Email: Karin@Stanleydevelopmenttrust.org","description":"Soup, sandwich and hot drinks for age 50+","hours":{"_text":"1st Wednesday of the month 12.00-2.00pm","opening":"We[1] 12:00-14:00"},"title":"Stanley Soup Club"},"type":"Feature"},
		{"geometry":{"coordinates":[-3.51264,56.50046],"type":"Point"},"properties":{"_source":"perth_and_kinross_council","address":"Abernethy Church Session House, School Wynd, Abernethy PH2 9JJ","contact":"Tel: ; Email: cluniefarm@aol.com","description":"Warm space with lunch and socialising. Adults","hours":{"_text":"Monday 12-2pm weekly","opening":"Mo 12:00-14:00"},"title":"Abernethy Soup Lunch"},"type":"Feature"},
		{"geometry":{"coordinates":[-3.43121,56.39228],"type":"Point"},"properties":{"_source":"perth_and_kinross_council","address":"Abernethy Church Session House, School Wynd, Abernethy PH2 9JJ","contact":"Tel: ; Email: hcmsmart@hotmail.com","description":"Social meet up with sewing and crafts and sharing skills. Adults","hours":{"_text":"Monday 2pm -4pm. Fortnightly ","opening":"Mo 14:00-16:00"},"title":"Back of the Cupboard"},"type":"Feature"}
	]
}
