{
	"type": "FeatureCollection",
	"features": [
		{"geometry":{"coordinates":[-3.42249,56.39594],"type":"Point"},"properties":{"_source":"perth_and_kinross_council","address":"KINNOULL CHURCH 31 DUNDEE ROAD PERTH PH2 7EY","contact":"mailto:bgkcc@hotmail.co.uk","description":"Warm space/ tea, coffee and biscuits with homemade soup and crusty bread from 12 noon onwards.","hours":{"_text":"Warm space/ tea, coffee and biscuits with homemade soup and crusty bread from 12 noon onwards."},"title":"Bridgend Gannochy & Kinnoull Community Council"},"type":"Feature"},
		{"geometry":{"coordinates":[-3.44973,56.45149],"type":"Point"},"properties":{"_source":"perth_and_kinross_council","address":"OLD SCHOOL HALL KIRK LOAN STORMONTFIELD","contact":"mailto:","description":"Warm space for groups which use hall","hours":{"_text":"Warm space for groups which use hall"},"title":"Stormontfield Community Association"},"type":"Feature"},
		{"geometry":{"coordinates":[-3.43219,56.39727],"type":"Point"},"properties":{"_source":"perth_and_kinross_council","address":"25-29 KINNOULL STREET PERTH PH1 5EN","contact":"mailto:franny@ymcatayside.com","description":"Warm space/ refreshments 16-25 years 4 x per week 26 weeks","hours":{"_text":"Warm space/ refreshments 16-25 years 4 x per week 26 weeks"},"title":"YMCA Tayside"},"type":"Feature"},
		{"geometry":{"coordinates":[-3.46190,56.40068],"type":"Point"},"properties":{"_source":"perth_and_kinross_council","address":"LETHAM COMMUNITY LEARNING CENTRE 117-119 RANNOCH ROAD PERTH PH1 2DQ","contact":"mailto:Gordon@letham4all.org.uk","description":"Warm space/ Wi-Fi/ refreshments @ Letham Social Club Marlee Rd, Perth","hours":{"_text":"Warm space/ Wi-Fi/ refreshments @ Letham Social Club Marlee Rd, Perth"},"title":"Letham4All"},"type":"Feature"},
		{"geometry":{"coordinates":[-3.46803,56.40138],"type":"Point"},"properties":{"_source":"perth_and_kinross_council","address":"LETHAM ST MARKS CHURCH HALL AMULREE ROAD PERTH","contact":"mailto:","description":"Warm space with refreshments","hours":{"_text":"Warm space with refreshments"},"title":"Letham St Marks Church"},"type":"Feature"},
		{"geometry":{"coordinates":[-3.43794,56.38032],"type":"Point"},"properties":{"_source":"perth_and_kinross_council","address":"MONCREIFFE CHURCH GLENBRUAR CRESCENT PERTH PH2 0AJ","contact":"mailto:linda.fyfe@hotmail.co.uk","description":"Warm space/ lunch , arts and crafts games videos music for families","hours":{"_text":"Warm space/ lunch , arts and crafts games videos music for families"},"title":"Craigie & Moncreiffe Messy Church"},"type":"Feature"},
		{"geometry":{"coordinates":[-3.47079,56.40533],"type":"Point"},"properties":{"_source":"perth_and_kinross_council","address":"37 GARTH AVENUE PERTH PH1 2LG","contact":"mailto:lethamclimatechallenge@gmail.com","description":"Warm space/ warm clothes rail and refreshments","hours":{"_text":"Warm space/ warm clothes rail and refreshments"},"title":"Letham Climate Challenge SCIO"},"type":"Feature"},
		{"geometry":{"coordinates":[-3.43255,56.40022],"type":"Point"},"properties":{"_source":"perth_and_kinross_council","address":"OLD ACADEMY BUILDINGS 6-7 ROSE TERRACE PERTH","contact":"mailto:bajkaperth@gmail.com","description":"Warm space for families","hours":{"_text":"Warm space for families"},"title":"Education Centre - Centrum Edukacyjne Bajka CIC"},"type":"Feature"},
		{"geometry":{"coordinates":[-3.43755,56.39241],"type":"Point"},"properties":{"_source":"perth_and_kinross_council","address":"PERTHSHIRE WOMANS AID ROYAL BRITISH HOUSE 113 LEONARD STREET PERTH PH2","contact":"mailto:louisec@perthwomensaid.org.uk","description":"Warm space/ refreshments","hours":{"_text":"Warm space/ refreshments"},"title":"Perthshire Women's Aid"},"type":"Feature"},
		{"geometry":{"coordinates":[-3.43302,56.39646],"type":"Point"},"properties":{"_source":"perth_and_kinross_council","address":"188-190 HIGH STREET PERTH PH1 5PA","contact":"mailto:r.howat@cath-org.co.uk","description":"Warm space","hours":{"_text":"Warm space"},"title":"Churches Action For The Homeless (CATH)"},"type":"Feature"},
		{"geometry":{"coordinates":[-3.43533,56.39917],"type":"Point"},"properties":{"_source":"perth_and_kinross_council","address":"ST NINIANS CATHEDRAL NORTH METHVEN STREET PERTH PH1 5PP","contact":"mailto:","description":"Warm space / refreshments","hours":{"_text":"Warm space / refreshments"},"title":"Perth Cathedral - St Ninians"},"type":"Feature"},
		{"geometry":{"coordinates":[-3.43792,56.39569],"type":"Point"},"properties":{"_source":"perth_and_kinross_council","address":"CHURCH OF THE NAZARENE YORK PLACE PERTH PH2 8EH","contact":"mailto:treasurer@trinitychurchperth.org","description":"Warm space","hours":{"_text":"Warm space"},"title":"Trinity Church of the Nazarene"},"type":"Feature"},
		{"geometry":{"coordinates":[-3.44962,56.48060],"type":"Point"},"properties":{"_source":"perth_and_kinross_council","address":"TAYSIDE HOTEL MILL ST STANLEY PH1 4NL","contact":"mailto:info@stanleydevelopmenttrust.org","description":"Warm space/ refreshments for Winter warmer sessions","hours":{"_text":"Warm space/ refreshments for Winter warmer sessions"},"title":"Stanley Development Trust"},"type":"Feature"},
		{"geometry":{"coordinates":[-3.29922,56.37614],"type":"Point"},"properties":{"_source":"perth_and_kinross_council","address":"MADOCH CENTRE ST MADOES PH2 7FF","contact":"mailto:info@madochcentre.com","description":"Warm space with toys, magazines, games and drinks and biscuits","hours":{"_text":"Warm space with toys, magazines, games and drinks and biscuits"},"title":"St Madoes & Kinfauns Parish Church"},"type":"Feature"},
		{"geometry":{"coordinates":[-3.39939,56.38110],"type":"Point"},"properties":{"_source":"perth_and_kinross_council","address":"WILLOWGATE ACTIVITY CENTRE STOCKGREEN LODGE PERTH PH2 7JU","contact":"mailto:info@willowgateactivitycentre.co.uk","description":"Warm space / snacks for Open Duke of Edinburgh Group","hours":{"_text":"Warm space / snacks for Open Duke of Edinburgh Group"},"title":"Tay and Earn Trust"},"type":"Feature"},
		{"geometry":{"coordinates":[-3.44392,56.41392],"type":"Point"},"properties":{"_source":"perth_and_kinross_council","address":"JEANFIELD SWIFTS COMMUNITY FOOTBALL CLUB RIVERSIDE STADIUM BUTE DRIVE","contact":"mailto:david.reid@jeanfieldswifts.co.uk","description":"Warm space/ activities/ refreshments/peer support, mindfulness, games and crafts","hours":{"_text":"Warm space/ activities/ refreshments/peer support, mindfulness, games and crafts"},"title":"Vitalityme CIC"},"type":"Feature"},
		{"geometry":{"coordinates":[-3.26895,56.54557],"type":"Point"},"properties":{"_source":"perth_and_kinross_council","address":"STRATHMORE COMMUNITY HUB TRADES LANE COUPAR ANGUS PH13 9DN","contact":"mailto:admin@strathmorehub.org","description":"Warm space/ refreshments","hours":{"_text":"Warm space/ refreshments"},"title":"Strathmore Community Hub"},"type":"Feature"},
		{"geometry":{"coordinates":[-3.42802,56.39392],"type":"Point"},"properties":{"_source":"perth_and_kinross_council","address":"ST JOHN'S EPISCOPAL CHURCH 32-34 PRINCES STREET PERTH PH2 8LJ","contact":"mailto:office@episcopal-perth.org.uk","description":"Warm space/ refreshments","hours":{"_text":"Warm space/ refreshments"},"title":"St John's Episcopal Church"},"type":"Feature"},
		{"geometry":{"coordinates":[-3.26781,56.54520],"type":"Point"},"properties":{"_source":"perth_and_kinross_council","address":"CASCADE INSTITUTE COMMUNITY DROP IN, 2 GEORGE ST, COUPAR ANGUS PH13 9D","contact":"mailto:contact@coupar-angus-democracy.org.uk","description":"Warm space /community drop in","hours":{"_text":"Warm space /community drop in"},"title":"Cascade Institute"},"type":"Feature"},
		{"geometry":{"coordinates":[-3.46275,56.41023],"type":"Point"},"properties":{"_source":"perth_and_kinross_council","address":"TULLOCH COMMUNITY HUB, UNIT 2, TULLOCH SQUARE, PERTH PH1 2PW","contact":"mailto:gavindmarshall@gmail.com","description":"Warm space/ hot drinks/ hot food","hours":{"_text":"Warm space/ hot drinks/ hot food"},"title":"Tulloch NET"},"type":"Feature"},
		{"geometry":{"coordinates":[-3.43685,56.39618],"type":"Point"},"properties":{"_source":"perth_and_kinross_council","address":"28-30 MARKET STREET, PERTH PH1 5QH","contact":"mailto:info@perthbabybank.org","description":"Warm space for families with children 0-4 years","hours":{"_text":"Warm space for families with children 0-4 years"},"title":"Buttons and Bows Baby Bank"},"type":"Feature"},
		{"geometry":{"coordinates":[-3.44452,56.39547],"type":"Point"},"properties":{"_source":"perth_and_kinross_council","address":"PERTH BUSINESS CENTRE, UNIT 3, 28 GLASGOW ROAD, PERTH PH2 0NX","contact":"mailto:perthwsociety@outlook.com","description":"Warm space and food 2 x weekly","hours":{"_text":"Warm space and food 2 x weekly"},"title":"Perthshire Welfare Society"},"type":"Feature"},
		{"geometry":{"coordinates":[-3.16754,56.44565],"type":"Point"},"properties":{"_source":"perth_and_kinross_council","address":"INCHTURE & KINNAIRD PARISH CHURCH MAIN ST INCHTURE DD2 5EA","contact":"mailto:","description":"Warm space, free refreshments, free wifi, activities","hours":{"_text":"Warm space, free refreshments, free wifi, activities"},"title":"Inchture and Kinnaird Parish Church"},"type":"Feature"},
		{"geometry":{"coordinates":[-3.43275,56.39490],"type":"Point"},"properties":{"_source":"perth_and_kinross_council","address":"PERTH METHODIST CHURCH, SCOTT ST, PERTH PH2 8JN","contact":"mailto:","description":"Tea and coffee, activities, quiet prayer space for anyone in need of peace","hours":{"_text":"Tea and coffee, activities, quiet  prayer space for anyone in need of peace"},"title":"Renew Wellbeing at renew 23.3"},"type":"Feature"},
		{"geometry":{"coordinates":[-3.43284,56.39231],"type":"Point"},"properties":{"_source":"perth_and_kinross_council","address":"ST LEONARDS IN THE FIELDS CHURCH HALL JAMES ST PERTH PH2 8LZ","contact":"mailto:stleonardsperth@gmail.com","description":"Warm space/refreshments. Songs and memories.","hours":{"_text":"Warm space/refreshments. Songs and memories."},"title":"St Leonard's In The Fields"},"type":"Feature"},
		{"geometry":{"coordinates":[-3.42813,56.39320],"type":"Point"},"properties":{"_source":"perth_and_kinross_council","address":"PERTH ELIM PENTECOSTAL CHURCH, 58 PRINCES ST , PERTH PH2 8LJ","contact":"mailto:eric@perthelim.org.uk","description":"Warm space, soup, bread, tea and coffee offered free","hours":{"_text":"Warm space, soup, bread, tea and coffee offered free"},"title":"The Grub Hub"},"type":"Feature"},
		{"geometry":{"coordinates":[-3.44488,56.41340],"type":"Point"},"properties":{"_source":"perth_and_kinross_council","address":"BUTE DRIVE PERTH PH1 3BG","contact":"mailto:perthriverside@gmail.com","description":"Warm space","hours":{"_text":"Warm space"},"title":"Riverside Church"},"type":"Feature"},
		{"geometry":{"coordinates":[-3.43210,56.39458],"type":"Point"},"properties":{"_source":"perth_and_kinross_council","address":"86 SCOTT STREET PERTH PH2 8JW","contact":"mailto:","description":"Warm space drop in for 14–25-year-olds","hours":{"_text":"Warm space drop in for 14–25-year-olds"},"title":"Services for Young People"},"type":"Feature"},
		{"geometry":{"coordinates":[-3.42973,56.39529],"type":"Point"},"properties":{"_source":"perth_and_kinross_council","address":"SALVATION ARMY 3.16 CAFÉ KING EDWARD STREET PERTH PH2 8PD","contact":"mailto:ABennett@pkc.gov.uk","description":"Warm space with tea, coffee, hot chocolate, and juices, cake and biscuits.","hours":{"_text":"Warm space with tea, coffee, hot chocolate, and juices, cake and biscuits."},"title":"Health & Wellbeing Café"},"type":"Feature"},
		{"geometry":{"coordinates":[-3.45189,56.41405],"type":"Point"},"properties":{"_source":"perth_and_kinross_council","address":"SANDA COURT RETIREMENT HOUSING NORTH MUIRTON PERTH PH1 3TY","contact":"mailto:CHughes@pkc.gov.uk","description":"Warm space with hot food","hours":{"_text":"Warm space with hot food"},"title":"Sanda Court Lounge"},"type":"Feature"},
		{"geometry":{"coordinates":[-3.43292,56.39783],"type":"Point"},"properties":{"_source":"perth_and_kinross_council","address":"KINNOULL ST PERTH PH1 5EZ","contact":"mailto:","description":"Warm Space, Tea Coffee, Board Games","hours":{"_text":"Warm Space, Tea Coffee, Board Games"},"title":"Perth Congregational Church"},"type":"Feature"},
		{"geometry":{"coordinates":[-3.23692,56.53590],"type":"Point"},"properties":{"_source":"perth_and_kinross_council","address":"KETTINS COMMUNITY HUB","contact":"mailto:kettinshub@gmail.com","description":"Warm space / coffee and cake","hours":{"_text":"Warm space / coffee and cake"},"title":"Kettins Community hub"},"type":"Feature"}
	]
}
