{
	"type": "FeatureCollection",
	"features": [
		{"geometry":{"coordinates":[-3.47079,56.40533],"type":"Point"},"properties":{"_source":"perth_and_kinross_council","address":"37 GARTH AVENUE PERTH PH1 2LG","description":"Warm space/ warm clothes rail and refreshments- Tuesdays 11am-3pm","hours":{"_text":"Warm space/ warm clothes rail and refreshments- Tuesdays 11am-3pm","opening":"Tu 11:00-15:00"},"title":"Letham Climate Challenge SCIO"},"type":"Feature"},
		{"geometry":{"coordinates":[-3.46190,56.40068],"type":"Point"},"properties":{"_source":"perth_and_kinross_council","address":"LETHAM COMMUNITY LEARNING CENTRE 117-119 RANNOCH ROAD PERTH PH1 2DQ","description":"Mondays and Fridays 9am – 6pm warm space/ Wi-Fi/ refreshments @ Letham Social Club Marlee Rd, Perth","hours":{"_text":"Mondays and Fridays 9am – 6pm warm space/ Wi-Fi/ refreshments @ Letham Social Club Marlee Rd, Perth","opening":"Mo 09:00-18:00; Fr 09:00-18:00"},"title":"Letham4All"},"type":"Feature"},
		{"geometry":{"coordinates":[-3.44962,56.48060],"type":"Point"},"properties":{"_source":"perth_and_kinross_council","address":"TAYSIDE HOTEL MILL ST STANLEY PH1 4NL","description":"Warm space/ refreshments for Winter warmer sessions","hours":{"_text":"Warm space/ refreshments for Winter warmer sessions"},"title":"Stanley Development Trust"},"type":"Feature"},
		{"geometry":{"coordinates":[-3.43255,56.40022],"type":"Point"},"properties":{"_source":"perth_and_kinross_council","address":"OLD ACADEMY BUILDINGS 6-7 ROSE TERRACE PERTH","description":"Warm space for families","hours":{"_text":"Warm space for families"},"title":"Education Centre - Centrum Edukacyjne Bajka CIC"},"type":"Feature"},
		{"geometry":{"coordinates":[-3.43533,56.39917],"type":"Point"},"properties":{"_source":"perth_and_kinross_council","address":" ST NINIANS CATHEDRAL NORTH METHVEN STREET PERTH PH1 5PP","description":"Warm space / refreshments","hours":{"_text":"Warm space / refreshments"},"title":"Perth Cathedral - St Ninians"},"type":"Feature"},
		{"geometry":{"coordinates":[-3.43792,56.39569],"type":"Point"},"properties":{"_source":"perth_and_kinross_council","address":"CHURCH OF THE NAZARENE YORK PLACE PERTH PH2 8EH","description":"Warm space","hours":{"_text":"Warm space"},"title":"Trinity Church of the Nazarene"},"type":"Feature"},
		{"geometry":{"coordinates":[-3.42610,56.39617],"type":"Point"},"properties":{"_source":"perth_and_kinross_council","address":"ST MATTHEWS CHURCH, TAY STREET, PERTH PH1 5LQ","description":"Accessible warm space November - March","hours":{"_text":"Accessible warm space November - March"},"title":"Perth St Matthews Church"},"type":"Feature"},
		{"geometry":{"coordinates":[-3.43302,56.39646],"type":"Point"},"properties":{"_source":"perth_and_kinross_council","address":"188-190 HIGH STREET PERTH PH1 5PA","description":"Warm space","hours":{"_text":"Warm space"},"title":"Churches Action For The Homeless (CATH)"},"type":"Feature"},
		{"geometry":{"coordinates":[-3.42249,56.39594],"type":"Point"},"properties":{"_source":"perth_and_kinross_council","address":" KINNOULL CHURCH 31 DUNDEE ROAD PERTH PH2 7EY","description":"Warm space/ refreshments Kinnoull Parish Church Hall","hours":{"_text":"Warm space/ refreshments Kinnoull Parish Church Hall"},"title":"Bridgend Gannochy & Kinnoull Community Council"},"type":"Feature"},
		{"geometry":{"coordinates":[-3.46275,56.41023],"type":"Point"},"properties":{"_source":"perth_and_kinross_council","address":"TULLOCH COMMUNITY HUB, UNIT 2, TULLOCH SQUARE, PERTH PH1 2PW","description":"Warm space/ refreshments/ activities","hours":{"_text":"Warm space/ refreshments/ activities"},"title":"Tulloch NET"},"type":"Feature"},
		{"geometry":{"coordinates":[-3.26781,56.54520],"type":"Point"},"properties":{"_source":"perth_and_kinross_council","address":"CASCADE INSTITUTE COMMUNITY DROP IN, 2 GEORGE ST, COUPAR ANGUS PH13 9D","description":"Warm space every Tuesday - Saturday 11am - 2pm","hours":{"_text":"Warm space every Tuesday - Saturday 11am - 2pm","opening":"Tu-Sa 11:00-14:00"},"title":"Cascade Institute"},"type":"Feature"},
		{"geometry":{"coordinates":[-3.43219,56.39727],"type":"Point"},"properties":{"_source":"perth_and_kinross_council","address":" 25-29 KINNOULL STREET PERTH PH1 5EN","description":"Warm space/ refreshments 16-25 years 4 x per week 26 weeks","hours":{"_text":"Warm space/ refreshments 16-25 years 4 x per week 26 weeks"},"title":"YMCA Tayside"},"type":"Feature"},
		{"geometry":{"coordinates":[-3.43284,56.39231],"type":"Point"},"properties":{"_source":"perth_and_kinross_council","address":"ST LEONARDS IN THE FIELDS CHURCH HALL JAMES ST PERTH PH2 8AG","description":"Warm space/refreshments. Songs and memories. Every Monday 2pm - 4pm","hours":{"_text":"Warm space/refreshments. Songs and memories. Every Monday 2pm - 4pm","opening":"Mo 14:00-16:00"},"title":"St Leonard's In The Fields"},"type":"Feature"},
		{"geometry":{"coordinates":[-3.44488,56.41340],"type":"Point"},"properties":{"_source":"perth_and_kinross_council","address":"BUTE DRIVE PERTH PH1 3BG","description":"Warm space. Tuesday-Friday, 9.30am -2.30pm","hours":{"_text":"Warm space. Tuesday-Friday, 9.30am -2.30pm","opening":"Tu-Fr 09:30-14:30"},"title":"Riverside Church"},"type":"Feature"},
		{"geometry":{"coordinates":[-3.43794,56.38032],"type":"Point"},"properties":{"_source":"perth_and_kinross_council","address":"MONCREIFFE CHURCH GLENBRUAR CRESCENT PERTH PH2 0AJ","description":"Warm space/ refreshments/ activities for families","hours":{"_text":"Warm space/ refreshments/ activities for families"},"title":"Craigie & Moncreiffe Messy Church"},"type":"Feature"},
		{"geometry":{"coordinates":[-3.43275,56.39490],"type":"Point"},"properties":{"_source":"perth_and_kinross_council","address":"PERTH METHODIST CHURCH, SCOTT ST, PERTH PH2 8JN","description":"Tea and coffee, activities, quiet  prayer space for anyone in need of peace. Mondays 10am -12noon and Thursdays 2-4pm","hours":{"_text":"Tea and coffee, activities, quiet  prayer space for anyone in need of peace. Mondays 10am -12noon and Thursdays 2-4pm","opening":"Mo 10:00-12:00; Th 02:00-16:00"},"title":"Renew Wellbeing"},"type":"Feature"},
		{"geometry":{"coordinates":[-3.42813,56.39320],"type":"Point"},"properties":{"_source":"perth_and_kinross_council","address":"PERTH ELIM PENTECOSTAL CHURCH, 58 PRINCES ST , PERTH PH2 8LJ","description":"Warm space, soup, bread, tea and coffee offered free. Monday's 6pm - 7pm","hours":{"_text":"Warm space, soup, bread, tea and coffee offered free. Monday's 6pm - 7pm","opening":"Mo 18:00-19:00"},"title":"The Grub Hub"},"type":"Feature"},
		{"geometry":{"coordinates":[-3.42802,56.39392],"type":"Point"},"properties":{"_source":"perth_and_kinross_council","address":"ST JOHN EPISCOPAL CHURCH 32-34 PRINCES STREET PERTH PH2 8LJ","description":"Warm space/ refreshments","hours":{"_text":"Warm space/ refreshments"},"title":"St John's Episcopal Church"},"type":"Feature"},
		{"geometry":{"coordinates":[-3.44452,56.39547],"type":"Point"},"properties":{"_source":"perth_and_kinross_council","address":"PERTH BUSINESS CENTRE, UNIT 3, 28 GLASGOW ROAD, PERTH PH2 0NX","description":"2 x weekly warm space and food","hours":{"_text":"2 x weekly warm space and food"},"title":"Perthshire Welfare Society"},"type":"Feature"},
		{"geometry":{"coordinates":[-3.43685,56.39618],"type":"Point"},"properties":{"_source":"perth_and_kinross_council","address":"28-30 MARKET STREET, PERTH PH1 5QH","description":"Warm space for families with children 0-4 years","hours":{"_text":"Warm space for families with children 0-4 years"},"title":"Buttons and Bows Baby Bank"},"type":"Feature"},
		{"geometry":{"coordinates":[-3.39939,56.38110],"type":"Point"},"properties":{"_source":"perth_and_kinross_council","address":"WILLOWGATE ACTIVITY CENTRE STOCKGREEN LODGE PERTH PH2 7JU","description":"Warm space / refreshments for Open Duke of Edinburgh Group","hours":{"_text":"Warm space / refreshments for Open Duke of Edinburgh Group"},"title":"Tay and Earn Trust"},"type":"Feature"},
		{"geometry":{"coordinates":[-3.44973,56.45149],"type":"Point"},"properties":{"_source":"perth_and_kinross_council","address":" OLD SCHOOL HALL KIRK LOAN STORMONTFIELD","description":"Warm space for groups which use hall","hours":{"_text":"Warm space for groups which use hall"},"title":"Stormontfield Community Association"},"type":"Feature"},
		{"geometry":{"coordinates":[-3.26895,56.54557],"type":"Point"},"properties":{"_source":"perth_and_kinross_council","address":"STRATHMORE COMMUNITY HUB TRADES LANE COUPAR ANGUS PH13 9DN","description":"Warm space/ refreshments","hours":{"_text":"Warm space/ refreshments"},"title":"Strathmore Community Hub"},"type":"Feature"},
		{"geometry":{"coordinates":[-3.43755,56.39241],"type":"Point"},"properties":{"_source":"perth_and_kinross_council","address":"PERTHSHIRE WOMANS AID ROYAL BRITISH HOUSE 113 LEONARD STREET PERTH PH2","description":"Warm space/ refreshments","hours":{"_text":"Warm space/ refreshments"},"title":"Perthshire Women's Aid"},"type":"Feature"},
		{"geometry":{"coordinates":[-3.44392,56.41392],"type":"Point"},"properties":{"_source":"perth_and_kinross_council","address":"JEANFIELD SWIFTS COMMUNITY FOOTBALL CLUB RIVERSIDE STADIUM BUTE DRIVE","description":"Warm space/ activities/ refreshments","hours":{"_text":"Warm space/ activities/ refreshments"},"title":"Vitalityme CIC"},"type":"Feature"},
		{"geometry":{"coordinates":[-3.16754,56.44565],"type":"Point"},"properties":{"_source":"perth_and_kinross_council","address":"INCHTURE & KINNAIRD PARISH CHURCH MAIN ST INCHTURE DD2 5EA","description":"Warm space, free refreshments, free wifi, activities. Tuesdays 10-11.30 Wednesdays 12-3 Thursday 12-3","hours":{"_text":"Warm space, free refreshments, free wifi, activities. Tuesdays 10-11.30 Wednesdays 12-3 Thursday 12-3","opening":"Tu 10:00-11:30; We 12:00-03:00; Th 12:00-03:00"},"title":"Inchture and Kinnaird Parish Church Church"},"type":"Feature"},
		{"geometry":{"coordinates":[-3.46803,56.40138],"type":"Point"},"properties":{"_source":"perth_and_kinross_council","address":"LETHAM ST MARKS CHURCH HALL AMULREE ROAD PERTH","description":"Warm space with refreshments Thursdays 3-8pm","hours":{"_text":"Warm space with refreshments Thursdays 3-8pm","opening":"Th 03:00-20:00"},"title":"Letham St Marks Church"},"type":"Feature"},
		{"geometry":{"coordinates":[-3.29922,56.37614],"type":"Point"},"properties":{"_source":"perth_and_kinross_council","address":"MADOCH CENTRE ST MADOES PH2 7FF","description":"Warm space","hours":{"_text":"Warm space"},"title":"St Madoes & Kinfauns Parish Church"},"type":"Feature"}
	]
}
