{
	"type": "FeatureCollection",
	"features": [
		{"geometry":{"coordinates":[-3.43143,56.39206],"type":"Point"},"properties":{"_source":"warm_welcome","address":"St Leonards in the Fields, Marshall Place, Perth, Perthshire PH2 8AG","hours":{"_text":"Monday: 14:00 - 16:00, Sunday: 11:00 - 12:30","opening":"Mo 14:00-16:00; Su 11:00-12:30"},"title":"St Leonard's in the Fields church"},"type":"Feature"},
		{"geometry":{"coordinates":[-3.42249,56.39594],"type":"Point"},"properties":{"_source":"perth_and_kinross_council","address":"KINNOULL CHURCH 31 DUNDEE ROAD PERTH PH2 7EY","contact":"mailto:bgkcc@hotmail.co.uk","description":"Warm space/ tea, coffee and biscuits with homemade soup and crusty bread from 12 noon onwards.","hours":{"_text":"Chat n’chew every Tuesday and Friday. 11 – 3pm on a Tuesday, 12 – 4pm on a Friday.","opening":"Tu 12:00-15:00; Fr 12:00-15:00; Tu 12:00-16:00"},"title":"Bridgend Gannochy & Kinnoull Community Council"},"type":"Feature"},
		{"geometry":{"coordinates":[-3.44973,56.45149],"type":"Point"},"properties":{"_source":"perth_and_kinross_council","address":"OLD SCHOOL HALL KIRK LOAN STORMONTFIELD","contact":"mailto:","description":"Warm space for groups which use hall","title":"Stormontfield Community Association"},"type":"Feature"},
		{"geometry":{"coordinates":[-3.43219,56.39727],"type":"Point"},"properties":{"_source":"perth_and_kinross_council","address":"25-29 KINNOULL STREET PERTH PH1 5EN","contact":"mailto:franny@ymcatayside.com","description":"Warm space/ refreshments 16-25 years 4 x per week 26 weeks","title":"YMCA Tayside"},"type":"Feature"},
		{"geometry":{"coordinates":[-3.46190,56.40068],"type":"Point"},"properties":{"_source":"perth_and_kinross_council","address":"LETHAM COMMUNITY LEARNING CENTRE 117-119 RANNOCH ROAD PERTH PH1 2DQ","contact":"mailto:Gordon@letham4all.org.uk","description":"Warm space/ Wi-Fi/ refreshments @ Letham Social Club Marlee Rd, Perth","hours":{"_text":"Mondays and Fridays 9am – 6pm","opening":"Mo 09:00-18:00; Fr 09:00-18:00"},"title":"Letham4All"},"type":"Feature"},
		{"geometry":{"coordinates":[-3.46803,56.40138],"type":"Point"},"properties":{"_source":"perth_and_kinross_council","address":"LETHAM ST MARKS CHURCH HALL AMULREE ROAD PERTH","contact":"mailto:diamondboy09@yahoo.com","description":"Warm space with refreshments","hours":{"_text":"Every Thursday from 2pm - 7pm","opening":"Th 14:00-19:00"},"title":"Letham St Marks Church"},"type":"Feature"},
		{"geometry":{"coordinates":[-3.43794,56.38032],"type":"Point"},"properties":{"_source":"perth_and_kinross_council","address":"MONCREIFFE CHURCH GLENBRUAR CRESCENT PERTH PH2 0AJ","contact":"mailto:linda.fyfe@hotmail.co.uk","description":"Warm space/ lunch , arts and crafts games videos music for families","hours":{"_text":"Tuesday 11.30am - 1pm. Last Sunday of each month in Moncreiffe Church 10.45am - 1 pm . November - March 2023","opening":"Tu 11:30-13:00"},"title":"Craigie & Moncreiffe Messy Church"},"type":"Feature"},
		{"geometry":{"coordinates":[-3.47079,56.40533],"type":"Point"},"properties":{"_source":"perth_and_kinross_council","address":"37 GARTH AVENUE PERTH PH1 2LG","contact":"mailto:lethamclimatechallenge@gmail.com","description":"Warm space/ warm clothes rail and refreshments","hours":{"_text":"Tuesdays 11am-3pm","opening":"Tu 11:00-15:00"},"title":"Letham Climate Challenge SCIO"},"type":"Feature"},
		{"geometry":{"coordinates":[-3.43255,56.40022],"type":"Point"},"properties":{"_source":"perth_and_kinross_council","address":"OLD ACADEMY BUILDINGS 6-7 ROSE TERRACE PERTH","contact":"mailto:bajkaperth@gmail.com","description":"Warm space for families","title":"Education Centre - Centrum Edukacyjne Bajka CIC"},"type":"Feature"},
		{"geometry":{"coordinates":[-3.43755,56.39241],"type":"Point"},"properties":{"_source":"perth_and_kinross_council","address":"PERTHSHIRE WOMANS AID ROYAL BRITISH HOUSE 113 LEONARD STREET PERTH PH2 8HA","contact":"mailto:louisec@perthwomensaid.org.uk","description":"Warm space/ refreshments","title":"Perthshire Women's Aid"},"type":"Feature"},
		{"geometry":{"coordinates":[-3.43302,56.39646],"type":"Point"},"properties":{"_source":"perth_and_kinross_council","address":"188-190 HIGH STREET PERTH PH1 5PA","contact":"mailto:r.howat@cath-org.co.uk","description":"Warm space","title":"Churches Action For The Homeless (CATH)"},"type":"Feature"},
		{"geometry":{"coordinates":[-3.43533,56.39917],"type":"Point"},"properties":{"_source":"perth_and_kinross_council","address":"ST NINIANS CATHEDRAL NORTH METHVEN STREET PERTH PH1 5PP","contact":"mailto:maihricameron@hotmail.co.uk","description":"Warm space / refreshments","hours":{"_text":"Wednesday's 12pm - 4.30pm and Friday's 10am - 1.30pm","opening":"We 12:00-16:30; Fr 10:00-13:30"},"title":"Perth Cathedral - St Ninians"},"type":"Feature"},
		{"geometry":{"coordinates":[-3.43792,56.39569],"type":"Point"},"properties":{"_source":"perth_and_kinross_council","address":"CHURCH OF THE NAZARENE YORK PLACE PERTH PH2 8EH","contact":"mailto:treasurer@trinitychurchperth.org","description":"Warm space","title":"Trinity Church of the Nazarene"},"type":"Feature"},
		{"geometry":{"coordinates":[-3.44962,56.48060],"type":"Point"},"properties":{"_source":"perth_and_kinross_council","address":"TAYSIDE HOTEL MILL ST STANLEY PH1 4NL","contact":"mailto:info@stanleydevelopmenttrust.org","description":"Warm space/ refreshments for Winter warmer sessions","title":"Stanley Development Trust"},"type":"Feature"},
		{"geometry":{"coordinates":[-3.29922,56.37614],"type":"Point"},"properties":{"_source":"perth_and_kinross_council","address":"MADOCH CENTRE ST MADOES PH2 7FF","contact":"mailto:info@madochcentre.com","description":"Warm space with toys, magazines, games and drinks and biscuits","hours":{"_text":"Mon: 9.30am – 12.30pm Mon: 1pm – 4pm Tues: 1pm – 4pm Wed: 1pm – 4pm November to March","opening":"Mo 09:30-12:30; Mo 13:00-16:00; Tu 13:00-16:00; We 13:00-16:00"},"title":"St Madoes & Kinfauns Parish Church"},"type":"Feature"},
		{"geometry":{"coordinates":[-3.39939,56.38110],"type":"Point"},"properties":{"_source":"perth_and_kinross_council","address":"WILLOWGATE ACTIVITY CENTRE STOCKGREEN LODGE PERTH PH2 7JU","contact":"mailto:info@willowgateactivitycentre.co.uk","description":"Warm space / snacks for Open Duke of Edinburgh Group","hours":{"_text":"Tuesday 4pm to 6pm & Saturday 2 to 4pm November to March (excluding 16th Dec to 4th Jan) Booking required tel 01738 637245 ","opening":"Tu 16:00-18:00; Sa 14:00-16:00"},"title":"Tay and Earn Trust"},"type":"Feature"},
		{"geometry":{"coordinates":[-3.44392,56.41392],"type":"Point"},"properties":{"_source":"perth_and_kinross_council","address":"NORTH MUIRTON COMMUNITY CENTRE, ARGYLL ROAD, NORTH MUIRTON, PERTH PH1 3BZ","contact":"mailto:contact@vitalityme.co.uk","description":"Warm space/ activities/ refreshments/peer support, mindfulness, games and crafts","hours":{"_text":"Tuesday - 4-6pm - Family Yoga and hot dinner, Thursday 9-11am hot filled rolls followed by Yoga, Friday - 11.30-1.30pm social exercise and refreshments November - March","opening":"Tu 16:00-18:00; Th 09:00-11:00; Fr 11:30-13:30"},"title":"Vitalityme CIC"},"type":"Feature"},
		{"geometry":{"coordinates":[-3.26895,56.54557],"type":"Point"},"properties":{"_source":"perth_and_kinross_council","address":"STRATHMORE COMMUNITY HUB TRADES LANE COUPAR ANGUS PH13 9DN","contact":"mailto:admin@strathmorehub.org","description":"Warm space/ refreshments","title":"Strathmore Community Hub"},"type":"Feature"},
		{"geometry":{"coordinates":[-3.42802,56.39392],"type":"Point"},"properties":{"_source":"perth_and_kinross_council","address":"ST JOHN'S EPISCOPAL CHURCH 32-34 PRINCES STREET PERTH PH2 8LJ","contact":"mailto:office@episcopal-perth.org.uk","description":"Warm space/ refreshments","hours":{"_text":"Wednesday afternoons, 1.30-3.30 pm. Closed 1st, 8th and 15th February.","opening":"We 13:30-15:30"},"title":"St John's Episcopal Church"},"type":"Feature"},
		{"geometry":{"coordinates":[-3.26781,56.54520],"type":"Point"},"properties":{"_source":"perth_and_kinross_council","address":"CASCADE INSTITUTE COMMUNITY DROP IN, 2 GEORGE ST, COUPAR ANGUS PH13 9DH","contact":"mailto:contact@coupar-angus-democracy.org.uk","description":"Warm space /community drop in","hours":{"_text":"Tuesday - Saturday 11am - 2pm","opening":"Tu-Sa 11:00-14:00"},"title":"Cascade Institute"},"type":"Feature"},
		{"geometry":{"coordinates":[-3.46275,56.41023],"type":"Point"},"properties":{"_source":"perth_and_kinross_council","address":"TULLOCH COMMUNITY HUB, UNIT 2, TULLOCH SQUARE, PERTH PH1 2PW","contact":"mailto:gavindmarshall@gmail.com","description":"Warm space/ hot drinks/ hot food","hours":{"_text":"Tuesdays 4pm-7pm November to March.","opening":"Tu 16:00-19:00"},"title":"Tulloch NET"},"type":"Feature"},
		{"geometry":{"coordinates":[-3.43685,56.39618],"type":"Point"},"properties":{"_source":"perth_and_kinross_council","address":"28-30 MARKET STREET, PERTH PH1 5QH","contact":"mailto:info@perthbabybank.org","description":"Warm space for families with children 0-4 years","title":"Buttons and Bows Baby Bank"},"type":"Feature"},
		{"geometry":{"coordinates":[-3.44452,56.39547],"type":"Point"},"properties":{"_source":"perth_and_kinross_council","address":"PERTH BUSINESS CENTRE, UNIT 3, 28 GLASGOW ROAD, PERTH PH2 0NX","contact":"mailto:perthwsociety@outlook.com","description":"Warm space and food 2 x weekly","title":"Perthshire Welfare Society"},"type":"Feature"},
		{"geometry":{"coordinates":[-3.45748,56.41833],"type":"Point"},"properties":{"_source":"perth_and_kinross_council","address":"UNIT 7, KILDA PLACE, PERTH PH1 3RL","contact":"mailto:admin@adventurecircus.org","description":"Warm space","title":"Adventure Circus SCIO"},"type":"Feature"},
		{"geometry":{"coordinates":[-3.42813,56.39320],"type":"Point"},"properties":{"_source":"perth_and_kinross_council","address":"ELIM PENTECOSTAL CHURCH, 58 PRINCES STREET, PERTH PH2 8LJ","contact":"mailto:eric@perthelim.org.uk","description":"warm space","hours":{"_text":"Monday evenings in the Church Building serving hot soups, bread, tea, coffee from 6-7pm all year round."},"title":"Perth Elementary Pentecostal Church (Grub Hub)"},"type":"Feature"},
		{"geometry":{"coordinates":[-3.43284,56.39231],"type":"Point"},"properties":{"_source":"perth_and_kinross_council","address":"MARSHALL PLACE, PERTH PH2 8AG","contact":"mailto:","description":"Warm space","hours":{"_text":"Monday afternoons tea and snacks from 2-4pm. Singing Group for the elderly and dementia sufferers third Monday of each month."},"title":"Perth St Leonard's In The Fields Church"},"type":"Feature"},
		{"geometry":{"coordinates":[-3.44392,56.41392],"type":"Point"},"properties":{"_source":"perth_and_kinross_council","address":"NORTH MUIRTON COMMUNITY CENTRE, ARGYLL ROAD, NORTH MUIRTON, PERTH PH1 3BZ","contact":"mailto:contact@vitalityme.co.uk","description":"Warm space","hours":{"_text":"Tuesday's 4-6pm Family Yoga, Hot Dinner, Refreshments, Games and Crafts. Thursday's 9 - 11am Hot Filled Rolls, Refreshments, Games & 10 - 11am Crafts and Yoga. Friday's 11.30-1.30pm Soup, Sandwiches and Refreshments. 11.30 - 12pm Social Exercisec Cra","opening":"Tu 16:00-18:00; Th 09:00-11:00; Fr 11:30-13:30"},"title":"VitalitymeCIC/North Muirton Community Centre"},"type":"Feature"},
		{"geometry":{"coordinates":[-3.29983,56.52449],"type":"Point"},"properties":{"_source":"perth_and_kinross_council","address":"CARGILL BURRELTON CHURCH HALL, 3 CHURCH ROAD, BURRELTON PH13 9QB","contact":"mailto:","description":"Warm space","hours":{"_text":"The Shepherds Hut for food provision at a reduced cost on Friday afternoons 3.30-5pm. Busy Bee Playgroup linked to the Community Cafe on Tuesday's 12-1.30pm.","opening":"Fr 15:30-17:00; Tu 12:00-13:30"},"title":"Burrelton Community Hub"},"type":"Feature"},
		{"geometry":{"coordinates":[-3.46211,56.40446],"type":"Point"},"properties":{"_source":"perth_and_kinross_council","address":"PERTH COLLEGE UHI, CRIEFF ROAD, PERTH PH1 2NX","contact":"mailto:fiona.leslie.perth@uhi.ac.uk","description":"Warm space","hours":{"_text":"Snacks and refreshments served through the day Monday's - Friday's 7am - 7pm and Saturday's 10am - 3pm until mid February 2023.","opening":"Mo-Fr 07:00-19:00; Sa 10:00-15:00"},"title":"Perth College Development Trust"},"type":"Feature"},
		{"geometry":{"coordinates":[-3.42610,56.39617],"type":"Point"},"properties":{"_source":"perth_and_kinross_council","address":"ST MATTHEW'S CHURCH, TAY STREET, PERTH PH15LQ","contact":"mailto:FMBruce6@googlemail.com","description":"Warm space","hours":{"_text":"Optional weekly activities and hot drinks, Wednesday's and Saturday's 1.30pm - 4.30pm until 29th March 2023.","opening":"We 13:30-16:30; Sa 13:30-16:30"},"title":"St Matthew's Church, Perth"},"type":"Feature"},
		{"geometry":{"coordinates":[-3.40191,56.42079],"type":"Point"},"properties":{"_source":"perth_and_kinross_council","address":"102 ABBEY ROAD, SCONE PH2 6RU","contact":"mailto:contact@rdminstitute.co.uk","description":"Warm space","hours":{"_text":"Equipment to provide a warm space offering food and hot drinks. "},"title":"Robert Douglas Memorial Institute"},"type":"Feature"},
		{"geometry":{"coordinates":[-3.34819,56.45225],"type":"Point"},"properties":{"_source":"perth_and_kinross_council","address":"MAIN STREET, BALBEGGIE PH2 6EZ","contact":"mailto:","description":"Warm space","hours":{"_text":"Refreshments and soup/sandwiches provided"},"title":"St Martin's Public Hall"},"type":"Feature"},
		{"geometry":{"coordinates":[-3.31892,56.47595],"type":"Point"},"properties":{"_source":"perth_and_kinross_council","address":"KINROSSIE HALL, 20 MERCAT GREEN, KINROSSIE PH2 6HT","contact":"mailto:","description":"Warm space","hours":{"_text":"Thursday's over term time is Games Evening from 6-8pm. Table Tennis/Badminton/Board Games/Art Classes.- Refreshments servied."},"title":"Kinrossie Hall Management Group"},"type":"Feature"},
		{"geometry":{"coordinates":[-3.44488,56.41340],"type":"Point"},"properties":{"_source":"perth_and_kinross_council","address":"BUTE DRIVE, NORTH MUIRTON, PERTH PH1 3BG","contact":"mailto:jsmith@churchofscotland.org.uk","description":"Warm space","hours":{"_text":"Room provided for reading, knitting and socialising. Refreshments provided at a much reduced price. Cafe will run alongside Martha's Kitchen."},"title":"Riverside Church"},"type":"Feature"},
		{"geometry":{"coordinates":[-3.47604,56.40988],"type":"Point"},"properties":{"_source":"perth_and_kinross_council","address":"MCDIARMID PARK, CRIEFF ROAD, PERTH PH1 2SJ","contact":"mailto:rebekah.penman@saintsinthecommunity.co.uk","description":"Warm space","hours":{"_text":"Teas, coffees, TV, WiFi, Games, Activities, Newspapers - Monday's, Tuesday's and Wednesday's 5pm - 8pm. Thursday's 4pm - 8pm from 9th January to 30th March 2023. Website: www.saintsinthecommunity.co.uk","opening":"Mo 17:00-20:00; Tu 17:00-20:00; We 17:00-20:00; Th 16:00-20:00"},"title":"The St Johnstone Community Trust"},"type":"Feature"},
		{"geometry":{"coordinates":[-3.26781,56.54520],"type":"Point"},"properties":{"_source":"perth_and_kinross_council","address":"CASCADE INSTITUTE COMMUNITY DROP IN, 2 GEORGE ST, COUPAR ANGUS PH13 9DH","contact":"mailto:contact@coupar-angus-democracy.org.uk","description":"Warm space","title":"Cascade Institute - 2ND GRANT - DUPLICATE ENTRY"},"type":"Feature"},
		{"geometry":{"coordinates":[-3.21141,56.39284],"type":"Point"},"properties":{"_source":"perth_and_kinross_council","address":"ERROL VILLAGE HALL, NORTH BANK DYKES, ERROL PH2 7QH","contact":"mailto:","description":"Hall Hire for a warm space","title":"Errol Leisure Ltd"},"type":"Feature"},
		{"geometry":{"coordinates":[-3.23692,56.53590],"type":"Point"},"properties":{"_source":"perth_and_kinross_council","address":"KETTINS, BLAIRGOWRIE PH13 9JL","contact":"mailto:","description":"Warm space","title":"Kettins Community Hub"},"type":"Feature"},
		{"geometry":{"coordinates":[-3.43792,56.39569],"type":"Point"},"properties":{"_source":"perth_and_kinross_council","address":"BRUNCH CLUB, TRINITY CHURCH, YORK PLACE, PERTH","contact":"mailto:ashkesson@gmail.com","description":"warm space","hours":{"_text":"Womens' Warm space"},"title":"Mountain Belle Wellness & Trinity Church"},"type":"Feature"},
		{"geometry":{"coordinates":[-3.44707,56.39654],"type":"Point"},"properties":{"_source":"perth_and_kinross_council","address":"NATIONAL CHRISTIAN OUTREACH CENTRE, MUSTARD SEED, RIGGS ROAD PERTH PH1 1PR","contact":"mailto:maureen.prett@pwamm.com","description":"Warm space","hours":{"_text":"Warm space for music, singing, speakers, coffee, tea, scones, cakes. Weekly Knit and Natter."},"title":"People With A Mission Ministries"},"type":"Feature"},
		{"geometry":{"coordinates":[-3.44962,56.41285],"type":"Point"},"properties":{"_source":"perth_and_kinross_council","address":"NORTH MUIRTON COMMUNITY CENTRE, ARGYLL ROAD, NORTH MUIRTON, PERTH PH1 3BZ","contact":"mailto:craig.NMCC@gmail.com","description":"Warm space","hours":{"_text":"Heating costs for gas/electricity for a warm space"},"title":"North Muirton Community Group"},"type":"Feature"},
		{"geometry":{"coordinates":[-3.26895,56.54557],"type":"Point"},"properties":{"_source":"perth_and_kinross_council","address":"TRADES LANE, COUPAR ANGUS PH13 9DU","contact":"mailto:admin@strathmorehub.org","description":"Warm space","hours":{"_text":"Warm space for the toddler group"},"title":"Strathmore Community Hub"},"type":"Feature"},
		{"geometry":{"coordinates":[-3.43792,56.39569],"type":"Point"},"properties":{"_source":"perth_and_kinross_council","address":"YORK PLACE, PERTH PH2 8EH","contact":"mailto:lucy.scanlan@googlemail.com","description":"Warm space","hours":{"_text":"Cooking lessons in a warm space for young adults and mums. Classes in Healthy eating, nutrition and cooking on a budget"},"title":"Cooking in the Community (Trinity Church of the Nazarene)"},"type":"Feature"},
		{"geometry":{"coordinates":[-3.43792,56.39569],"type":"Point"},"properties":{"_source":"perth_and_kinross_council","address":"YORK PLACE, PERTH PH2 8EH","contact":"mailto:treasurer@trinitychuchperth.org","description":"Warm space","hours":{"_text":"Warm space"},"title":"Trinity Church of the Nazarene"},"type":"Feature"},
		{"geometry":{"coordinates":[-3.16754,56.44565],"type":"Point"},"properties":{"_source":"perth_and_kinross_council","address":"INCHTURE & KINNAIRD PARISH CHURCH MAIN ST INCHTURE DD2 5EA","contact":"mailto:","description":"Warm space, free refreshments, free wifi, activities","hours":{"_text":"Tuesdays 10-11.30 am Wednesdays 12noon-3pm Thursday 12 noon -3pm","opening":"Tu 10:00-11:30; We 12:00-15:00; Th 12:00-15:00"},"title":"Inchture and Kinnaird Parish Church"},"type":"Feature"},
		{"geometry":{"coordinates":[-3.43275,56.39490],"type":"Point"},"properties":{"_source":"perth_and_kinross_council","address":"PERTH METHODIST CHURCH, SCOTT ST, PERTH PH2 8JN","contact":"mailto:","description":"Tea and coffee, activities, quiet prayer space for anyone in need of peace","hours":{"_text":"Mondays 10am -12noon and Thursdays 2.00pm-4.00pm","opening":"Mo 10:00-12:00; Th 14:00-16:00"},"title":"Renew Wellbeing at renew 23.3"},"type":"Feature"},
		{"geometry":{"coordinates":[-3.43284,56.39231],"type":"Point"},"properties":{"_source":"perth_and_kinross_council","address":"ST LEONARDS IN THE FIELDS CHURCH HALL JAMES ST PERTH PH2 8LZ","contact":"mailto:stleonardsperth@gmail.com","description":"Warm space/refreshments. Songs and memories.","hours":{"_text":"Every Monday 2.00pm - 4.00pm","opening":"Mo 14:00-16:00"},"title":"St Leonard's In The Fields"},"type":"Feature"},
		{"geometry":{"coordinates":[-3.42813,56.39320],"type":"Point"},"properties":{"_source":"perth_and_kinross_council","address":"PERTH ELIM PENTECOSTAL CHURCH, 58 PRINCES ST , PERTH PH2 8LJ","contact":"mailto:eric@perthelim.org.uk","description":"Warm space, soup, bread, tea and coffee offered free","hours":{"_text":"Monday's 6.00pm - 7.00pm","opening":"Mo 18:00-19:00"},"title":"The Grub Hub"},"type":"Feature"},
		{"geometry":{"coordinates":[-3.44488,56.41340],"type":"Point"},"properties":{"_source":"perth_and_kinross_council","address":"BUTE DRIVE PERTH PH1 3BG","contact":"mailto:perthriverside@gmail.com","description":"Warm space","hours":{"_text":"Tuesday-Friday, 9.30am -2.30pm","opening":"Tu-Fr 09:30-14:30"},"title":"Riverside Church"},"type":"Feature"},
		{"geometry":{"coordinates":[-3.43210,56.39458],"type":"Point"},"properties":{"_source":"perth_and_kinross_council","address":"86 SCOTT STREET PERTH PH2 8JW","contact":"mailto:","description":"Warm space drop in for 14–25-year-olds","hours":{"_text":"Monday and Friday from 12 noon -6.00pm ","opening":"Mo 12:00-18:00; Fr 12:00-18:00"},"title":"Services for Young People"},"type":"Feature"},
		{"geometry":{"coordinates":[-3.42973,56.39529],"type":"Point"},"properties":{"_source":"perth_and_kinross_council","address":"SALVATION ARMY 3.16 CAFÉ KING EDWARD STREET PERTH PH2 8PD","contact":"mailto:ABennett@pkc.gov.uk","description":"Warm space with tea, coffee, hot chocolate, and juices, cake and biscuits.","hours":{"_text":"Wednesdays 2.00pm - 4.00pm. ","opening":"We 14:00-16:00"},"title":"Health & Wellbeing Café"},"type":"Feature"},
		{"geometry":{"coordinates":[-3.45189,56.41405],"type":"Point"},"properties":{"_source":"perth_and_kinross_council","address":"SANDA COURT RETIREMENT HOUSING NORTH MUIRTON PERTH PH1 3TY","contact":"mailto:CHughes@pkc.gov.uk","description":"Warm space with hot food","hours":{"_text":"Wednesdays 12 noon - 2.00pm November - End February","opening":"We 12:00-14:00"},"title":"Sanda Court Lounge"},"type":"Feature"},
		{"geometry":{"coordinates":[-3.43292,56.39783],"type":"Point"},"properties":{"_source":"perth_and_kinross_council","address":"KINNOULL ST PERTH PH1 5EZ","contact":"mailto:","description":"Warm Space, Tea Coffee, Board Games","hours":{"_text":"Wednesdays 2.00pm - 4.00pm","opening":"We 14:00-16:00"},"title":"Perth Congregational Church"},"type":"Feature"},
		{"geometry":{"coordinates":[-3.23692,56.53590],"type":"Point"},"properties":{"_source":"perth_and_kinross_council","address":"KETTINS COMMUNITY HUB","contact":"mailto:kettinshub@gmail.com","description":"Warm space / coffee and cake","hours":{"_text":"1st Thursday of the month 1.30 pm - 4.30pm also Village Lunch mid month on a Wednesday 1 x per month.","opening":"Th[1] 13:30-16:30"},"title":"Kettins Community Hub"},"type":"Feature"},
		{"geometry":{"coordinates":[-3.42610,56.39617],"type":"Point"},"properties":{"_source":"perth_and_kinross_council","address":"48 TAY STREET,PERTH PH1 5LQ","contact":"mailto:fmbruce@googlemail.com","description":"Warm space with optional activities and hot drinks","hours":{"_text":"Wednesdays 1.30pm - 4.30pm 11 January 2023 to 29 March 2023","opening":"We 13:30-16:30"},"title":"Perth St Matthew's Church"},"type":"Feature"},
		{"geometry":{"coordinates":[-3.43755,56.39241],"type":"Point"},"properties":{"_source":"perth_and_kinross_council","address":"ROYAL BRITISH HOUSE GROUND FLOOR LEONARD STREET PERTH PH2 8HA","contact":"mailto:contactus@perthwomensaid.org.uk","description":"Warm space, hot drinks, books, magazines","hours":{"_text":"Tuesdays and Fridays 10am – midday, December – March","opening":"Tu 10:00-12:00; Fr 10:00-12:00"},"title":"Perth Womens Aid"},"type":"Feature"},
		{"geometry":{"coordinates":[-3.43592,56.39979],"type":"Point"},"properties":{"_source":"perth_and_kinross_council","address":"ST JOHNS RC, 20 MELVILLE STREET PERTH PH1 5PY","contact":"mailto:stjohn@dunkelddiocese.org.uk","description":"Warm space, hot drinks and chat","hours":{"_text":"Tuesday's 10.30am - 1pm","opening":"Tu 10:30-13:00"},"title":"St Johns RC Church"},"type":"Feature"},
		{"geometry":{"coordinates":[-3.43292,56.39783],"type":"Point"},"properties":{"_source":"perth_and_kinross_council","address":"MILL STREET, PERTH PH1","contact":"mailto:","description":"Warm space, hot drinks and chat","hours":{"_text":"Tuesday's 2pm - 4pm","opening":"Tu 14:00-16:00"},"title":"Congregational Church"},"type":"Feature"},
		{"geometry":{"coordinates":[-3.42210,56.39395],"type":"Point"},"properties":{"_source":"perth_and_kinross_council","address":"DUNDEE ROAD, PERTH","contact":"mailto:GCrawford@churchofscotland.org.uk","description":"Warm space, hot drinks and chat","hours":{"_text":"Tuesday's 11am - 3pm and Friday's 12pm - 4pm for tea, coffee and biscuits. Home made soup and crusty bread from 12pm onwards. Thursday evenings from 7pm a welcome to Ukranian Refugees to the church hall for tea, coffee, a chat and to meet new people.","opening":"Tu 11:00-15:00; Fr 12:00-16:00"},"title":"Kinnoull Parish Church (Chat N' Chew)"},"type":"Feature"},
		{"geometry":{"coordinates":[-3.43323,56.39729],"type":"Point"},"properties":{"_source":"perth_and_kinross_council","address":"MILL STREET, PERTH PH1","contact":"mailto:","description":"Warm space, hot drinks and chat","hours":{"_text":"Monday's and Thursday's 10.30am - 1.30pm","opening":"Mo 10:30-13:30; Th 10:30-13:30"},"title":"North Church"},"type":"Feature"},
		{"geometry":{"coordinates":[-3.43533,56.39917],"type":"Point"},"properties":{"_source":"perth_and_kinross_council","address":"NORTH METHVEN STREET, PERTH","contact":"mailto:","description":"Warm space, hot drinks and chat","hours":{"_text":"Wednesday's 12pm - 4.30pm and Friday's 10am - 1.30pm","opening":"We 12:00-16:30; Fr 10:00-13:30"},"title":"St Ninian's Cathedral"},"type":"Feature"},
		{"geometry":{"coordinates":[-3.42973,56.39529],"type":"Point"},"properties":{"_source":"perth_and_kinross_council","address":"SOUTH STREET, PERTH","contact":"mailto:perth@salvationarmy.org.uk","description":"Warm space, hot drinks and chat","hours":{"_text":"Monday's and Wednesday's 10.30am - 1pm","opening":"Mo 10:30-13:00; We 10:30-13:00"},"title":"Salvation Army"},"type":"Feature"},
		{"geometry":{"coordinates":[-3.43755,56.39241],"type":"Point"},"properties":{"_source":"perth_and_kinross_council","address":"THE ROYAL BRITISH HOUSE, GROUND FLOOR, LEONARD STREET, PERTH PH2 8HA","contact":"mailto:contactus@perthwomensaid.org.uk","description":"Warm space, hot drinks, books, magazines","title":"Perth Womens Aid"},"type":"Feature"},
		{"geometry":{"coordinates":[-3.44707,56.39654],"type":"Point"},"properties":{"_source":"perth_and_kinross_council","address":"MUSTARD SEED, RIGGS ROAD, PERTH PH1 1PR","contact":"mailto:maureen.prett@pwamm.com","description":"Warm space","hours":{"_text":"Monday's 2pm Senior Citizens Gathering with music, singing, speaker, afternoon tea and cakes. Wednesday's 2pm Knit and Natter Group for all ages. Knitting not essential. Tea and cakes"},"title":"National Christian Outreach Centre"},"type":"Feature"},
		{"geometry":{"coordinates":[-3.47269,56.40442],"type":"Point"},"properties":{"_source":"perth_and_kinross_council","address":"STRUAN ROAD, PERTH PH1 2JA","contact":"mailto:mahally@btinternet.com","description":"Warm space - every Friday from 1pm - 2pm","hours":{"_text":"Every Friday from 1pm - 2pm","opening":"Fr 13:00-14:00"},"title":"Lady Lourdes Church Hall"},"type":"Feature"}
	]
}
