{
	"type": "FeatureCollection",
	"features": [
		{"geometry":{"coordinates":[-3.17941,56.19720],"type":"Point"},"properties":{"_source":"warm_welcome","address":"Heart of Fife - St Columba's Building, Glenrothes, Fife KY6 1BN","description":"Warm space and Cafe on Wednesdays with free hot drinks, home baking and soup from 11:30am to 1:30pm","hours":{"_text":"Wednesday: 11:30 - 13:30","opening":"We 11:30-13:30"},"title":"Haven Cafe - Heart of Fife - St Columba's"},"type":"Feature"},
		{"geometry":{"coordinates":[-3.31722,56.26908],"type":"Point"},"properties":{"_source":"fife_council","address":"Main Rd, Gateside, Cupar KY14 7SY","contact":"Tel: ; Email:","description":"Closed both festive weeks.","hours":{"_text":"Monday ; Tuesday 3.00-5.30pm; Wednesday ; Thursday ; Friday ; Saturday ; Sunday","opening":"Tu 15:00-17:30"},"loc_pcd":true,"title":"Gateside Memorial Hall","url":"https://www.gateside-fife.org.uk/"},"type":"Feature"},
		{"geometry":{"coordinates":[-3.24019,56.35088],"type":"Point"},"properties":{"_source":"fife_council","address":"90-92 High St, Newburgh, Cupar KY14 6DA","contact":"Tel: ; Email:","description":"Opened Monday, Tuesday and Friday of both weeks 11.30am-2pm. Only soup available.","hours":{"_text":"Monday 11.30am-4.00pm; Tuesday 11.30am-4.00pm; Wednesday 11.30am-4.00pm; Thursday 11.30am-4.00pm; Friday 11.30am-4.00pm; Saturday ; Sunday","opening":"Mo 11:30-16:00; Tu 11:30-16:00; We 11:30-16:00; Th 11:30-16:00; Fr 11:30-16:00"},"loc_pcd":true,"title":"Tayside Institute Community Centre"},"type":"Feature"},
		{"geometry":{"coordinates":[-3.42384,56.21671],"type":"Point"},"properties":{"_source":"perth_and_kinross_council","address":"Loch Leven Community Library, The Muirs, Kinross, KY13 8FQ","description":"Hot drinks, free resources and snacks","hours":{"_text":"Mon 10am-1pm; Tues and Thurs 10am-7pm; Wed and Fri 10am-6pmand Sat 10am-3pm","opening":"Tu 10:00-19:00; Th 10:00-19:00; We 10:00-18:00; Fr 10:00-18:00; Mo 10:00-13:00; Sa 10:00-15:00"},"title":"CPK Libraries"},"type":"Feature"},
		{"geometry":{"coordinates":[-3.42417,56.21516],"type":"Point"},"properties":{"_source":"perth_and_kinross_council","address":"The Youth Hub, Muirs, Kinross, KY13 8FP","description":"Music, games and refreshments","hours":{"_text":"Mon 3.45-4.45; Tues and Thurs 3:45pm-5pm; Fri 1pm-4pm","opening":"Tu 15:45-17:00; Th 15:45-17:00; Mo 03:45-04:45; Fr 13:00-16:00"},"title":"KYTHE"},"type":"Feature"},
		{"geometry":{"coordinates":[-3.42114,56.20450],"type":"Point"},"properties":{"_source":"perth_and_kinross_council","address":"Kinross and District Men’s Shed, 15 Swansacre, Kinross, KY13 8TE","description":"Filled rolls and hot drinks","hours":{"_text":"Monday 2pm-4:30pm","opening":"Mo 14:00-16:30"},"title":"Kinross and District Men’s Shed"},"type":"Feature"},
		{"geometry":{"coordinates":[-3.51149,56.21331],"type":"Point"},"properties":{"_source":"perth_and_kinross_council","address":"Carnbo Hall, Carnbo, Kinross, KY13 0NS","contact":"07917 319003","description":"Hot drinks, snacks and guest speakers","hours":{"_text":"1st Monday of the Month 7.30pm - 9.30pm. Sat 7th Dec: Carnbo Children’s Christmas Tree Party 2pm & 4pm for Santa & Community . Sun 15th Dec: Carnbo Christmas Singalong 4pm. Sat 18th Jan: Soup Saturday 12-2pm","opening":"Mo[1] 19:30-21:30; Sa 12:00-14:00"},"title":"Carnbo Hall"},"type":"Feature"},
		{"geometry":{"coordinates":[-3.39796,56.28011],"type":"Point"},"properties":{"_source":"perth_and_kinross_council","address":"Greenbank Road, Glenfarg","description":"Lunch and soup","hours":{"_text":"Every Monday lunch time"},"title":"Glenfarg Community Centre"},"type":"Feature"},
		{"geometry":{"coordinates":[-3.39796,56.28011],"type":"Point"},"properties":{"_source":"perth_and_kinross_council","address":"Glenfarg Community Centre Greenbank Road, Glenfarg","description":"Warm space with healthy snack for parents/carers and children 0-5 years","hours":{"_text":"Wednesdays 9:30-11:30 ","opening":"We 09:30-11:30"},"title":"Glenfarg Baby and Toddler Group"},"type":"Feature"},
		{"geometry":{"coordinates":[-3.41877,56.23061],"type":"Point"},"properties":{"_source":"perth_and_kinross_council","address":"Orwell and Portmoak Church, Ba'hill Milnathort, KY13 9YQ","contact":"01577 861200","description":"Knitting and a hot drink","hours":{"_text":"Monday afternoons"},"title":"Knitwitz -Orwell and Portmoak Church"},"type":"Feature"},
		{"geometry":{"coordinates":[-3.41877,56.23061],"type":"Point"},"properties":{"_source":"perth_and_kinross_council","address":"Orwell and Portmoak Church, Ba'hill Milnathort, KY13 9YQ","contact":"01577 861200","description":"Chat and refreshments","hours":{"_text":"Friday afternoons once a month"},"title":"Tea and Blether -Orwell and Portmoak Church"},"type":"Feature"},
		{"geometry":{"coordinates":[-3.41877,56.23061],"type":"Point"},"properties":{"_source":"perth_and_kinross_council","address":"Orwell and Portmoak Church, Ba'hill Milnathort, KY13 9YQ","contact":"01577 861200","description":"Fellowship and activities","hours":{"_text":"Friday mornings once a month"},"title":"Oasis Group - Orwell and Portmoak Church"},"type":"Feature"},
		{"geometry":{"coordinates":[-3.41877,56.23061],"type":"Point"},"properties":{"_source":"perth_and_kinross_council","address":"Orwell and Portmoak Church, Ba'hill Milnathort, KY13 9YQ","contact":"01577 861200","description":"Meal and activities","hours":{"_text":"Saturdays 4pm to 6pm once a month","opening":"Sa 16:00-18:00"},"title":"Messy Church - Orwell and Portmoak Church"},"type":"Feature"},
		{"geometry":{"coordinates":[-3.42385,56.21162],"type":"Point"},"properties":{"_source":"perth_and_kinross_council","address":"The Beacon, St Pauls Church, Muirs, Kinross","description":"Parents to be (Wed Morning/Afternoon)/Women's Group (Alternate Wed Evenings)","hours":{"_text":"Wednesdays"},"title":"Broke Not Broken"},"type":"Feature"},
		{"geometry":{"coordinates":[-3.42114,56.20450],"type":"Point"},"properties":{"_source":"perth_and_kinross_council","address":"c/o KDMS, 15 Swansacre, Kinross, KY13 8TE","description":"Support and refreshments for those with disabilities (18+)","hours":{"_text":"Thursdays 1-3pm","opening":"Th 13:00-15:00"},"title":"SPARKS"},"type":"Feature"},
		{"geometry":{"coordinates":[-3.41841,56.22713],"type":"Point"},"properties":{"_source":"perth_and_kinross_council","address":"Milnathort Town Hall, 1 New Road, Milnathort, KY13 9XT","contact":"077450 12315","description":"Movies and afternoon tea","hours":{"_text":"One in December and one in March"},"title":"Milnathort Filmhouse Community Cinema"},"type":"Feature"},
		{"geometry":{"coordinates":[-3.40828,56.34933],"type":"Point"},"properties":{"_source":"perth_and_kinross_council","address":"Bridge of Earn Institute, Main Street, Bridge of Earn PH2 9EA","contact":"Margaret Folan - 07541312355","description":"SWI meetings (Wed afternoons)","hours":{"_text":"2nd Wed of every month 2pm-4pm","opening":"We[2] 14:00-16:00"},"title":"Bridge of Earn SWI"},"type":"Feature"},
		{"geometry":{"coordinates":[-3.40828,56.34933],"type":"Point"},"properties":{"_source":"perth_and_kinross_council","address":"Bridge of Earn Institute, Main St, Bridge of Earn PH2 9EA","description":"Baby & Toddler group (Tues Mornings);","hours":{"_text":"Tuesday 9am-11am","opening":"Tu 09:00-11:00"},"title":"Bridge of Earn Baby and Toddler Group"},"type":"Feature"},
		{"geometry":{"coordinates":[-3.40738,56.35048],"type":"Point"},"properties":{"_source":"perth_and_kinross_council","address":"Dunbarney Church Hall, Manse Road, Bridge of Earn, PH2 9DY","description":"entertainment and tea","hours":{"_text":"Friday 10.30am-1:00pm","opening":"Fr 10:30-13:00"},"title":"Cosy Cafe"},"type":"Feature"},
		{"geometry":{"coordinates":[-3.40596,56.34899],"type":"Point"},"properties":{"_source":"perth_and_kinross_council","address":"Bridge of Earn Bowling Club, Main Street, Bridge of Earn, PH2 9DY","contact":"1738850768","description":"Refreshments and entertainment","hours":{"_text":"Wednesday 2pm-4pm","opening":"We 14:00-16:00"},"title":"The Wednesday Club"},"type":"Feature"},
		{"geometry":{"coordinates":[-3.30899,56.33297],"type":"Point"},"properties":{"_source":"perth_and_kinross_council","address":"Masonic Hall, Main Street, Abernethy, PH2 9LA","description":"Talks, chat and Refreshments","hours":{"_text":"3rd Wednesday of the month 1pm-3pm","opening":"We[3] 13:00-15:00"},"title":"Abernethy Scottish Women's Institute"},"type":"Feature"},
		{"geometry":{"coordinates":[-3.47868,56.34595],"type":"Point"},"properties":{"_source":"perth_and_kinross_council","address":"Forgandenny Village Hall, Forgandenny, PH2 9EQ","description":"Hot drinks and snacks","hours":{"_text":"Thursday 2pm-4pm","opening":"Th 14:00-16:00"},"title":"Forgandenny Friends"},"type":"Feature"}
	]
}
