{
	"type": "FeatureCollection",
	"features": [
		{"geometry":{"coordinates":[-3.19414,56.19137],"type":"Point"},"properties":{"_source":"warm_welcome","address":"Caskieberran Road, Glenrothes, Fife KY6 2NR","description":"Open from 7 November 2022.","hours":{"_text":"Monday: 10:30 - 14:00, Friday: 10:30 - 14:00","opening":"Mo 10:30-14:00; Fr 10:30-14:00"},"title":"Glenrothes Salvation Army"},"type":"Feature"},
		{"geometry":{"coordinates":[-3.39937,56.28000],"type":"Point"},"properties":{"_source":"perth_and_kinross_council","address":"GLENFARG VILLAGE HALL GREENBANK ROAD GLENFARG","contact":"mailto:glenfargvillagehallbookings@gmail.com","description":"Warm space for social groups which meet in hall","hours":{"_text":"Warm space for social groups which meet in hall"},"title":"Arngask Hall (Glenfarg Village Hall)"},"type":"Feature"},
		{"geometry":{"coordinates":[-3.42558,56.21506],"type":"Point"},"properties":{"_source":"perth_and_kinross_council","address":"KYTHE MUIRS KINROSS KY13 8FP","contact":"mailto:lynn@kythe.org.uk","description":"Warm Space/activities","hours":{"_text":"Warm Space/activities"},"title":"Kinross-shire Youth Enterprise SCIO (KYTHE)"},"type":"Feature"},
		{"geometry":{"coordinates":[-3.42255,56.20440],"type":"Point"},"properties":{"_source":"perth_and_kinross_council","address":"15 SWANSACRE KINROSS KY13 8TE","contact":"mailto:chairman.kdms@gmail.com","description":"Warm space/ tea, coffee, cakes & games","hours":{"_text":"Warm space/ tea, coffee, cakes & games"},"title":"Kinross & District Men's Shed"},"type":"Feature"},
		{"geometry":{"coordinates":[-3.42018,56.23051],"type":"Point"},"properties":{"_source":"perth_and_kinross_council","address":"ORWELL AND PORTMOAK CHURCH, BA'HILL, MILNATHORT, PERTH PH13 9YQ","contact":"mailto:","description":"Warm space","hours":{"_text":"Warm space"},"title":"Orwell and Portmoak Church"},"type":"Feature"},
		{"geometry":{"coordinates":[-3.51361,56.21303],"type":"Point"},"properties":{"_source":"perth_and_kinross_council","address":"SCHOOL HOUSE, CARNBO, KINROSS KY13 0NS","contact":"mailto:","description":"Warm space for activities","hours":{"_text":"Warm space for activities"},"title":"Carnbo & District Community Halls Association"},"type":"Feature"},
		{"geometry":{"coordinates":[-3.42558,56.21506],"type":"Point"},"properties":{"_source":"perth_and_kinross_council","address":"MUIRS, KINROSS KY13 8FP","contact":"mailto:office@kythe.org.uk","description":"Warm space for young people 11 +","hours":{"_text":"Warm space for young people 11 +"},"title":"Kythe"},"type":"Feature"},
		{"geometry":{"coordinates":[-3.42145,56.20428],"type":"Point"},"properties":{"_source":"perth_and_kinross_council","address":"64 HIGH ST KINROSS","contact":"mailto:kindaycent@tiscali.co.uk","description":"Over 65's 3 course meal and activities for £6 (please phone to book 01577 863869 ). Hot food available to all at reasonable price","hours":{"_text":"Over 65's 3 course meal and activities for £6 (please phone to book 01577 863869 ). Hot food available to all at reasonable price"},"title":"Kinross Day Centre"},"type":"Feature"},
		{"geometry":{"coordinates":[-3.42358,56.20540],"type":"Point"},"properties":{"_source":"perth_and_kinross_council","address":"10 STATION RD KINROSS KY13 8TG","contact":"mailto:","description":"Cuppa and a blether","hours":{"_text":"Cuppa and a blether"},"title":"Kinross Parish Church"},"type":"Feature"}
	]
}
