{
	"type": "FeatureCollection",
	"features": [
		{"geometry":{"coordinates":[-3.20409,55.94379],"type":"Point"},"properties":{"_source":"warm_welcome","address":"2 West Tollcross, Edinburgh EH3 9BP","description":"Open Mondays and Tuesdays 10am - 4pm Over 20 tables, hot drinks, food and warm space. We welcome everyone from students studying to folk meeting friends and everyone in between. Drinks are on a 'pay what you can' basis and we also offer affordable soup and cake. Holiday closures: Closed 25 & 26 Dec, 1 & 2 Jan","hours":{"_text":"Monday: 10:00 - 16:00, Tuesday: 10:00 - 16:00","opening":"Mo 10:00-16:00; Tu 10:00-16:00"},"title":"Central Church cafe Edinburgh"},"type":"Feature"},
		{"geometry":{"coordinates":[-3.18239,55.94723],"type":"Point"},"properties":{"_source":"warm_welcome","address":"The Salvation Army, 1 East Adam Street, Edinburgh, Edinburgh EH8 9TF","description":"Our 'Toasty' cafe is open on Thursdays from 10am-2.30pm serving simple hot food and drinks. Free Debt Advice Service and Digital Skills Training Service also running at the same time.","hours":{"_text":"Thursday: 10:00 - 14:30","opening":"Th 10:00-14:30"},"title":"Edinburgh City Salvation Army"},"type":"Feature"},
		{"geometry":{"coordinates":[-3.40534,55.95520],"type":"Point"},"properties":{"_source":"warm_welcome","address":"The Square, Kirkliston, City of Edinburgh EH29 9AS","description":"Church centre","hours":{"_text":"Thursday: 09:30 - 12:30","opening":"Th 09:30-12:30"},"title":"Kirkliston Parish Church"},"type":"Feature"},
		{"geometry":{"coordinates":[-3.26648,55.94062],"type":"Point"},"properties":{"_source":"warm_welcome","address":"Manor Grange, Midlothian EH12 7FB","description":"Care Home with warm welcoming spaces and free leisure activities for over 60s","hours":{"_text":"Monday: 11:00 - 13:00, Tuesday: 11:00 - 13:00, Wednesday: 11:00 - 13:00, Thursday: 11:00 - 13:00, Friday: 11:00 - 13:00, Saturday: 11:00 - 13:00, Sunday: 11:00 - 13:00","opening":"Mo 11:00-13:00; Tu 11:00-13:00; We 11:00-13:00; Th 11:00-13:00; Fr 11:00-13:00; Sa 11:00-13:00; Su 11:00-13:00"},"title":"Manor Grange Care Home"},"type":"Feature"},
		{"geometry":{"coordinates":[-3.22371,55.93397],"type":"Point"},"properties":{"_source":"warm_welcome","address":"Polwarth Parish Church, Midlothian EH11 1LU","description":"A friendly and welcoming space to meet people, chat to friends, read, or work. There is Wifi, hot drinks, biscuits and the occasional hot plate of soup.","hours":{"_text":"Friday: 10:00 - 12:30","opening":"Fr 10:00-12:30"},"title":"Polwarth Open and Welcome Space"},"type":"Feature"},
		{"geometry":{"coordinates":[-3.21288,55.95825],"type":"Point"},"properties":{"_source":"warm_welcome","address":"Lifecare (Edinburgh) Ltd, Midlothian EH4 1JB","description":"Offering a warm welcome every Saturday between 12.30pm and 3.30pm at The LifeCare Centre. Join us for for a hot lunch, activities, games, tea & coffee. Free - Everyone welcome","hours":{"_text":"Saturday: 12:30 - 15:30","opening":"Sa 12:30-15:30"},"title":"Saturday Club"},"type":"Feature"},
		{"geometry":{"coordinates":[-3.19411,55.94874],"type":"Point"},"properties":{"_source":"warm_spaces","address":"Johnston Terrace, Edinburgh, Scotland, EH1 2PW, United Kingdom","description":"Free Wi-Fi, Device Charging, People to chat to, Space to work, Wheelchair Accessible, Toilets, Accessible Toilet, Child Friendly, Free tea/coffee","hours":{"_text":"Thursday 2pm-4pm","opening":"Th 14:00-16:00"},"title":"St Columba's Free Church","url":"www.stcsfc.org"},"type":"Feature"},
		{"geometry":{"coordinates":[-3.21294,55.95818],"type":"Point"},"properties":{"_source":"warm_spaces","address":"2 Cheyne Street, Edinburgh, Scotland, EH4 1JB, United Kingdom","description":"Free Food/Drink, Free Wi-Fi, People to chat to, Space to work, Wheelchair Accessible, Toilets, Accessible Toilet, Child Friendly","hours":{"_text":"Saturdays &amp; Sundays 3.30pm-6.30pm","opening":"Sa 15:30-18:30; Su 15:30-18:30"},"title":"LifeCare Edinburgh","url":"https://www.lifecare-edinburgh.org.uk"},"type":"Feature"},
		{"geometry":{"coordinates":[-3.17837,55.95843],"type":"Point"},"properties":{"_source":"warm_spaces","address":"12-14 Hillside Crescent, Edinburgh, Scotland, EH7 5EA, United Kingdom","description":"Free Wi-Fi, Device Charging, Advice, People to chat to, Food/Drink for sale, Wheelchair Accessible, Toilets, Accessible Toilet, Parking","hours":{"_text":"Monday-Friday, 10.30am-3pm","opening":"Mo-Fr 10:30-15:00"},"title":"RNIB Hillside Crescent","url":"https://www.rnib.org.uk/nations/scotland/"},"type":"Feature"},
		{"geometry":{"coordinates":[-3.26685,55.94088],"type":"Point"},"properties":{"_source":"warm_spaces","address":"31 Pinkhill, Edinburgh, Scotland, EH12 7FB, United Kingdom","description":"Over 65’s, Free Food/Drink, Free Wi-Fi, Device Charging, People to chat to, Wheelchair Accessible, Toilets, Accessible Toilet, Parking, Activities","hours":{"_text":"Mon, Wed, Fri 11am-3pm","opening":"Mo 11:00-15:00; We 11:00-15:00; Fr 11:00-15:00"},"title":"Manor Grange Care Home","url":"www.manorgrangecare.co.uk"},"type":"Feature"},
		{"geometry":{"coordinates":[-3.21296,55.95834],"type":"Point"},"properties":{"_source":"warm_spaces","address":"2 Cheyne Street, Edinburgh, Scotland, EH4 1JB, United Kingdom","description":"Free Food/Drink, Free Wi-Fi, People to chat to, Pay It Forward Scheme, Wheelchair Accessible, Toilets, Accessible Toilet, Child Friendly, reading material, board games","hours":{"_text":"3pm-6pm"},"title":"LifeCare - Edinburgh","url":"https://www.lifecare-edinburgh.org.uk"},"type":"Feature"},
		{"geometry":{"coordinates":[-3.33969,55.88451],"type":"Point"},"properties":{"_source":"edinburgh_council","address":"1 Main Street, Balerno","contact":"Tel: 0131 529 5500; Email: balerno.library@edinburgh.gov.uk","description":"Wheelchair accessible","hours":{"_text":"Monday and Wednesday, 1:00 to 8:00pm; Tuesday and Friday, 10:00am to 5:00pm; Saturday, 10:00am to 2:00pm","opening":"Mo 13:00-20:00; We 13:00-20:00; Tu 10:00-17:00; Fr 10:00-17:00; Sa 10:00-14:00"},"title":"Balerno Library","url":"https://www.edinburgh.gov.uk/directory-record/1229169/balerno-library"},"type":"Feature"},
		{"geometry":{"coordinates":[-3.24845,55.93726],"type":"Point"},"properties":{"_source":"edinburgh_council","address":"173 Balgreen Road, Edinburgh","contact":"Tel: 0131 529 5585; Email: balgreen.library@edinburgh.gov.uk","description":"Wheelchair accessible","hours":{"_text":"Monday and Wednesday, 1:00 to 8:00pm; Tuesday and Friday, 10:00am to 5:00pm; Saturday, 10:00am to 2:00pm","opening":"Mo 13:00-20:00; We 13:00-20:00; Tu 10:00-17:00; Fr 10:00-17:00; Sa 10:00-14:00"},"title":"Balgreen Library","url":"https://www.edinburgh.gov.uk/directory-record/1229170/balgreen-library"},"type":"Feature"},
		{"geometry":{"coordinates":[-3.26117,55.96168],"type":"Point"},"properties":{"_source":"edinburgh_council","address":"56 Hillhouse Road, Edinburgh","contact":"Tel: 0131 529 5595; Email: blackhall.library@edinburgh.gov.uk","description":"Wheelchair accessible","hours":{"_text":"Monday to Wednesday, 10:00am to 8:00pm; Thursday to Saturday, 10:00am to 5:00pm","opening":"Mo-We 10:00-20:00; Th-Sa 10:00-17:00"},"title":"Blackhall Library","url":"https://www.edinburgh.gov.uk/directory-record/1229171/blackhall-library"},"type":"Feature"},
		{"geometry":{"coordinates":[-3.19251,55.94846],"type":"Point"},"properties":{"_source":"edinburgh_council","address":"George IV Bridge, Edinburgh","contact":"Tel: 0131 242 8000; Email: libraries@edinburgh.gov.uk","description":"Wheelchair accessible","hours":{"_text":"Monday to Wednesday, 10:00am to 8:00pm; Thursday to Saturday, 10:00am to 5:00pm","opening":"Mo-We 10:00-20:00; Th-Sa 10:00-17:00"},"title":"Central Library","url":"https://www.edinburgh.gov.uk/directory-record/1229174/central-library"},"type":"Feature"},
		{"geometry":{"coordinates":[-3.25134,55.90675],"type":"Point"},"properties":{"_source":"edinburgh_council","address":"14 Thorburn Road, Edinburgh","contact":"Tel: 0131 529 5603; Email: colinton.library@edinburgh.gov.uk","description":"Wheelchair accessible","hours":{"_text":"Monday and Wednesday, 1:00 to 8:00pm; Tuesday and Friday, 10:00am to 5:00pm; Saturday, 10:00am to 2:00pm","opening":"Mo 13:00-20:00; We 13:00-20:00; Tu 10:00-17:00; Fr 10:00-17:00; Sa 10:00-14:00"},"title":"Colinton Library","url":"https://www.edinburgh.gov.uk/directory-record/1229175/colinton-library"},"type":"Feature"},
		{"geometry":{"coordinates":[-3.28107,55.94074],"type":"Point"},"properties":{"_source":"edinburgh_council","address":"12 Kirk Loan, Edinburgh","contact":"Tel: 0131 529 5506; Email: corstorphine.library@edinburgh.gov.uk","description":"Wheelchair accessible","hours":{"_text":"Monday and Wednesday, 1:00 to 8:00pm; Tuesday and Friday, 10:00am to 5:00pm; Saturday, 10:00am to 2:00pm","opening":"Mo 13:00-20:00; We 13:00-20:00; Tu 10:00-17:00; Fr 10:00-17:00; Sa 10:00-14:00"},"title":"Corstorphine Library","url":"https://www.edinburgh.gov.uk/directory-record/1229176/corstorphine-library"},"type":"Feature"},
		{"geometry":{"coordinates":[-3.31107,55.89610],"type":"Point"},"properties":{"_source":"edinburgh_council","address":"210 Lanark Road West, Edinburgh","contact":"Tel: 0131 529 5609; Email: currie.library@edinburgh.gov.uk","description":"Wheelchair accessible","hours":{"_text":"Monday and Wednesday, 1 :00to 8:00pm; Tuesday, Thursday and Friday, 10:00am to 5:00pm; Saturday, 10:00am to 5:00pm","opening":"Tu 10:00-17:00; Th 10:00-17:00; Fr 10:00-17:00; Sa 10:00-17:00"},"title":"Currie Library","url":"https://www.edinburgh.gov.uk/directory-record/1229178/currie-library"},"type":"Feature"},
		{"geometry":{"coordinates":[-3.28706,55.95540],"type":"Point"},"properties":{"_source":"edinburgh_council","address":"81 Drum Brae Drive, Edinburgh","contact":"Tel: 0131 529 5244; Email: drumbrae.library@edinburgh.gov.uk","description":"Wheelchair accessible","hours":{"_text":"Monday to Wednesday, 10:00am to 8:00pm; Thursday to Saturday, 10:00am to 5:00pm","opening":"Mo-We 10:00-20:00; Th-Sa 10:00-17:00"},"title":"Drumbrae Library Hub","url":"https://www.edinburgh.gov.uk/directory-record/1229179/drumbrae-library-hub"},"type":"Feature"},
		{"geometry":{"coordinates":[-3.21837,55.94008],"type":"Point"},"properties":{"_source":"edinburgh_council","address":"137 Dundee Street, Edinburgh","contact":"Tel: 0131 529 5616; Email: fountainbridge.library@edinburgh.gov.uk","description":"Wheelchair accessible","hours":{"_text":"Monday and Wednesday, 1 :00to 8:00pm; Tuesday, Thursday and Friday, 10:00am to 5:00pm; Saturday, 10:00am to 5:00pm","opening":"Tu 10:00-17:00; Th 10:00-17:00; Fr 10:00-17:00; Sa 10:00-17:00"},"title":"Fountainbridge Library","url":"https://www.edinburgh.gov.uk/directory-record/1229181/fountainbridge-library"},"type":"Feature"},
		{"geometry":{"coordinates":[-3.40154,55.95527],"type":"Point"},"properties":{"_source":"edinburgh_council","address":"16 Station Road, Kirkliston","contact":"Tel: 0131 529 5510; Email: kirkliston.library@edinburgh.gov.uk","description":"Wheelchair accessible","hours":{"_text":"Monday and Wednesday, 1:00to 8:00pm; Tuesday and Friday, 10:00am to 5:00pm; Saturday,10:00am to 2:00pm","opening":"Tu 10:00-17:00; Fr 10:00-17:00; Sa 10:00-14:00"},"title":"Kirkliston Library","url":"https://www.edinburgh.gov.uk/directory-record/1229184/kirkliston-library"},"type":"Feature"},
		{"geometry":{"coordinates":[-3.18125,55.96129],"type":"Point"},"properties":{"_source":"edinburgh_council","address":"2 McDonald Road, Edinburgh","contact":"Tel: 0131 529 5636; Email: mcdonaldroad.library@edinburgh.gov.uk","description":"Wheelchair accessible","hours":{"_text":"Monday to Wednesday, 10:00am to 8:00pm; Thursday to Saturday, 10:00am to 5:00pm","opening":"Mo-We 10:00-20:00; Th-Sa 10:00-17:00"},"title":"McDonald Road Library","url":"https://www.edinburgh.gov.uk/directory-record/1229186/mcdonald-road-library"},"type":"Feature"},
		{"geometry":{"coordinates":[-3.20996,55.92891],"type":"Point"},"properties":{"_source":"edinburgh_council","address":"184 Morningside Road, Edinburgh","contact":"Tel: 0131 529 5654; Email: morningside.library@edinburgh.gov.uk","description":"Wheelchair accessible","hours":{"_text":"Monday to Wednesday, 10:00am to 8:00pm; Thursday to Saturday, 10:00am to 5:00pm","opening":"Mo-We 10:00-20:00; Th-Sa 10:00-17:00"},"title":"Morningside Library","url":"https://www.edinburgh.gov.uk/directory-record/1229189/morningside-library"},"type":"Feature"},
		{"geometry":{"coordinates":[-3.17981,55.93219],"type":"Point"},"properties":{"_source":"edinburgh_council","address":"17-21 Fountainhall Road, Edinburgh","contact":"Tel: 0131 529 5536; Email: newington.library@edinburgh.gov.uk","description":"Wheelchair accessible","hours":{"_text":"Monday to Wednesday, 10:00am to 8:00pm; Thursday to Saturday, 10:00am to 5:00pm","opening":"Mo-We 10:00-20:00; Th-Sa 10:00-17:00"},"title":"Newington Library","url":"https://www.edinburgh.gov.uk/directory-record/1229192/newington-library"},"type":"Feature"},
		{"geometry":{"coordinates":[-3.22356,55.90524],"type":"Point"},"properties":{"_source":"edinburgh_council","address":"343 Oxgangs Road North, Edinburgh","contact":"Tel: 0131 529 5549; Email: oxgangs.library@edinburgh.gov.uk","description":"Wheelchair accessible","hours":{"_text":"Monday to Wednesday, 10:00am to 8:00pm; Thursday to Saturday, 10:00am to 5:00pm","opening":"Mo-We 10:00-20:00; Th-Sa 10:00-17:00"},"title":"Oxgangs Library","url":"https://www.edinburgh.gov.uk/directory-record/1229193/oxgangs-library"},"type":"Feature"},
		{"geometry":{"coordinates":[-3.28785,55.92021],"type":"Point"},"properties":{"_source":"edinburgh_council","address":"Gate 55, 55 Sighthill Road, Edinburgh","contact":"Tel: 0131 529 5566; Email: sighthill.library@edinburgh.gov.uk","description":"Wheelchair accessible","hours":{"_text":"Monday and Wednesday, 1:00 to 8:00pm; Tuesday and Friday, 10:00am to 5:00pm; Saturday, 10:00am to 2:00pm","opening":"Mo 13:00-20:00; We 13:00-20:00; Tu 10:00-17:00; Fr 10:00-17:00; Sa 10:00-14:00"},"title":"Sighthill Library","url":"https://www.edinburgh.gov.uk/directory-record/1229198/sighthill-library"},"type":"Feature"},
		{"geometry":{"coordinates":[-3.20786,55.95886],"type":"Point"},"properties":{"_source":"edinburgh_council","address":"11 Hamilton Place, Edinburgh","contact":"Tel: 0131 529 5665; Email: stockbridge.library@edinburgh.gov.uk","description":"Wheelchair accessible","hours":{"_text":"Monday and Wednesday, 1 :00to 8:00pm; Tuesday, Thursday and Friday, 10:00am to 5:00pm; Saturday, 10:00am to 5:00pm","opening":"Tu 10:00-17:00; Th 10:00-17:00; Fr 10:00-17:00; Sa 10:00-17:00"},"title":"Stockbridge Library","url":"https://www.edinburgh.gov.uk/directory-record/1229201/stockbridge-library"},"type":"Feature"},
		{"geometry":{"coordinates":[-3.28504,55.91628],"type":"Point"},"properties":{"_source":"edinburgh_council","address":"1 West Side Plaza, Edinburgh","contact":"Tel: 0131 529 5667; Email: westerhailes.library@edinburgh.gov.uk","description":"Wheelchair accessible","hours":{"_text":"Monday to Wednesday, 10:00am to 8:00pm; Thursday to Saturday, 10:00am to 5:00pm","opening":"Mo-We 10:00-20:00; Th-Sa 10:00-17:00"},"title":"Wester Hailes Library","url":"https://www.edinburgh.gov.uk/directory-record/1229202/wester-hailes-library"},"type":"Feature"},
		{"geometry":{"coordinates":[-3.38427,55.92230],"type":"Point"},"properties":{"_source":"edinburgh_council","address":"6 School Wynd, Ratho","contact":"Tel: 0131 333 5297; Email: ratho.library@edinburgh.gov.uk","description":"Wheelchair accessible","hours":{"_text":"Monday and Wednesday, 2.30pm to 7:00pm; Tuesday, Thursday and Friday; 10.30am to 3:00pm","opening":"Mo 14:30-19:00; We 14:30-19:00; Fr 10:30-15:00"},"title":"Ratho Library","url":"https://www.edinburgh.gov.uk/directory-record/1229196/ratho-library"},"type":"Feature"},
		{"geometry":{"coordinates":[-3.19175,55.94860],"type":"Point"},"properties":{"_source":"edinburgh_council","address":"George IV Bridge, Edinburgh","contact":"Tel: 0131 623 3700; Email: enquiries@natlibscot.libanswers.com","description":"Wheelchair accessible","hours":{"_text":"Mon, 9:30am to 7:00pm; Tue, 9:30am to 7:00pm; Wed, 9:30am to 7:00pm; Thur, 9:30am to 7:00pm; Fri,:30am to 7pm; Sat, 9:30am to 7pm; Sun, Closed. Festive hours listed online: https://www.nls.uk/using-the-library/opening-hours/#holidays","opening":"Mo 09:30-19:00; Tu 09:30-19:00; We 09:30-19:00; Th 09:30-19:00; Fr 00:30-19:00; Sa 09:30-19:00"},"title":"National Library of Scotland"},"type":"Feature"},
		{"geometry":{"coordinates":[-3.18987,55.95101],"type":"Point"},"properties":{"_source":"edinburgh_council","address":"2 Market Street, Edinburgh","contact":"Tel: NA; Email: museumsandgalleries@edinburgh.gov.uk","description":"Wheelchair Access, Hearing Loop","hours":{"_text":"Daily, 10:00am to 4.30pm","opening":"Mo-Su 10:00-16:30"},"title":"City Art Centre"},"type":"Feature"},
		{"geometry":{"coordinates":[-3.17942,55.95139],"type":"Point"},"properties":{"_source":"edinburgh_council","address":"142-146 Canongate, Edinburgh","contact":"Tel: NA; Email: museumsandgalleries@edinburgh.gov.uk","description":"Toilet Facilities, Baby Changing Facilities, Access to WiFi","hours":{"_text":"Daily, 10:00am to 4.30pm","opening":"Mo-Su 10:00-16:30"},"title":"Museum of Edinburgh"},"type":"Feature"},
		{"geometry":{"coordinates":[-3.18492,55.95065],"type":"Point"},"properties":{"_source":"edinburgh_council","address":"43-45 High Street, Edinburgh","contact":"Tel: 0131 556 9579; Email: reception@scottishstorytellingcentre.com","description":"Toilet Facilities, Baby Changing Facilities, Access to WiFi","hours":{"_text":"Daily, 10am-6pm (and event evenings)","opening":"Mo-Su 10:00-18:00"},"title":"Scottish Storytelling Centre"},"type":"Feature"},
		{"geometry":{"coordinates":[-3.28630,55.91619],"type":"Point"},"properties":{"_source":"edinburgh_council","contact":"Tel: ; Email:","title":"South West Locality Office"},"type":"Feature"},
		{"geometry":{"coordinates":[-3.18993,55.94996],"type":"Point"},"properties":{"_source":"edinburgh_council","contact":"Tel: ; Email:","title":"Council Hub"},"type":"Feature"},
		{"geometry":{"coordinates":[-3.24782,55.96971],"type":"Point"},"properties":{"_source":"edinburgh_council","contact":"Tel: ; Email:","title":"North West Locality Office"},"type":"Feature"},
		{"geometry":{"coordinates":[-3.28152,55.94193],"type":"Point"},"properties":{"_source":"edinburgh_council","address":"5 Kirk Loan, Corstorphine, Edinburgh","contact":"Tel: 0758 065 9676; Email: admin@ccchub.online","description":"Wheelchair Access, Hearing Loop, Toilet Facilities, Baby Changing Facilities, Access to WiFi, Phone and Device Charging","hours":{"_text":"Monday to Friday, 10:00am to 3:00pm","opening":"Mo-Fr 10:00-15:00"},"title":"Corstorphine Community Centre"},"type":"Feature"},
		{"geometry":{"coordinates":[-3.26066,55.97047],"type":"Point"},"properties":{"_source":"edinburgh_council","address":"7 Muirhouse Medway, Edinburgh","contact":"Tel: 0131 467 3578; Email: pauline@lift-edinburgh.com","description":"Wheelchair Access, Wheelchair / Mobility Charging (normal socket), Toilet Facilities, Baby Changing Facilities, Access to WiFi, Phone and Device Charging","hours":{"_text":"Monday, 8:30 to 7:00pm; Tuesday, 8:30 to 8:00pm; Wednesday, 8:30 to 5:00pm, Thursday, 8:30 to 5:30pm, Friday, 8:30 to 4:00pm","opening":"Mo 08:30-19:00; Tu 08:30-20:00; We 08:30-17:00; Th 08:30-17:30; Fr 08:30-16:00"},"title":"LIFT at Muirhouse Millennium Community Centre"},"type":"Feature"},
		{"geometry":{"coordinates":[-3.24515,55.97165],"type":"Point"},"properties":{"_source":"edinburgh_council","address":"3 West Pilton Park, Edinburgh","contact":"Tel: 0131 315 4466; Email: pepequalities@btconnect.com","description":"Wheelchair Access, Hearing Loop, Toilet Facilities, Baby Changing Facilities, Access to WiFi, Phone and Device Charging","hours":{"_text":"Monday to Friday, 8:30am to 3:30pm, Saturday to Sunday, 11:00am to 4:00pm","opening":"Mo-Fr 08:30-15:30; Sa-Su 11:00-16:00"},"title":"Pilton Equalities Project"},"type":"Feature"},
		{"geometry":{"coordinates":[-3.28946,55.96004],"type":"Point"},"properties":{"_source":"edinburgh_council","address":"6 Parkgrove Street\nEdinburgh","contact":"Tel: NA; Email: munrocentre2@gmail.com","description":"Wheelchair Access Wheelchair/Mobility Charging (normal socket)","hours":{"_text":"Monday and Tuesday, 10 am to 12 midday","opening":"Mo 10:00-12:00; Tu 10:00-12:00"},"title":"The Munro Community Centre"},"type":"Feature"},
		{"geometry":{"coordinates":[-3.24229,55.97062],"type":"Point"},"properties":{"_source":"edinburgh_council","address":"22-24 Ferry Road Drive","contact":"Tel: 0131 476 7741; Email: admin@freshstartweb.org.uk","description":"Wheelchair Access Wheelchair/Mobility Charging (normal socket)","hours":{"_text":"Monday to Thursday, 9am to 4:30pm; Friday 9am to 3pm","opening":"Mo-Th 09:00-16:30; Fr 09:00-15:00"},"title":"Fresh Start"},"type":"Feature"},
		{"geometry":{"coordinates":[-3.28721,55.95505],"type":"Point"},"properties":{"_source":"edinburgh_council","address":"6 Rannoch Terrace, Edinburgh","contact":"Tel: 0131 339 3931; Email: CLD-Rannoch@ea.edin.sch.uk","description":"Wheelchair Access Wheelchair/Mobility Charging (normal socket)","hours":{"_text":"NA"},"title":"Rannoch Community Centre"},"type":"Feature"},
		{"geometry":{"coordinates":[-3.17451,55.93816],"type":"Point"},"properties":{"_source":"edinburgh_council","address":"2 Salisbury Road\nEdinburgh","contact":"Tel: NA; Email: office@salisburycentre.org","description":"Wheelchair Access Wheelchair/Mobility Charging (normal socket)","hours":{"_text":"Tuesday, Thursday and Friday, 11am to 1pm","opening":"Tu 11:00-13:00; Th 11:00-13:00; Fr 11:00-13:00"},"title":"The Salisbury Centre"},"type":"Feature"},
		{"geometry":{"coordinates":[-3.24178,55.97284],"type":"Point"},"properties":{"_source":"edinburgh_council","address":"The Greenhouse, 33 West Pilton Brae, Edinburgh","contact":"Tel: 0131 332 9815; Email: info@pycp.co.uk","description":"Wheelchair Access, Toilet facilities.","hours":{"_text":"Free open access activity clubs for children and young people: Tue, P5-7 Club, 3:30 to 5:00pm; S1+ Girls Group, 6:00pm to 7:30pm; Wed, S1+ Drop-in, 6:30 to 8:00pm, Fri, P1-2 Fun Club, 2 to 3pm, P3-4 Club, 3:30 to 4:30pm , S1+ Drop-in, 6:30 to 8:00pm","opening":"Fr 18:30-20:00"},"title":"Pilton Youth and Children’s Project"},"type":"Feature"},
		{"geometry":{"coordinates":[-3.19779,55.94769],"type":"Point"},"properties":{"_source":"edinburgh_council","address":"14-16 Grassmarket, Edinburgh","contact":"Tel: NA; Email: dance@dancebase.co.uk","description":"Wheelchair Access, Toilet facilities.","hours":{"_text":"Monday to Friday, 10:00am to 9:00pm; Saturday, 1:30pm to 5:30pm","opening":"Mo-Fr 10:00-21:00; Sa 13:30-17:30"},"title":"Dance Base Winter Warmers"},"type":"Feature"},
		{"geometry":{"coordinates":[-3.25133,55.96991],"type":"Point"},"properties":{"_source":"edinburgh_council","address":"31-33 Pennywell Road Edinburgh,","contact":"Tel: 0131 332 8773; Email: Cara.babineau@communityrenewal.org.uk, Tere.Burns@communityrenewal.org.uk","description":"Wheelchair Access, Toilet facilities including disabled access and rails.","hours":{"_text":"Monday, 4:00 to 6:00pm","opening":"Mo 16:00-18:00"},"title":"Community Renewal, Pennywell"},"type":"Feature"},
		{"geometry":{"coordinates":[-3.17840,55.95838],"type":"Point"},"properties":{"_source":"edinburgh_council","address":"12 - 14 Hillside Crescent, Edinburgh","contact":"Tel: 0131 652 3140; Email: scotlandcommunityconnection@rnib.org.uk","description":"Wheelchair Access, Wheelchair / Mobility Charging (normal socket),","hours":{"_text":"Monday to Friday 10:30am - 3:30pm","opening":"Mo-Fr 10:30-15:30"},"title":"Royal National Institute of Blind People"},"type":"Feature"},
		{"geometry":{"coordinates":[-3.18239,55.94722],"type":"Point"},"properties":{"_source":"edinburgh_council","address":"The Salvation Army, 1 East Adam Street, Edinburgh","contact":"Tel: 0131 667 4313; Email: edinburgh.city@salvationarmy.org.uk","description":"NA","hours":{"_text":"NA"},"title":"The Salvation Army"},"type":"Feature"},
		{"geometry":{"coordinates":[-3.18414,55.94429],"type":"Point"},"properties":{"_source":"edinburgh_council","address":"Southside Community Centre, 117 Nicolson Street, Edinburgh","contact":"Tel: 0131 667 0484; Email: NA","description":"Wheelchair Access, Wheelchair/Mobility Charging (normal socket)","hours":{"_text":"Wednesday & Thursday, 12:30 to 4pm","opening":"We 12:30-16:00; Th 12:30-16:00"},"title":"Coorie-In Café"},"type":"Feature"},
		{"geometry":{"coordinates":[-3.24486,55.97184],"type":"Point"},"properties":{"_source":"edinburgh_council","address":"C/O West Pilton Neighbourhood Centre, 19 West Pilton Grove, Edinburgh","contact":"Tel: 0131 315 2151; Email: admin@northedinburgharts.co.uk","description":"Wheelchair Access\nWheelchair / Mobility Charging (normal socket)","hours":{"_text":"Monday to Friday, 10:00am to 1:00pm","opening":"Mo-Fr 10:00-13:00"},"title":"North Edinburgh Arts"},"type":"Feature"},
		{"geometry":{"coordinates":[-3.21288,55.95825],"type":"Point"},"properties":{"_source":"edinburgh_council","address":"2 Cheyne Street, Edinburgh","contact":"Tel: NA; Email: enquiries@lifecare-edinburgh.org.uk","description":"Wheelchair Access Wheelchair/Mobility Charging (normal socket)","hours":{"_text":"Saturdays and Sundays, 3.30-6.30pm","opening":"Sa 15:30-18:30; Su 15:30-18:30"},"title":"LifeCare Centre"},"type":"Feature"},
		{"geometry":{"coordinates":[-3.19733,55.94630],"type":"Point"},"properties":{"_source":"edinburgh_council","address":"11-15 Vennel, Edinburgh","contact":"Tel: 0131 229 1797; Email: contact@6vt.info","description":"Wheelchair Access Wheelchair/Mobility, Charging (normal socket)","hours":{"_text":"Monday, Wednesday and Friday 6 to 10pm","opening":"Mo 18:00-22:00; We 18:00-22:00; Fr 18:00-22:00"},"title":"6VT – Edinburgh City Youth Café"},"type":"Feature"},
		{"geometry":{"coordinates":[-3.17267,55.97018],"type":"Point"},"properties":{"_source":"edinburgh_council","address":"26 Leith Walk, Edinburgh","contact":"Tel: ; Email: yourhome@rightthere.org","description":"Wheelchair Access Wheelchair/Mobility, Charging (normal socket)","hours":{"_text":"Monday to Friday, 10:00am to 3:00pm","opening":"Mo-Fr 10:00-15:00"},"title":"Right There"},"type":"Feature"},
		{"geometry":{"coordinates":[-3.29874,55.91836],"type":"Point"},"properties":{"_source":"edinburgh_council","address":"2 Calder Crescent, Edinburgh","contact":"Tel: ; Email: gerry@bridge8hub.co.uk","hours":{"_text":"Monday, 10:00am to 12:30pm","opening":"Mo 10:00-12:30"},"title":"Bridge 8 Hub"},"type":"Feature"},
		{"geometry":{"coordinates":[-3.24667,55.96194],"type":"Point"},"properties":{"_source":"edinburgh_council","address":"67b Groathill road north, Edinburgh","contact":"Tel: 0131 315 4989; Email: info@drylawnc.org.uk","description":"Wheelchair Access Wheelchair/Mobility, Charging (normal socket)","hours":{"_text":"Monday to Sunday, 9:00am to 5:00pm","opening":"Mo-Su 09:00-17:00"},"title":"Drylaw Neighbourhood centre"},"type":"Feature"},
		{"geometry":{"coordinates":[-3.18222,55.94502],"type":"Point"},"properties":{"_source":"edinburgh_council","address":"3 Gilmour Street, Edinburgh","contact":"Tel: 0131 667 9407; Email: edinburghhub@hillcrestfutures.org.uk","description":"No disabled access and no disabled toilet available","hours":{"_text":"Monday, 11:00am to 4:00pm; Tuesday to Friday 10:00am to 4:00pm","opening":"Tu-Fr 10:00-16:00; Mo 11:00-16:00"},"title":"Edinburgh Futures Resource Hub"},"type":"Feature"},
		{"geometry":{"coordinates":[-3.20974,55.93387],"type":"Point"},"properties":{"_source":"edinburgh_council","address":"15 Morningside Road, Edinburgh","contact":"Tel: ; Email: frontdesk@ericliddell.org","description":"Wheelchair Access Wheelchair/Mobility, Charging (normal socket)","hours":{"_text":"Monday to Friday, 8am to 9pm; Saturdays, 9am to 5pm","opening":"Mo-Fr 08:00-21:00; Sa 09:00-17:00"},"title":"The Eric Liddell Community"},"type":"Feature"},
		{"geometry":{"coordinates":[-3.28504,55.91368],"type":"Point"},"properties":{"_source":"edinburgh_council","address":"30 Harvesters Way, Edinburgh","contact":"Tel: 0770 704 3877; Email: stacey@thehealthagency.or.uk","title":"The Healthy Living Centre Café Space"},"type":"Feature"},
		{"geometry":{"coordinates":[-3.27780,55.92863],"type":"Point"},"properties":{"_source":"edinburgh_council","address":"79-89 Broomhouse Crescent, Edinburgh","contact":"Tel: 0131 455 7731; Email: admin@spacescot.org","description":"Wheelchair Access Wheelchair/Mobility, Charging (normal socket)","hours":{"_text":"Monday to Friday, 8:30am to 4:00pm\n","opening":"Mo-Fr 08:30-16:00"},"title":"Space @ The Broomhouse Hub"},"type":"Feature"},
		{"geometry":{"coordinates":[-3.22359,55.93409],"type":"Point"},"properties":{"_source":"edinburgh_council","address":"36-38 Polwarth Terrace, Edinburgh","contact":"Tel: 0131 569 0525; Email: all.aboard@peopleknowhow.org","description":"Wheelchair Access Wheelchair/Mobility, Charging (normal socket)","hours":{"_text":"Mondays 10:30am to 4:00pm","opening":"Mo 10:30-16:00"},"title":"All Aboard"},"type":"Feature"},
		{"geometry":{"coordinates":[-3.22316,55.91191],"type":"Point"},"properties":{"_source":"edinburgh_council","address":"71 Firrhill Drive, Edinburgh","contact":"Tel: 0131 466 0678; Email: Manager.oxgangsnc@gmail.com","description":"Wheelchair Access Wheelchair/Mobility, Charging (normal socket)","hours":{"_text":"Monday to Friday, 9:00am to 5:00pm","opening":"Mo-Fr 09:00-17:00"},"title":"Oxgangs Neighbourhood Centre SCIO"},"type":"Feature"}
	]
}
