{
	"type": "FeatureCollection",
	"features": [
		{"geometry":{"coordinates":[-3.50251,55.89345],"type":"Point"},"properties":{"_source":"warm_welcome","address":"44 Etive Walk , Craigshill , Livingston, West Lothian EH54 5AB","description":"We cater for Almond Housing Association tenants and the wider Craigshill community.","hours":{"_text":"Tuesday: 10:00 - 15:00, Wednesday: 10:00 - 15:00, Thursday: 10:00 - 15:00, Friday: 13:00 - 15:00","opening":"Tu 10:00-15:00; We 10:00-15:00; Th 10:00-15:00; Fr 13:00-15:00"},"title":"Almond Housing Association"},"type":"Feature"},
		{"geometry":{"coordinates":[-3.50251,55.89345],"type":"Point"},"properties":{"_source":"warm_welcome","address":"44 Etive Walk , Craigshill , Livingston, West Lothian EH54 5AB","description":"We cater for Almond Housing Association tenants and the wider Craigshill community.","hours":{"_text":"Tuesday: 10:00 - 15:00, Wednesday: 10:00 - 15:00, Thursday: 10:00 - 15:00, Friday: 13:00 - 15:00","opening":"Tu 10:00-15:00; We 10:00-15:00; Th 10:00-15:00; Fr 13:00-15:00"},"title":"Almond Housing Association"},"type":"Feature"},
		{"geometry":{"coordinates":[-3.20352,55.93982],"type":"Point"},"properties":{"_source":"warm_welcome","address":"1 Wright's Houses, Edinburgh, Edinburgh EH10 4HR","description":"Open from 22/10/22.","hours":{"_text":"Tuesday: 09:00 - 17:00","opening":"Tu 09:00-17:00"},"title":"Barclay Viewforth Church"},"type":"Feature"},
		{"geometry":{"coordinates":[-3.20352,55.93982],"type":"Point"},"properties":{"_source":"warm_welcome","address":"1 Wright's Houses, Edinburgh, Edinburgh EH10 4HR","description":"Open from 22/10/22.","hours":{"_text":"Tuesday: 09:00 - 17:00","opening":"Tu 09:00-17:00"},"title":"Barclay Viewforth Church"},"type":"Feature"},
		{"geometry":{"coordinates":[-3.25344,55.95788],"type":"Point"},"properties":{"_source":"warm_welcome","address":"Columba Road , Edinburgh, City of Edinburgh EH4 3QU","description":"Open from 02122022.","hours":{"_text":"Wednesday: 10:00 - 15:00 / - Fortnightly, Friday: 10:00 - 15:00","opening":"We 10:00-15:00; Fr 10:00-15:00"},"title":"Blackhall St. Columba's Church"},"type":"Feature"},
		{"geometry":{"coordinates":[-3.25344,55.95788],"type":"Point"},"properties":{"_source":"warm_welcome","address":"Columba Road , Edinburgh, City of Edinburgh EH4 3QU","description":"Open from 02122022.","hours":{"_text":"Wednesday: 10:00 - 15:00 / - Fortnightly, Friday: 10:00 - 15:00","opening":"We 10:00-15:00; Fr 10:00-15:00"},"title":"Blackhall St. Columba's Church"},"type":"Feature"},
		{"geometry":{"coordinates":[-3.21468,55.95336],"type":"Point"},"properties":{"_source":"warm_welcome","address":"1 Queensferry Road, Edinburgh EH4 3DJ","description":"Open from 21-11-2022.","hours":{"_text":"Monday: 13:15 - 14:30, Thursday: 13:15 - 14:30","opening":"Mo 13:15-14:30; Th 13:15-14:30"},"title":"Bristo Baptist Church"},"type":"Feature"},
		{"geometry":{"coordinates":[-3.20409,55.94379],"type":"Point"},"properties":{"_source":"warm_welcome","address":"2 West Tollcross, Edinburgh EH3 9BP","description":"Open from closed 26 & 27 Dec 2022. open again from 2 Jan 2023. We welcome everyone from students studying to folk meeting friends and everyone inbetween. Drinks are on a 'pay what you can' basis and we also offer affordable soup and cake.","hours":{"_text":"Monday: 10:00 - 16:00, Tuesday: 10:00 - 16:00","opening":"Mo 10:00-16:00; Tu 10:00-16:00"},"title":"Central Church cafe Edinburgh"},"type":"Feature"},
		{"geometry":{"coordinates":[-3.24207,55.92170],"type":"Point"},"properties":{"_source":"warm_welcome","address":"Craiglockhart Drive North, Edinburgh, Edinburgh EH14 1HS","description":"Open from Monday.","hours":{"_text":"Monday: 10:00 - 14:00","opening":"Mo 10:00-14:00"},"title":"Craiglockhart Parish Church"},"type":"Feature"},
		{"geometry":{"coordinates":[-3.24207,55.92170],"type":"Point"},"properties":{"_source":"warm_welcome","address":"Craiglockhart Drive North, Edinburgh, Edinburgh EH14 1HS","description":"Open from Monday.","hours":{"_text":"Monday: 10:00 - 14:00","opening":"Mo 10:00-14:00"},"title":"Craiglockhart Parish Church"},"type":"Feature"},
		{"geometry":{"coordinates":[-3.18258,55.94736],"type":"Point"},"properties":{"_source":"warm_welcome","address":"The Salvation Army, 1 East Adam Street, Edinburgh EH8 9TF","description":"Open from 03-11-2022. Our 'Toasty' cafe is open from 10am-2.30pm serving simple hot food and drinks. Debt Advice Service and Digital Skills Training Service also running at the same time.","hours":{"_text":"Thursday: 10:00 - 14:30","opening":"Th 10:00-14:30"},"title":"Edinburgh City Salvation Army"},"type":"Feature"},
		{"geometry":{"coordinates":[-3.22228,55.82746],"type":"Point"},"properties":{"_source":"warm_welcome","address":"42 John St., , Penicuik, Scotland / Midlothian Eh268ab","hours":{"_text":"Monday: 10:30 - 15:00, Tuesday: 10:00 - 15:00, Wednesday: 10:00 - 15:00, Thursday: 10:00 - 15:00, Friday: 10:30 - 15:00, Saturday: 11:00 - 13:00","opening":"Mo 10:30-15:00; Tu 10:00-15:00; We 10:00-15:00; Th 10:00-15:00; Fr 10:30-15:00; Sa 11:00-13:00"},"title":"Food Facts friends Community Hub"},"type":"Feature"},
		{"geometry":{"coordinates":[-3.22228,55.82746],"type":"Point"},"properties":{"_source":"warm_welcome","address":"42 John St., , Penicuik, Scotland / Midlothian Eh268ab","hours":{"_text":"Monday: 10:30 - 15:00, Tuesday: 10:00 - 15:00, Wednesday: 10:00 - 15:00, Thursday: 10:00 - 15:00, Friday: 10:30 - 15:00, Saturday: 11:00 - 13:00","opening":"Mo 10:30-15:00; Tu 10:00-15:00; We 10:00-15:00; Th 10:00-15:00; Fr 10:30-15:00; Sa 11:00-13:00"},"title":"Food Facts friends Community Hub"},"type":"Feature"},
		{"geometry":{"coordinates":[-3.40288,55.95364],"type":"Point"},"properties":{"_source":"warm_welcome","address":"Kirkliston Community Church, Kirkliston, Edinburgh EH29 9AB","hours":{"_text":"Thursday: 09:30 - 11:15, Sunday: 10:30 - 12:30","opening":"Th 09:30-11:15; Su 10:30-12:30"},"title":"Kirkliston Community Church"},"type":"Feature"},
		{"geometry":{"coordinates":[-3.40133,55.95530],"type":"Point"},"properties":{"_source":"warm_welcome","address":"Kirkliston Library, 16 Station Road, Kirkliston, Edinburgh, EH29 9BE, Kirkliston, Edinburgh EH29 7BE","description":"All welcome A friendly community library in the heart of Kirkliston, on local bus route. We have a warm cosy corner with jigsaws, board games, colouring in resources, and a lovely children's area with toys etc. We have tea/coffee on Tue mornings & Wed afternoons.","hours":{"_text":"Monday: 13:00 - 20:00, Tuesday: 10:00 - 17:00, Wednesday: 13:00 - 20:00, Friday: 10:00 - 17:00, Saturday: 10:00 - 14:00","opening":"Mo 13:00-20:00; Tu 10:00-17:00; We 13:00-20:00; Fr 10:00-17:00; Sa 10:00-14:00"},"title":"Kirkliston Library"},"type":"Feature"},
		{"geometry":{"coordinates":[-3.46373,55.89495],"type":"Point"},"properties":{"_source":"warm_welcome","address":"East Calder Church Hall, , Manse Court,, East Calder, EH53 0EN","description":"We cater for any age. Trained listeners are available to arrange formal listening sessions if someone has anything that is worrying them that they would like to talk about. In our warm space you will find company and games. Pop in for as little or as long as suits. There’s plenty Hot soup, rolls and hot drinks! Children's corner set up. Quiet room available.","hours":{"_text":"Monday: 11:00 - 15:00, Thursday: 11:00 - 15:00","opening":"Mo 11:00-15:00; Th 11:00-15:00"},"title":"KNEC Community Listening Project"},"type":"Feature"},
		{"geometry":{"coordinates":[-3.46373,55.89495],"type":"Point"},"properties":{"_source":"warm_welcome","address":"East Calder Church Hall, , Manse Court,, East Calder, EH53 0EN","description":"We cater for any age. Trained listeners are available to arrange formal listening sessions if someone has anything that is worrying them that they would like to talk about. In our warm space you will find company and games. Pop in for as little or as long as suits. There’s plenty Hot soup, rolls and hot drinks! Children's corner set up. Quiet room available.","hours":{"_text":"Monday: 11:00 - 15:00, Thursday: 11:00 - 15:00","opening":"Mo 11:00-15:00; Th 11:00-15:00"},"title":"KNEC Community Listening Project"},"type":"Feature"},
		{"geometry":{"coordinates":[-3.26490,55.94150],"type":"Point"},"properties":{"_source":"warm_welcome","address":"31 Pinkhill, EDINBURGH, Please Select EH12 7FB","description":"Seniors - over 65. We are a care home offering space, warmth and hot food to seniors, who are on their own and would like some company","hours":{"_text":"Monday: 11:00 - 15:00, Wednesday: 11:00 - 15:00, Friday: 11:00 - 15:00","opening":"Mo 11:00-15:00; We 11:00-15:00; Fr 11:00-15:00"},"title":"Manor Grange Care Home"},"type":"Feature"},
		{"geometry":{"coordinates":[-3.26490,55.94150],"type":"Point"},"properties":{"_source":"warm_welcome","address":"31 Pinkhill, EDINBURGH, Please Select EH12 7FB","description":"Seniors - over 65. We are a care home offering space, warmth and hot food to seniors, who are on their own and would like some company","hours":{"_text":"Monday: 11:00 - 15:00, Wednesday: 11:00 - 15:00, Friday: 11:00 - 15:00","opening":"Mo 11:00-15:00; We 11:00-15:00; Fr 11:00-15:00"},"title":"Manor Grange Care Home"},"type":"Feature"},
		{"geometry":{"coordinates":[-3.22339,55.91191],"type":"Point"},"properties":{"_source":"warm_welcome","address":"71 Firrhill Drive, Edinburgh, Edinburgh EH13 1EU","description":"Open from 07/11/2022. We thrive on our motto 'We are a Centre for All' We are a very welcoming Community Centre in Edinburgh. Oxgangs is often described as a deprived area but that doesn't stop it from being a vibrant community. We have many activities taking place and a well used cafe.","hours":{"_text":"Monday: 09:00 - 17:00, Tuesday: 09:00 - 17:00, Wednesday: 09:00 - 17:00, Thursday: 09:00 - 17:00, Friday: 09:00 - 17:00","opening":"Mo 09:00-17:00; Tu 09:00-17:00; We 09:00-17:00; Th 09:00-17:00; Fr 09:00-17:00"},"title":"Oxgangs Neighbourhood Centre SCIO"},"type":"Feature"},
		{"geometry":{"coordinates":[-3.22323,55.93394],"type":"Point"},"properties":{"_source":"warm_welcome","address":"36-38 Polwarth Terrace, Edinburgh, Edinburgh EH11 1LU","hours":{"_text":"Friday: 09:00 - 13:00","opening":"Fr 09:00-13:00"},"title":"Polwarth Parish Church"},"type":"Feature"},
		{"geometry":{"coordinates":[-3.30335,55.96055],"type":"Point"},"properties":{"_source":"warm_welcome","address":"565 queensferry road , Edinburgh EH48DU","description":"As a business out focus is on catering for the elderly, however all are welcome. Queens Manor is a residential care home in Edinburgh - our doors are open to help the local community and provide a safe, warm and welcome environment.","hours":{"_text":"Monday: 14:00 - 17:00, Tuesday: 14:00 - 17:00, Wednesday: 14:00 - 17:00, Thursday: 14:00 - 17:00, Friday: 14:00 - 17:00","opening":"Mo 14:00-17:00; Tu 14:00-17:00; We 14:00-17:00; Th 14:00-17:00; Fr 14:00-17:00"},"title":"Queens Manor Care Home - Barchester health care"},"type":"Feature"},
		{"geometry":{"coordinates":[-3.30335,55.96055],"type":"Point"},"properties":{"_source":"warm_welcome","address":"565 queensferry road , Edinburgh EH48DU","description":"As a business out focus is on catering for the elderly, however all are welcome. Queens Manor is a residential care home in Edinburgh - our doors are open to help the local community and provide a safe, warm and welcome environment.","hours":{"_text":"Monday: 14:00 - 17:00, Tuesday: 14:00 - 17:00, Wednesday: 14:00 - 17:00, Thursday: 14:00 - 17:00, Friday: 14:00 - 17:00","opening":"Mo 14:00-17:00; Tu 14:00-17:00; We 14:00-17:00; Th 14:00-17:00; Fr 14:00-17:00"},"title":"Queens Manor Care Home - Barchester health care"},"type":"Feature"},
		{"geometry":{"coordinates":[-3.17866,55.95828],"type":"Point"},"properties":{"_source":"warm_welcome","address":"12 Hillside Crescent, Edinburgh, Edinburgh EH7 5EA","hours":{"_text":"Monday: 10:30 - 4:30, Tuesday: 10:30 - 4:30, Wednesday: 10:30 - 4:30, Thursday: 10:30 - 4:30, Friday: 10:30 - 4:30","opening":"Mo 10:30-04:30; Tu 10:30-04:30; We 10:30-04:30; Th 10:30-04:30; Fr 10:30-04:30"},"title":"RNIB"},"type":"Feature"},
		{"geometry":{"coordinates":[-3.17866,55.95828],"type":"Point"},"properties":{"_source":"warm_welcome","address":"12 Hillside Crescent, Edinburgh, Edinburgh EH7 5EA","hours":{"_text":"Monday: 10:30 - 4:30, Tuesday: 10:30 - 4:30, Wednesday: 10:30 - 4:30, Thursday: 10:30 - 4:30, Friday: 10:30 - 4:30","opening":"Mo 10:30-04:30; Tu 10:30-04:30; We 10:30-04:30; Th 10:30-04:30; Fr 10:30-04:30"},"title":"RNIB"},"type":"Feature"},
		{"geometry":{"coordinates":[-3.20256,55.94721],"type":"Point"},"properties":{"_source":"warm_welcome","address":"28 Castle Terrace, Edinburgh, Midlothian EH1 2EL","description":"Open from 4/1/2023. Newspapers and Magazines will also be available","hours":{"_text":"Wednesday: 14:00 - 16:00","opening":"We 14:00-16:00"},"title":"St Columba's by the Castle Episcopal Church"},"type":"Feature"},
		{"geometry":{"coordinates":[-3.20256,55.94721],"type":"Point"},"properties":{"_source":"warm_welcome","address":"28 Castle Terrace, Edinburgh, Midlothian EH1 2EL","description":"Open from 4/1/2023. Newspapers and Magazines will also be available","hours":{"_text":"Wednesday: 14:00 - 16:00","opening":"We 14:00-16:00"},"title":"St Columba's by the Castle Episcopal Church"},"type":"Feature"},
		{"geometry":{"coordinates":[-3.25248,55.90642],"type":"Point"},"properties":{"_source":"warm_welcome","address":"Westgarth Avenue, Edinburgh, Edinburgh Eh13 0bb","description":"Coffee and cake, third Thursday of the month","hours":{},"title":"St Cuthbert’s Episcopal Church"},"type":"Feature"},
		{"geometry":{"coordinates":[-3.25248,55.90642],"type":"Point"},"properties":{"_source":"warm_welcome","address":"Westgarth Avenue, Edinburgh, Edinburgh Eh13 0bb","description":"Coffee and cake, third Thursday of the month","hours":{},"title":"St Cuthbert’s Episcopal Church"},"type":"Feature"},
		{"geometry":{"coordinates":[-3.22791,55.82497],"type":"Point"},"properties":{"_source":"warm_welcome","address":"23 Broomhill Road, Penicuik, Midlothian EH26 9EE","description":"we are currently opening up for a few hours each week for tea, coffee, biscuits and a chat. If there is a demand we will open for longer and consider offeirng a simple soup lunch.","hours":{"_text":"Tuesday: 10:00 - 12:00","opening":"Tu 10:00-12:00"},"title":"St James the Less, Penicuik"},"type":"Feature"},
		{"geometry":{"coordinates":[-3.22791,55.82497],"type":"Point"},"properties":{"_source":"warm_welcome","address":"23 Broomhill Road, Penicuik, Midlothian EH26 9EE","description":"we are currently opening up for a few hours each week for tea, coffee, biscuits and a chat. If there is a demand we will open for longer and consider offeirng a simple soup lunch.","hours":{"_text":"Tuesday: 10:00 - 12:00","opening":"Tu 10:00-12:00"},"title":"St James the Less, Penicuik"},"type":"Feature"},
		{"geometry":{"coordinates":[-3.22826,55.93655],"type":"Point"},"properties":{"_source":"warm_welcome","address":"1 Slateford Road, Edinburgh EH11 1NX","hours":{"_text":"Tuesday: 09:00 - 17:00","opening":"Tu 09:00-17:00"},"title":"St Michael's Parish Church"},"type":"Feature"},
		{"geometry":{"coordinates":[-3.30179,55.94145],"type":"Point"},"properties":{"_source":"warm_welcome","address":"75-79 Glasgow Road, Edinburgh, Midlothian EH12 8LJ","hours":{"_text":"Thursday: 10:00 - 12:00","opening":"Th 10:00-12:00"},"title":"ST THOMAS' CHURCH, EDINBURGH"},"type":"Feature"},
		{"geometry":{"coordinates":[-3.28510,55.94302],"type":"Point"},"properties":{"_source":"warm_welcome","address":"144 St. John's Road, Corstorphine, Edinburgh EH12 8RZ","description":"Open from 01/11/22. All are welcome Cosy Corner is accessible from St. John's Road. A warm room, a warm welcome, and a warm drink awaits you.","hours":{"_text":"Monday: 10:00 - 13:00, Tuesday: 10:00 - 13:00, Thursday: 10:00 - 13:00, Sunday: 10:00 - 13:00","opening":"Mo 10:00-13:00; Tu 10:00-13:00; Th 10:00-13:00; Su 10:00-13:00"},"title":"St. Ninian's Parish Church, Corstorphine, Edinburgh"},"type":"Feature"},
		{"geometry":{"coordinates":[-3.21294,55.95818],"type":"Point"},"properties":{"_source":"warm_spaces","address":"2 Cheyne Street, Edinburgh, Scotland, EH4 1JB","hours":{"_text":"Saturdays &amp; Sundays 3.30pm-6.30pm","opening":"Sa 15:30-18:30; Su 15:30-18:30"},"title":"LifeCare Edinburgh","url":"https://www.lifecare-edinburgh.org.uk"},"type":"Feature"},
		{"geometry":{"coordinates":[-3.17837,55.95843],"type":"Point"},"properties":{"_source":"warm_spaces","address":"12-14 Hillside Crescent, Edinburgh, Scotland, EH7 5EA","hours":{"_text":"Monday-Friday, 10.30am-3pm","opening":"Mo-Fr 10:30-15:00"},"title":"RNIB Hillside Crescent","url":"https://www.rnib.org.uk/nations/scotland/"},"type":"Feature"},
		{"geometry":{"coordinates":[-3.26685,55.94088],"type":"Point"},"properties":{"_source":"warm_spaces","address":"31 Pinkhill, Edinburgh, Scotland, EH12 7FB","hours":{"_text":"Mon, Wed, Fri 11am-3pm ","opening":"Mo 11:00-15:00; We 11:00-15:00; Fr 11:00-15:00"},"title":"Manor Grange Care Home","url":"www.manorgrangecare.co.uk"},"type":"Feature"},
		{"geometry":{"coordinates":[-3.21296,55.95834],"type":"Point"},"properties":{"_source":"warm_spaces","address":"2 Cheyne Street, Edinburgh, Scotland, EH4 1JB","hours":{"_text":"3pm-6pm"},"title":"LifeCare - Edinburgh","url":"https://www.lifecare-edinburgh.org.uk"},"type":"Feature"},
		{"geometry":{"coordinates":[-3.33969,55.88451],"type":"Point"},"properties":{"_source":"edinburgh_council","address":"1 Main Street, Balerno","contact":"Tel: 0131 529 5500; Email: balerno.library@edinburgh.gov.uk","description":"Wheelchair accessible","hours":{"_text":"Monday and Wednesday, 1:00 to 8:00pm; Tuesday and Friday, 10:00am to 5:00pm; Saturday, 10:00am to 2:00pm","opening":"Mo 13:00-20:00; We 13:00-20:00; Tu 10:00-17:00; Fr 10:00-17:00; Sa 10:00-14:00"},"title":"Balerno Library","url":"https://www.edinburgh.gov.uk/directory-record/1229169/balerno-library"},"type":"Feature"},
		{"geometry":{"coordinates":[-3.24845,55.93726],"type":"Point"},"properties":{"_source":"edinburgh_council","address":"173 Balgreen Road, Edinburgh","contact":"Tel: 0131 529 5585; Email: balgreen.library@edinburgh.gov.uk","description":"Wheelchair accessible","hours":{"_text":"Monday and Wednesday, 1:00 to 8:00pm; Tuesday and Friday, 10:00am to 5:00pm; Saturday, 10:00am to 2:00pm","opening":"Mo 13:00-20:00; We 13:00-20:00; Tu 10:00-17:00; Fr 10:00-17:00; Sa 10:00-14:00"},"title":"Balgreen Library","url":"https://www.edinburgh.gov.uk/directory-record/1229170/balgreen-library"},"type":"Feature"},
		{"geometry":{"coordinates":[-3.26117,55.96168],"type":"Point"},"properties":{"_source":"edinburgh_council","address":"56 Hillhouse Road, Edinburgh","contact":"Tel: 0131 529 5595; Email: blackhall.library@edinburgh.gov.uk","description":"Wheelchair accessible","hours":{"_text":"Monday to Wednesday, 10:00am to 8:00pm; Thursday to Saturday, 10:00am to 5:00pm","opening":"Mo-We 10:00-20:00; Th-Sa 10:00-17:00"},"title":"Blackhall Library","url":"https://www.edinburgh.gov.uk/directory-record/1229171/blackhall-library"},"type":"Feature"},
		{"geometry":{"coordinates":[-3.19251,55.94846],"type":"Point"},"properties":{"_source":"edinburgh_council","address":"George IV Bridge, Edinburgh","contact":"Tel: 0131 242 8000; Email: libraries@edinburgh.gov.uk","description":"Wheelchair accessible","hours":{"_text":"Monday to Wednesday, 10:00am to 8:00pm; Thursday to Saturday, 10:00am to 5:00pm","opening":"Mo-We 10:00-20:00; Th-Sa 10:00-17:00"},"title":"Central Library","url":"https://www.edinburgh.gov.uk/directory-record/1229174/central-library"},"type":"Feature"},
		{"geometry":{"coordinates":[-3.25134,55.90675],"type":"Point"},"properties":{"_source":"edinburgh_council","address":"14 Thorburn Road, Edinburgh","contact":"Tel: 0131 529 5603; Email: colinton.library@edinburgh.gov.uk","description":"Wheelchair accessible","hours":{"_text":"Monday and Wednesday, 1:00 to 8:00pm; Tuesday and Friday, 10:00am to 5:00pm; Saturday, 10:00am to 2:00pm","opening":"Mo 13:00-20:00; We 13:00-20:00; Tu 10:00-17:00; Fr 10:00-17:00; Sa 10:00-14:00"},"title":"Colinton Library","url":"https://www.edinburgh.gov.uk/directory-record/1229175/colinton-library"},"type":"Feature"},
		{"geometry":{"coordinates":[-3.28107,55.94074],"type":"Point"},"properties":{"_source":"edinburgh_council","address":"12 Kirk Loan, Edinburgh","contact":"Tel: 0131 529 5506; Email: corstorphine.library@edinburgh.gov.uk","description":"Wheelchair accessible","hours":{"_text":"Monday and Wednesday, 1:00 to 8:00pm; Tuesday and Friday, 10:00am to 5:00pm; Saturday, 10:00am to 2:00pm","opening":"Mo 13:00-20:00; We 13:00-20:00; Tu 10:00-17:00; Fr 10:00-17:00; Sa 10:00-14:00"},"title":"Corstorphine Library","url":"https://www.edinburgh.gov.uk/directory-record/1229176/corstorphine-library"},"type":"Feature"},
		{"geometry":{"coordinates":[-3.31107,55.89610],"type":"Point"},"properties":{"_source":"edinburgh_council","address":"210 Lanark Road West, Edinburgh","contact":"Tel: 0131 529 5609; Email: currie.library@edinburgh.gov.uk","description":"Wheelchair accessible","hours":{"_text":"Monday and Wednesday, 1 :00to 8:00pm; Tuesday, Thursday and Friday, 10:00am to 5:00pm; Saturday, 10:00am to 5:00pm","opening":"Tu 10:00-17:00; Th 10:00-17:00; Fr 10:00-17:00; Sa 10:00-17:00"},"title":"Currie Library","url":"https://www.edinburgh.gov.uk/directory-record/1229178/currie-library"},"type":"Feature"},
		{"geometry":{"coordinates":[-3.28706,55.95540],"type":"Point"},"properties":{"_source":"edinburgh_council","address":"81 Drum Brae Drive, Edinburgh","contact":"Tel: 0131 529 5244; Email: drumbrae.library@edinburgh.gov.uk","description":"Wheelchair accessible","hours":{"_text":"Monday to Wednesday, 10:00am to 8:00pm; Thursday to Saturday, 10:00am to 5:00pm","opening":"Mo-We 10:00-20:00; Th-Sa 10:00-17:00"},"title":"Drumbrae Library Hub","url":"https://www.edinburgh.gov.uk/directory-record/1229179/drumbrae-library-hub"},"type":"Feature"},
		{"geometry":{"coordinates":[-3.21837,55.94008],"type":"Point"},"properties":{"_source":"edinburgh_council","address":"137 Dundee Street, Edinburgh","contact":"Tel: 0131 529 5616; Email: fountainbridge.library@edinburgh.gov.uk","description":"Wheelchair accessible","hours":{"_text":"Monday and Wednesday, 1 :00to 8:00pm; Tuesday, Thursday and Friday, 10:00am to 5:00pm; Saturday, 10:00am to 5:00pm","opening":"Tu 10:00-17:00; Th 10:00-17:00; Fr 10:00-17:00; Sa 10:00-17:00"},"title":"Fountainbridge Library","url":"https://www.edinburgh.gov.uk/directory-record/1229181/fountainbridge-library"},"type":"Feature"},
		{"geometry":{"coordinates":[-3.40154,55.95527],"type":"Point"},"properties":{"_source":"edinburgh_council","address":"16 Station Road, Kirkliston","contact":"Tel: 0131 529 5510; Email: kirkliston.library@edinburgh.gov.uk","description":"Wheelchair accessible","hours":{"_text":"Monday and Wednesday, 1:00to 8:00pm; Tuesday and Friday, 10:00am to 5:00pm; Saturday,10:00am to 2:00pm","opening":"Tu 10:00-17:00; Fr 10:00-17:00; Sa 10:00-14:00"},"title":"Kirkliston Library","url":"https://www.edinburgh.gov.uk/directory-record/1229184/kirkliston-library"},"type":"Feature"},
		{"geometry":{"coordinates":[-3.18125,55.96129],"type":"Point"},"properties":{"_source":"edinburgh_council","address":"2 McDonald Road, Edinburgh","contact":"Tel: 0131 529 5636; Email: mcdonaldroad.library@edinburgh.gov.uk","description":"Wheelchair accessible","hours":{"_text":"Monday to Wednesday, 10:00am to 8:00pm; Thursday to Saturday, 10:00am to 5:00pm","opening":"Mo-We 10:00-20:00; Th-Sa 10:00-17:00"},"title":"McDonald Road Library","url":"https://www.edinburgh.gov.uk/directory-record/1229186/mcdonald-road-library"},"type":"Feature"},
		{"geometry":{"coordinates":[-3.20996,55.92891],"type":"Point"},"properties":{"_source":"edinburgh_council","address":"184 Morningside Road, Edinburgh","contact":"Tel: 0131 529 5654; Email: morningside.library@edinburgh.gov.uk","description":"Wheelchair accessible","hours":{"_text":"Monday to Wednesday, 10:00am to 8:00pm; Thursday to Saturday, 10:00am to 5:00pm","opening":"Mo-We 10:00-20:00; Th-Sa 10:00-17:00"},"title":"Morningside Library","url":"https://www.edinburgh.gov.uk/directory-record/1229189/morningside-library"},"type":"Feature"},
		{"geometry":{"coordinates":[-3.17981,55.93219],"type":"Point"},"properties":{"_source":"edinburgh_council","address":"17-21 Fountainhall Road, Edinburgh","contact":"Tel: 0131 529 5536; Email: newington.library@edinburgh.gov.uk","description":"Wheelchair accessible","hours":{"_text":"Monday to Wednesday, 10:00am to 8:00pm; Thursday to Saturday, 10:00am to 5:00pm","opening":"Mo-We 10:00-20:00; Th-Sa 10:00-17:00"},"title":"Newington Library","url":"https://www.edinburgh.gov.uk/directory-record/1229192/newington-library"},"type":"Feature"},
		{"geometry":{"coordinates":[-3.22356,55.90524],"type":"Point"},"properties":{"_source":"edinburgh_council","address":"343 Oxgangs Road North, Edinburgh","contact":"Tel: 0131 529 5549; Email: oxgangs.library@edinburgh.gov.uk","description":"Wheelchair accessible","hours":{"_text":"Monday to Wednesday, 10:00am to 8:00pm; Thursday to Saturday, 10:00am to 5:00pm","opening":"Mo-We 10:00-20:00; Th-Sa 10:00-17:00"},"title":"Oxgangs Library","url":"https://www.edinburgh.gov.uk/directory-record/1229193/oxgangs-library"},"type":"Feature"},
		{"geometry":{"coordinates":[-3.28785,55.92021],"type":"Point"},"properties":{"_source":"edinburgh_council","address":"Gate 55, 55 Sighthill Road, Edinburgh","contact":"Tel: 0131 529 5566; Email: sighthill.library@edinburgh.gov.uk","description":"Wheelchair accessible","hours":{"_text":"Monday and Wednesday, 1:00 to 8:00pm; Tuesday and Friday, 10:00am to 5:00pm; Saturday, 10:00am to 2:00pm","opening":"Mo 13:00-20:00; We 13:00-20:00; Tu 10:00-17:00; Fr 10:00-17:00; Sa 10:00-14:00"},"title":"Sighthill Library","url":"https://www.edinburgh.gov.uk/directory-record/1229198/sighthill-library"},"type":"Feature"},
		{"geometry":{"coordinates":[-3.20786,55.95886],"type":"Point"},"properties":{"_source":"edinburgh_council","address":"11 Hamilton Place, Edinburgh","contact":"Tel: 0131 529 5665; Email: stockbridge.library@edinburgh.gov.uk","description":"Wheelchair accessible","hours":{"_text":"Monday and Wednesday, 1 :00to 8:00pm; Tuesday, Thursday and Friday, 10:00am to 5:00pm; Saturday, 10:00am to 5:00pm","opening":"Tu 10:00-17:00; Th 10:00-17:00; Fr 10:00-17:00; Sa 10:00-17:00"},"title":"Stockbridge Library","url":"https://www.edinburgh.gov.uk/directory-record/1229201/stockbridge-library"},"type":"Feature"},
		{"geometry":{"coordinates":[-3.28504,55.91628],"type":"Point"},"properties":{"_source":"edinburgh_council","address":"1 West Side Plaza, Edinburgh","contact":"Tel: 0131 529 5667; Email: westerhailes.library@edinburgh.gov.uk","description":"Wheelchair accessible","hours":{"_text":"Monday to Wednesday, 10:00am to 8:00pm; Thursday to Saturday, 10:00am to 5:00pm","opening":"Mo-We 10:00-20:00; Th-Sa 10:00-17:00"},"title":"Wester Hailes Library","url":"https://www.edinburgh.gov.uk/directory-record/1229202/wester-hailes-library"},"type":"Feature"},
		{"geometry":{"coordinates":[-3.38427,55.92230],"type":"Point"},"properties":{"_source":"edinburgh_council","address":"6 School Wynd, Ratho","contact":"Tel: 0131 333 5297; Email: ratho.library@edinburgh.gov.uk","description":"Wheelchair accessible","hours":{"_text":"Monday and Wednesday, 2.30pm to 7:00pm; Tuesday, Thursday and Friday; 10.30am to 3:00pm","opening":"Mo 14:30-19:00; We 14:30-19:00; Fr 10:30-15:00"},"title":"Ratho Library","url":"https://www.edinburgh.gov.uk/directory-record/1229196/ratho-library"},"type":"Feature"},
		{"geometry":{"coordinates":[-3.19175,55.94860],"type":"Point"},"properties":{"_source":"edinburgh_council","address":"George IV Bridge, Edinburgh","contact":"Tel: 0131 623 3700; Email: enquiries@natlibscot.libanswers.com","description":"Wheelchair accessible","hours":{"_text":"Mon, 9:30am to 7:00pm; Tue, 9:30am to 7:00pm; Wed, 9:30am to 7:00pm; Thur, 9:30am to 7:00pm; Fri,:30am to 7pm; Sat, 9:30am to 7pm; Sun, Closed. Festive hours listed online: https://www.nls.uk/using-the-library/opening-hours/#holidays","opening":"Mo 09:30-19:00; Tu 09:30-19:00; We 09:30-19:00; Th 09:30-19:00; Fr 00:30-19:00; Sa 09:30-19:00"},"title":"National Library of Scotland"},"type":"Feature"},
		{"geometry":{"coordinates":[-3.18987,55.95101],"type":"Point"},"properties":{"_source":"edinburgh_council","address":"2 Market Street, Edinburgh","contact":"Tel: NA; Email: museumsandgalleries@edinburgh.gov.uk","description":"Wheelchair Access, Hearing Loop","hours":{"_text":"Daily, 10:00am to 4.30pm","opening":"Mo-Su 10:00-16:30"},"title":"City Art Centre"},"type":"Feature"},
		{"geometry":{"coordinates":[-3.17942,55.95139],"type":"Point"},"properties":{"_source":"edinburgh_council","address":"142-146 Canongate, Edinburgh","contact":"Tel: NA; Email: museumsandgalleries@edinburgh.gov.uk","description":"Toilet Facilities, Baby Changing Facilities, Access to WiFi","hours":{"_text":"Daily, 10:00am to 4.30pm","opening":"Mo-Su 10:00-16:30"},"title":"Museum of Edinburgh"},"type":"Feature"},
		{"geometry":{"coordinates":[-3.28630,55.91619],"type":"Point"},"properties":{"_source":"edinburgh_council","contact":"Tel: ; Email:","hours":{},"title":"South West Locality Office"},"type":"Feature"},
		{"geometry":{"coordinates":[-3.18993,55.94996],"type":"Point"},"properties":{"_source":"edinburgh_council","contact":"Tel: ; Email:","hours":{},"title":"Council Hub"},"type":"Feature"},
		{"geometry":{"coordinates":[-3.24782,55.96971],"type":"Point"},"properties":{"_source":"edinburgh_council","contact":"Tel: ; Email:","hours":{},"title":"North West Locality Office"},"type":"Feature"},
		{"geometry":{"coordinates":[-3.28152,55.94193],"type":"Point"},"properties":{"_source":"edinburgh_council","address":"5 Kirk Loan, Corstorphine, Edinburgh","contact":"Tel: 0758 065 9676; Email: admin@ccchub.online","description":"Wheelchair Access, Hearing Loop, Toilet Facilities, Baby Changing Facilities, Access to WiFi, Phone and Device Charging","hours":{"_text":"Monday to Friday, 10:00am to 3:00pm","opening":"Mo-Fr 10:00-15:00"},"title":"Corstorphine Community Centre"},"type":"Feature"},
		{"geometry":{"coordinates":[-3.26066,55.97047],"type":"Point"},"properties":{"_source":"edinburgh_council","address":"7 Muirhouse Medway, Edinburgh","contact":"Tel: 0131 467 3578; Email: pauline@lift-edinburgh.com","description":"Wheelchair Access, Wheelchair / Mobility Charging (normal socket), Toilet Facilities, Baby Changing Facilities, Access to WiFi, Phone and Device Charging","hours":{"_text":"Monday, 8:30 to 7:00pm; Tuesday, 8:30 to 8:00pm; Wednesday, 8:30 to 5:00pm, Thursday, 8:30 to 5:30pm, Friday, 8:30 to 4:00pm","opening":"Mo 08:30-19:00; Tu 08:30-20:00; We 08:30-17:00; Th 08:30-17:30; Fr 08:30-16:00"},"title":"LIFT at Muirhouse Millennium Community Centre"},"type":"Feature"},
		{"geometry":{"coordinates":[-3.24515,55.97165],"type":"Point"},"properties":{"_source":"edinburgh_council","address":"3 West Pilton Park, Edinburgh","contact":"Tel: 0131 315 4466; Email: pepequalities@btconnect.com","description":"Wheelchair Access, Hearing Loop, Toilet Facilities, Baby Changing Facilities, Access to WiFi, Phone and Device Charging","hours":{"_text":"Monday to Friday, 8:30am to 3:30pm, Saturday to Sunday, 11:00am to 4:00pm","opening":"Mo-Fr 08:30-15:30; Sa-Su 11:00-16:00"},"title":"Pilton Equalities Project"},"type":"Feature"},
		{"geometry":{"coordinates":[-3.28946,55.96004],"type":"Point"},"properties":{"_source":"edinburgh_council","address":"6 Parkgrove Street\nEdinburgh","contact":"Tel: NA; Email: munrocentre2@gmail.com","description":"Wheelchair Access Wheelchair/Mobility Charging (normal socket)","hours":{"_text":"Monday and Tuesday, 10 am to 12 midday","opening":"Mo 10:00-12:00; Tu 10:00-12:00"},"title":"The Munro Community Centre"},"type":"Feature"},
		{"geometry":{"coordinates":[-3.24229,55.97062],"type":"Point"},"properties":{"_source":"edinburgh_council","address":"22-24 Ferry Road Drive","contact":"Tel: 0131 476 7741; Email: admin@freshstartweb.org.uk","description":"Wheelchair Access Wheelchair/Mobility Charging (normal socket)","hours":{"_text":"Monday to Thursday, 9am to 4:30pm; Friday 9am to 3pm","opening":"Mo-Th 09:00-16:30; Fr 09:00-15:00"},"title":"Fresh Start"},"type":"Feature"},
		{"geometry":{"coordinates":[-3.28721,55.95505],"type":"Point"},"properties":{"_source":"edinburgh_council","address":"6 Rannoch Terrace, Edinburgh","contact":"Tel: 0131 339 3931; Email: CLD-Rannoch@ea.edin.sch.uk","description":"Wheelchair Access Wheelchair/Mobility Charging (normal socket)","hours":{"_text":"NA"},"title":"Rannoch Community Centre"},"type":"Feature"},
		{"geometry":{"coordinates":[-3.17451,55.93816],"type":"Point"},"properties":{"_source":"edinburgh_council","address":"2 Salisbury Road\nEdinburgh","contact":"Tel: NA; Email: office@salisburycentre.org","description":"Wheelchair Access Wheelchair/Mobility Charging (normal socket)","hours":{"_text":"Tuesday, Thursday and Friday, 11am to 1pm","opening":"Tu 11:00-13:00; Th 11:00-13:00; Fr 11:00-13:00"},"title":"The Salisbury Centre"},"type":"Feature"},
		{"geometry":{"coordinates":[-3.24178,55.97284],"type":"Point"},"properties":{"_source":"edinburgh_council","address":"The Greenhouse, 33 West Pilton Brae, Edinburgh","contact":"Tel: 0131 332 9815; Email: info@pycp.co.uk","description":"Wheelchair Access, Toilet facilities.","hours":{"_text":"Free open access activity clubs for children and young people: Tue, P5-7 Club, 3:30 to 5:00pm; S1+ Girls Group, 6:00pm to 7:30pm; Wed, S1+ Drop-in, 6:30 to 8:00pm, Fri, P1-2 Fun Club, 2 to 3pm, P3-4 Club, 3:30 to 4:30pm , S1+ Drop-in, 6:30 to 8:00pm","opening":"Fr 18:00-20:00"},"title":"Pilton Youth and Children’s Project"},"type":"Feature"},
		{"geometry":{"coordinates":[-3.19779,55.94769],"type":"Point"},"properties":{"_source":"edinburgh_council","address":"14-16 Grassmarket, Edinburgh","contact":"Tel: NA; Email: dance@dancebase.co.uk","description":"Wheelchair Access, Toilet facilities.","hours":{"_text":"Monday to Friday, 10:00am to 9:00pm; Saturday, 1:30pm to 5:30pm","opening":"Mo-Fr 10:00-21:00; Sa 13:30-17:30"},"title":"Dance Base Winter Warmers"},"type":"Feature"},
		{"geometry":{"coordinates":[-3.25133,55.96991],"type":"Point"},"properties":{"_source":"edinburgh_council","address":"31-33 Pennywell Road Edinburgh,","contact":"Tel: 0131 332 8773; Email: Cara.babineau@communityrenewal.org.uk, Tere.Burns@communityrenewal.org.uk","description":"Wheelchair Access, Toilet facilities including disabled access and rails.","hours":{"_text":"Monday, 4:00 to 6:00pm","opening":"Mo 16:00-18:00"},"title":"Community Renewal, Pennywell"},"type":"Feature"},
		{"geometry":{"coordinates":[-3.17840,55.95838],"type":"Point"},"properties":{"_source":"edinburgh_council","address":"12 - 14 Hillside Crescent, Edinburgh","contact":"Tel: 0131 652 3140; Email: scotlandcommunityconnection@rnib.org.uk","description":"Wheelchair Access, Wheelchair / Mobility Charging (normal socket),","hours":{"_text":"Monday to Friday 10:30am - 3:30pm","opening":"Mo-Fr 10:30-15:30"},"title":"Royal National Institute of Blind People"},"type":"Feature"},
		{"geometry":{"coordinates":[-3.18239,55.94722],"type":"Point"},"properties":{"_source":"edinburgh_council","address":"The Salvation Army, 1 East Adam Street, Edinburgh","contact":"Tel: 0131 667 4313; Email: edinburgh.city@salvationarmy.org.uk","description":"NA","hours":{"_text":"NA"},"title":"The Salvation Army"},"type":"Feature"},
		{"geometry":{"coordinates":[-3.18414,55.94429],"type":"Point"},"properties":{"_source":"edinburgh_council","address":"Southside Community Centre, 117 Nicolson Street, Edinburgh","contact":"Tel: 0131 667 0484; Email: NA","description":"Wheelchair Access, Wheelchair/Mobility Charging (normal socket)","hours":{"_text":"Wednesday & Thursday, 12:30 to 4pm","opening":"We 12:30-16:00; Th 12:30-16:00"},"title":"Coorie-In Café"},"type":"Feature"},
		{"geometry":{"coordinates":[-3.24486,55.97184],"type":"Point"},"properties":{"_source":"edinburgh_council","address":"C/O West Pilton Neighbourhood Centre, 19 West Pilton Grove, Edinburgh","contact":"Tel: 0131 315 2151; Email: admin@northedinburgharts.co.uk","description":"Wheelchair Access\nWheelchair / Mobility Charging (normal socket)","hours":{"_text":"Monday to Friday, 10:00am to 1:00pm","opening":"Mo-Fr 10:00-13:00"},"title":"North Edinburgh Arts"},"type":"Feature"},
		{"geometry":{"coordinates":[-3.21288,55.95825],"type":"Point"},"properties":{"_source":"edinburgh_council","address":"2 Cheyne Street, Edinburgh","contact":"Tel: NA; Email: enquiries@lifecare-edinburgh.org.uk","description":"Wheelchair Access Wheelchair/Mobility Charging (normal socket)","hours":{"_text":"Saturdays and Sundays, 3.30-6.30pm","opening":"Sa 15:03-18:30; Su 15:03-18:30"},"title":"LifeCare Centre"},"type":"Feature"},
		{"geometry":{"coordinates":[-3.19733,55.94630],"type":"Point"},"properties":{"_source":"edinburgh_council","address":"11-15 Vennel, Edinburgh","contact":"Tel: 0131 229 1797; Email: contact@6vt.info","description":"Wheelchair Access Wheelchair/Mobility, Charging (normal socket)","hours":{"_text":"Monday, Wednesday and Friday 6 to 10pm","opening":"Mo 18:00-22:00; We 18:00-22:00; Fr 18:00-22:00"},"title":"6VT – Edinburgh City Youth Café"},"type":"Feature"},
		{"geometry":{"coordinates":[-3.17267,55.97018],"type":"Point"},"properties":{"_source":"edinburgh_council","address":"26 Leith Walk, Edinburgh","contact":"Tel: ; Email: yourhome@rightthere.org","description":"Wheelchair Access Wheelchair/Mobility, Charging (normal socket)","hours":{"_text":"Monday to Friday, 10:00am to 3:00pm","opening":"Mo-Fr 10:00-15:00"},"title":"Right There"},"type":"Feature"},
		{"geometry":{"coordinates":[-3.29874,55.91836],"type":"Point"},"properties":{"_source":"edinburgh_council","address":"2 Calder Crescent, Edinburgh","contact":"Tel: ; Email: gerry@bridge8hub.co.uk","hours":{"_text":"Monday, 10:00am to 12:30pm","opening":"Mo 10:00-12:30"},"title":"Bridge 8 Hub"},"type":"Feature"},
		{"geometry":{"coordinates":[-3.24667,55.96194],"type":"Point"},"properties":{"_source":"edinburgh_council","address":"67b Groathill road north, Edinburgh","contact":"Tel: 0131 315 4989; Email: info@drylawnc.org.uk","description":"Wheelchair Access Wheelchair/Mobility, Charging (normal socket)","hours":{"_text":"Monday to Sunday, 9:00am to 5:00pm","opening":"Mo-Su 09:00-17:00"},"title":"Drylaw Neighbourhood centre"},"type":"Feature"},
		{"geometry":{"coordinates":[-3.18222,55.94502],"type":"Point"},"properties":{"_source":"edinburgh_council","address":"3 Gilmour Street, Edinburgh","contact":"Tel: 0131 667 9407; Email: edinburghhub@hillcrestfutures.org.uk","description":"No disabled access and no disabled toilet available","hours":{"_text":"Monday, 11:00am to 4:00pm; Tuesday to Friday 10:00am to 4:00pm","opening":"Tu-Fr 10:00-16:00; Mo 11:00-16:00"},"title":"Edinburgh Futures Resource Hub"},"type":"Feature"}
	]
}
