{
	"type": "FeatureCollection",
	"features": [
		{"geometry":{"coordinates":[-3.22450,54.11294],"type":"Point"},"properties":{"_source":"warm_welcome","address":"69-77 School Street, Barrow in Furness, Cumbria La14 1ej","description":"Drop in Tuesdays between 11 and 13 to our social activity space","hours":{"_text":"Tuesday: 11:00 - 13:00","opening":"Tu 11:00-13:00"},"title":"Barrow and District Disability Association"},"type":"Feature"},
		{"geometry":{"coordinates":[-3.22544,54.10293],"type":"Point"},"properties":{"_source":"warm_welcome","address":"Barrow Island Community & Sports Trust Facility, BARROW-IN-FURNESS, Cumbria La14 2sb","description":"Open from Selected Mondays and Fridays from Mid-Nov to End-Marchs. All welcome Selected Mondays and Fridays from Mid-Nov to End-Marchs","hours":{"_text":"Monday: 10:00 - 13:00, Wednesday: 09:00 - 12:00, Friday: 15:00 - 17:00","opening":"Mo 10:00-13:00; We 09:00-12:00; Fr 15:00-17:00"},"title":"Barrow Island Community & Sports Trust ltd"},"type":"Feature"},
		{"geometry":{"coordinates":[-3.20387,54.12474],"type":"Point"},"properties":{"_source":"warm_welcome","address":"Beacon Hill Methodist church, Cumbria LA13 9LH","description":"The church is open fortnightly on Mondays from 2-4, and last Tuesday of the month 2-4, in addition to Sundays at 9:30. Toddlers meets weekly on Wednesdays 1:30-2:45. Refreshments. All are welcome. Accessible and inclusive.","title":"Beacon Hill Methodist Church"},"type":"Feature"},
		{"geometry":{"coordinates":[-3.18079,54.15635],"type":"Point"},"properties":{"_source":"warm_welcome","address":"Market Street, Dalton-in-Furness, Cumbria LA15 8RQ","description":"Open from 4/10/2023.","hours":{"_text":"Wednesday: 14:00 - 15:30","opening":"We 14:00-15:30"},"title":"Dalton Community Church"},"type":"Feature"},
		{"geometry":{"coordinates":[-3.22599,54.10960],"type":"Point"},"properties":{"_source":"warm_welcome","address":"Dalton Road, BARROW-IN-FURNESS, CUMBRIA LA14 2EX","description":"The space is open to all","hours":{"_text":"Friday: 12:30 - 15:00","opening":"Fr 12:30-15:00"},"title":"EMMANUEL COMMUNITY CHURCH"},"type":"Feature"},
		{"geometry":{"coordinates":[-3.22609,54.10971],"type":"Point"},"properties":{"_source":"warm_welcome","address":"2 Dalton Road, Barrow-in-furness, Cumbria LA14 2HD","description":"SPACE OPENING ON 10th November 2023** A large room with comfortable sofas, tables and chairs for reading, playing games or just sitting and chatting. We have a dedicated space for babies/small children with toys","hours":{"_text":"Friday: 12:30 - 15:00","opening":"Fr 12:30-15:00"},"title":"Emmanuel Community Church"},"type":"Feature"},
		{"geometry":{"coordinates":[-3.23034,54.11788],"type":"Point"},"properties":{"_source":"warm_welcome","address":"Hartington St Methodist church, Cumbria LA14 5SR","description":"The church is open to all: Monday – Parent and Toddler group, 1.00 – 2.30 pm Tuesday – Knit and Natter, 10.00 – 11.30 am Saturday- Messy Church, every 4th Saturday September – April, 3.00 – 5.00 pm","title":"Hartington St Methodist church"},"type":"Feature"},
		{"geometry":{"coordinates":[-3.21786,54.11161],"type":"Point"},"properties":{"_source":"warm_welcome","address":"Ramsden Street United Reformed Church, Barrow-in-Furness, Cumbria LA14 2BU","description":"The space is open to all to join us for tea or coffee and a chat in a warm space","hours":{"_text":"Friday: 10:30 - 11:30","opening":"Fr 10:30-11:30"},"title":"Ramsden Street United Reformed Church"},"type":"Feature"},
		{"geometry":{"coordinates":[-3.25155,54.10420],"type":"Point"},"properties":{"_source":"warm_welcome","address":"Spring Mount Community Hall, Walney, Barrow-in-Furness, , Cumbria LA14 3AR","description":"All ages welcome to sessions (other than toddler sessions). Our warm space drop in is on Saturday 4-6pm. Saturday community meal and activities for all including children. We also have toddler group on a Thursday morning 10-11.30 Youth clubs Tuesday-Friday nights.","hours":{"_text":"Monday: 16:00 - 18:00, Thursday: 10:00 - 11:30, Saturday: 17:30 - 19:00","opening":"Mo 16:00-18:00; Th 10:00-11:30; Sa 17:30-19:00"},"title":"Saturday Night On Walney"},"type":"Feature"},
		{"geometry":{"coordinates":[-3.21754,54.12109],"type":"Point"},"properties":{"_source":"warm_welcome","address":"19 Carlton Avenue, Barrow in Furness, Cumbria LA13 9AT","description":"There are a number of Methodist and URC churches across Barrow and Furness. All are welcome. See local website for opening times during the week, and on Sundays.","title":"South West Cumbria United Area"},"type":"Feature"},
		{"geometry":{"coordinates":[-3.23262,54.11884],"type":"Point"},"properties":{"_source":"warm_welcome","address":"Blake Street, Barrow-in-Furness, Cumbria LA14 5SN","description":"We offer a friendly welcome to everyone. We have craft activities on the 1st Thursday of each month. We have some activities or the chance to sit and and chat with others","hours":{"_text":"Thursday: 13:30 - 16:00","opening":"Th 13:30-16:00"},"title":"St James Church"},"type":"Feature"},
		{"geometry":{"coordinates":[-3.21220,54.11635],"type":"Point"},"properties":{"_source":"warm_welcome","address":"Park Leisure Centre, Cumbria LA13 9DT","description":"In our café, offering soup, hot drink, Wi-Fi, board games and hot showers This is available tues, wed and thur 10.00-14.00","hours":{"_text":"Tuesday: 10:00 - 14:00, Wednesday: 10:00 - 14:00, Thursday: 10:00 - 14:00","opening":"Tu 10:00-14:00; We 10:00-14:00; Th 10:00-14:00"},"title":"Winter Warmer"},"type":"Feature"},
		{"geometry":{"coordinates":[-3.24628,54.11025],"type":"Point"},"properties":{"_source":"warm_spaces","address":"Warren Street, Barrow-in-Furness, England, LA14 3QY, United Kingdom","description":"Free Food/Drink, Device Charging, People to chat to, Space to work, Wheelchair Accessible, Toilets, Accessible Toilet, Reading material, jigsaws","hours":{"_text":"Tuesday 2pm-4pm","opening":"Tu 14:00-16:00"},"title":"Vickerstown Methodist Church","url":"https://swcua.uk/churches/vickerstown"},"type":"Feature"},
		{"geometry":{"coordinates":[-3.18194,54.15796],"type":"Point"},"properties":{"_source":"warm_spaces","address":"Chapel Street, Dalton-in-Furness, England, LA15 8DA, United Kingdom","description":"People to chat to, Space to work, Food/Drink for sale, Wheelchair Accessible, Toilets, Accessible Toilet, Parking, Child Friendly","hours":{"_text":"Monday-Friday 7.30am-7.30pm; Sat 8.30am-4.30pm &amp; Sunday 9am-5pm; Cafe Monday-Friday 9am-4pm; Sat 8.30am-1pm; Sunday 10am-2pm","opening":"Mo-Fr 07:30-19:30; Mo-Fr 09:00-16:00; Sa 08:30-16:30; Su 09:00-17:00; Sa 08:30-13:00; Su 10:00-14:00"},"title":"Dalton Leisure Centre","url":"https://www.daltonleisurecentre.co.uk"},"type":"Feature"},
		{"geometry":{"coordinates":[-3.23259,54.13773],"type":"Point"},"properties":{"_source":"warm_spaces","address":"Millstone Avenue, Barrow-in-Furness, England, LA14 4BP, United Kingdom","description":"Free Food/Drink, Free Wi-Fi, Device Charging, Advice, People to chat to, Space to work, Wheelchair Accessible, Toilets, Accessible Toilet, Parking, Child Friendly, access to iPads","hours":{"_text":"Monday 9:30am-11am &amp; 5pm-6:30pm","opening":"Mo 09:30-11:00"},"title":"Ormsgill Community Centre","url":"https://m.facebook.com/Ormsgill-Stronger-Together-348227929844949/"},"type":"Feature"},
		{"geometry":{"coordinates":[-3.24947,54.10577],"type":"Point"},"properties":{"_source":"warm_spaces","address":"Church Lane, Barrow-in-Furness, England, LA14, United Kingdom","description":"Free Food/Drink, People to chat to, Food/Drink for sale, Wheelchair Accessible, Toilets, Accessible Toilet, Parking, Child Friendly","hours":{"_text":"Wednesday 12:15pm-3pm","opening":"We 12:15-15:00"},"title":"Warm Space @ St. Mary's","url":"http://www.walneyparishchurch.co.uk"},"type":"Feature"},
		{"geometry":{"coordinates":[-3.22449,54.11558],"type":"Point"},"properties":{"_source":"warm_spaces","address":"St Marks Church, Buccleuch Street, Barrow-in-Furness, England, LA14 1BZ, United Kingdom","description":"Free Food/Drink, Device Charging, Advice, People to chat to, Space to work, Activities, table top games, Pool table, hoping to purchase Table tennis table, crafts,free clothes and accessories.","hours":{"_text":"Monday-Thursday, 9:30am-12pm","opening":"Mo-Th 09:30-12:00"},"title":"St Marks Church","url":"https://www.stmarksbarrow.org.uk"},"type":"Feature"},
		{"geometry":{"coordinates":[-3.22883,54.10436],"type":"Point"},"properties":{"_source":"warm_spaces","address":"Bram Longstaffe Nursery &amp; Community Hub, Farm Street, Barrow-in-Furness, England, LA14 2RX, United Kingdom","description":"Free Food/Drink, Free Wi-Fi, Device Charging, People to chat to, Space to work","hours":{"_text":"Wednesday &amp; Friday 9.30am-1.30pm","opening":"We 09:30-13:30; Fr 09:30-13:30"},"title":"Bram Longstaffe Nursery &amp; Community Hub","url":"https://www.friendsofbram.com"},"type":"Feature"}
	]
}
