{
	"type": "FeatureCollection",
	"features": [
		{"geometry":{"coordinates":[-3.20330,54.12437],"type":"Point"},"properties":{"_source":"warm_welcome","address":"Holyoake Avenue, Barrow-in-Furness, Cumbria LA13 9LH","description":"Open from This coffee morning takes place on the last Thursday every month.","hours":{"_text":"Thursday: 10:00 - 11:30 / - Monthly","opening":"Th 10:00-11:30"},"title":"Beacon Hill Methodist Church"},"type":"Feature"},
		{"geometry":{"coordinates":[-3.18079,54.15635],"type":"Point"},"properties":{"_source":"warm_welcome","address":"Market Street , Dalton-in-Furness, Cumbria LA15 8RQ","description":"Open from 26/10/2022.","hours":{"_text":"Wednesday: 14:00 - 15:30","opening":"We 14:00-15:30"},"title":"Dalton Community Church, Dalton-in-Furness, Cumbria"},"type":"Feature"},
		{"geometry":{"coordinates":[-3.22609,54.10971],"type":"Point"},"properties":{"_source":"warm_welcome","address":"2 Dalton Road, Barrow-in-furness, Cumbria LA14 2HD","description":"We have a dedicated space for babies/small children with toys","hours":{"_text":"Friday: 13:00 - 16:00","opening":"Fr 13:00-16:00"},"title":"Emmanuel Community Church"},"type":"Feature"},
		{"geometry":{"coordinates":[-3.21960,54.11109],"type":"Point"},"properties":{"_source":"warm_welcome","address":"100 Ramsden St , Barrow, Cumbria La14 2bt","hours":{"_text":"Monday: 09:00 - 17:00, Tuesday: 09:00 - 17:00, Wednesday: 10:00 - 17:00, Thursday: 10:00 - 17:00, Friday: 09:00 - 17:00, Saturday: 09:30 - 16:00, Sunday: 10:00 - 16:30","opening":"Mo 09:00-17:00; Tu 09:00-17:00; We 10:00-17:00; Th 10:00-17:00; Fr 09:00-17:00; Sa 09:30-16:00; Su 10:00-16:30"},"title":"One Place"},"type":"Feature"},
		{"geometry":{"coordinates":[-3.21754,54.12109],"type":"Point"},"properties":{"_source":"warm_welcome","address":"19 Carlton Avenue , Barrow in Furness , Cumbria LA13 9AT","description":"There are a number of Methodist and URC churches across Barrow and Furness. All are welcome. See local website for opening times during the week","hours":{"_text":"Sunday: 10:00 - 12:00","opening":"Su 10:00-12:00"},"title":"South West Cumbria United Area"},"type":"Feature"},
		{"geometry":{"coordinates":[-3.23544,54.11760],"type":"Point"},"properties":{"_source":"warm_welcome","address":"Blake Street, Barrow-in-Furness, Cumbria LA14 1NY","description":"We offer a friendly space for everyone. We offer some activities, or the chance to sit and and chat with others","hours":{"_text":"Thursday: 13:00 - 16:00","opening":"Th 13:00-16:00"},"title":"St James Church"},"type":"Feature"},
		{"geometry":{"coordinates":[-3.22454,54.11527],"type":"Point"},"properties":{"_source":"warm_welcome","address":"St Marks Church, Buccleuch Street , Barrow-in-Furness, Cumbria LA141BZ","hours":{"_text":"Monday: 9:30 - 12:00, Tuesday: 9:30 - 12:00, Wednesday: 9:30 - 12:00, Thursday: 9:30 - 12:00, Sunday: 10:00 - 12:00","opening":"Mo 09:30-12:00; Tu 09:30-12:00; We 09:30-12:00; Th 09:30-12:00; Su 10:00-12:00"},"title":"St Marks church"},"type":"Feature"},
		{"geometry":{"coordinates":[-3.22816,54.11589],"type":"Point"},"properties":{"_source":"warm_welcome","address":"The Salvation Army, Abbey Road, , Barrow-in-Furness, Cumbria LA14 5UD","description":"Pasties and peas served on Wednesdays from 12-1pm. Free cuppa Soup, fruit, hot and cold drinks available.","hours":{"_text":"Tuesday: 10:00 - 2:00 / -, Wednesday: 10:00 - 2:00 / -, Thursday: 10:00 - 2:00 / -","opening":"Tu 10:00-02:00; We 10:00-02:00; Th 10:00-02:00"},"title":"The Salvation Army in Barrow"},"type":"Feature"},
		{"geometry":{"coordinates":[-3.22681,54.11379],"type":"Point"},"properties":{"_source":"warm_welcome","address":"67-69 Cavendish Street, Barrow-in-Furness , Cumbria LA14 1QD","description":"We welcome everyone, but anyone struggling with a visual impairment will be able to learn more information about their condition and receive specialist advice from our support team","hours":{"_text":"Monday: 09:30 - 13:00, Wednesday: 09:30 - 13:00","opening":"Mo 09:30-13:00; We 09:30-13:00"},"title":"Vision Support Barrow & District"},"type":"Feature"},
		{"geometry":{"coordinates":[-3.25130,54.10401],"type":"Point"},"properties":{"_source":"warm_welcome","address":"Spring Mount Walney Community Hall, Amphitrite street, Walney, Barrow-in-Furness, , Cumbria LA14 3AR","description":"All ages welcome to sessions (other than toddler sessions). Monday and Saturday community meal and activities for children. We also have toddler groups Tuesday and Thursday morning 10-11.30","hours":{"_text":"Monday: 16:00 - 18:00 / -, Wednesday: 09:00 - 12:00 / -, Saturday: 16:30 - 19:30 / -","opening":"Mo 16:00-18:00; We 09:00-12:00; Sa 16:30-19:30"},"title":"Walney Community Trust"},"type":"Feature"},
		{"geometry":{"coordinates":[-3.24628,54.11025],"type":"Point"},"properties":{"_source":"warm_spaces","address":"Warren Street, Barrow-in-Furness, England, LA14 3QY","hours":{"_text":"Tuesday 2pm-4pm","opening":"Tu 14:00-16:00"},"title":"Vickerstown Methodist Church","url":"https://swcua.uk/churches/vickerstown"},"type":"Feature"},
		{"geometry":{"coordinates":[-3.18194,54.15796],"type":"Point"},"properties":{"_source":"warm_spaces","address":"Chapel Street, Dalton-in-Furness, England, LA15 8DA","hours":{"_text":"Monday-Friday 7.30am-7.30pm; Sat 8.30am-4.30pm &amp; Sunday 9am-5pm; Cafe Monday-Friday 9am-4pm; Sat 8.30am-1pm; Sunday 10am-2pm","opening":"Mo-Fr 07:30-19:30; Mo-Fr 09:00-16:00; Sa 08:30-16:30; Su 09:00-17:00; Sa 08:30-13:00; Su 10:00-14:00"},"title":"Dalton Leisure Centre","url":"https://www.daltonleisurecentre.co.uk"},"type":"Feature"},
		{"geometry":{"coordinates":[-3.23259,54.13773],"type":"Point"},"properties":{"_source":"warm_spaces","address":"Millstone Avenue, Barrow-in-Furness, England, LA14 4BP","hours":{"_text":"Monday 9:30am-11am &amp; 5pm-6:30pm","opening":"Mo 09:30-11:00"},"title":"Ormsgill Community Centre","url":"https://m.facebook.com/Ormsgill-Stronger-Together-348227929844949/"},"type":"Feature"},
		{"geometry":{"coordinates":[-3.22433,54.11283],"type":"Point"},"properties":{"_source":"cumbria_council","contact":"Tel: 01229432599; Email: Reception.dabs@gmail.com","description":"We give disability advice and support, we operate a community cafe open Wednesday, Thursday and Friday, benefits advice, learning and volunteering opportunitiesOur community cafe is open with access to warm drinks","title":"Barrow and District Disability Association","url":"https://new.cumbria.gov.uk/node/43748"},"type":"Feature"},
		{"geometry":{"coordinates":[-3.22545,54.10293],"type":"Point"},"properties":{"_source":"cumbria_council","contact":"Tel: 01229 820470; Email: bicstrust@gmail.com","description":"A warm meal on the Monday and hot bacon/sausage buns on the Friday free of charge. Hot drinks also available.","title":"Barrow Island Community and Sports Trust Ltd","url":"https://new.cumbria.gov.uk/node/3887"},"type":"Feature"},
		{"geometry":{"coordinates":[-3.23138,54.11452],"type":"Point"},"properties":{"_source":"cumbria_council","contact":"Tel: 01229 407370; Email: mari.pearce@cumbria.gov.uk","description":"Friendly welcome, comfortable seating, access to information, 2 hours free computer access with available printing, books and other reading material, hot and cold drinks available","title":"Barrow Library","url":"https://new.cumbria.gov.uk/node/3762"},"type":"Feature"},
		{"geometry":{"coordinates":[-3.21217,54.11631],"type":"Point"},"properties":{"_source":"cumbria_council","contact":"Email: aidan.murphy@barrowleisure.co.uk","description":"Cafe environment","title":"Barrow Park Leisure Centre, Barrow in Furness","url":"https://new.cumbria.gov.uk/node/9452"},"type":"Feature"},
		{"geometry":{"coordinates":[-3.20393,54.12430],"type":"Point"},"properties":{"_source":"cumbria_council","contact":"Email: helen.hooley@methodist.org.uk","description":"Community based cafe environment. Some events will have activities; joining in is optional","title":"Beacon Hill Methodist Church","url":"https://new.cumbria.gov.uk/node/3872"},"type":"Feature"},
		{"geometry":{"coordinates":[-3.22676,54.10384],"type":"Point"},"properties":{"_source":"cumbria_council","contact":"Tel: 07949434076; Email: davemorrison1966@hotmail.com","description":"People will be able to access a warm space, support and advice if needed through staff or signposting","title":"Bram Longstaffe Community Hub","url":"https://new.cumbria.gov.uk/node/3866"},"type":"Feature"},
		{"geometry":{"coordinates":[-3.18243,54.15730],"type":"Point"},"properties":{"_source":"cumbria_council","contact":"Tel: 01229 463929; Email: dalton_community_association@outlook.com","description":"The centre houses the local Police Team, the Library. The reception area has comfortable chairs and there is access to newspapers.","title":"Dalton Community Association, Dalton in Furness","url":"https://new.cumbria.gov.uk/node/6549"},"type":"Feature"},
		{"geometry":{"coordinates":[-3.17801,54.15714],"type":"Point"},"properties":{"_source":"cumbria_council","contact":"Email: helen.hooley@methodist.org.uk","description":"Community based cafe environment. Some events will have activities; joining in is optional","title":"Dalton Community Church","url":"https://new.cumbria.gov.uk/node/3874"},"type":"Feature"},
		{"geometry":{"coordinates":[-3.18194,54.15795],"type":"Point"},"properties":{"_source":"cumbria_council","contact":"Tel: 01229463125","description":"A community leisure centre with a large cafe/lounge which overlooks the swimming pool.Lots of excercise activities/classes taking place within a safe environment.A central community hub welcoming a broad range of age groups.","title":"Dalton Leisure Centre, Dalton in Furness","url":"https://new.cumbria.gov.uk/node/6546"},"type":"Feature"},
		{"geometry":{"coordinates":[-3.18585,54.15547],"type":"Point"},"properties":{"_source":"cumbria_council","contact":"Tel: 01229 462526","description":"Warm welcome from friendly volunteers. Hot drinks, toasted tea cakes and other refreshments. Optional activities and opportunity to socialise in warm surroundings. All ages welcome.","title":"Dalton St Mary's Church","url":"https://new.cumbria.gov.uk/node/27785"},"type":"Feature"},
		{"geometry":{"coordinates":[-3.22605,54.10971],"type":"Point"},"properties":{"_source":"cumbria_council","contact":"Tel: 07796645247; Email: ruth.mcdonald.pn@gmail.com","description":"A warm welcome, free tea, coffee, fruit, biscuits. Toys for children to play. Pool table for adults. Church opening specifically for this event.Parish Nurse will be available most weeks for health checks and advice.","title":"Emmanuel Community Church, Barrow in Furness","url":"https://new.cumbria.gov.uk/node/3846"},"type":"Feature"},
		{"geometry":{"coordinates":[-3.23213,54.11650],"type":"Point"},"properties":{"_source":"cumbria_council","contact":"Tel: 01229 821134; Email: furnesshomeless@yahoo.co.uk","description":"Hot drinks and food, TV","title":"Furness Homeless Support group","url":"https://new.cumbria.gov.uk/node/3758"},"type":"Feature"},
		{"geometry":{"coordinates":[-3.23034,54.11788],"type":"Point"},"properties":{"_source":"cumbria_council","contact":"Email: helen.hooley@methodist.org.uk","description":"Community based cafe environment. Some events will have activities; joining in is optional! Toddler groups aimed at carers of young children.","title":"Hartington Street Methodist Church","url":"https://new.cumbria.gov.uk/node/3870"},"type":"Feature"},
		{"geometry":{"coordinates":[-3.23217,54.11599],"type":"Point"},"properties":{"_source":"cumbria_council","contact":"Tel: 01229820210; Email: office@olof.org.uk","description":"Parish Community Centre opening specifically for this event","title":"Hindpool Community Centre","url":"https://new.cumbria.gov.uk/node/9074"},"type":"Feature"},
		{"geometry":{"coordinates":[-3.22304,54.11193],"type":"Point"},"properties":{"_source":"cumbria_council","contact":"Tel: 01229827094; Email: schoolstreet@mindinfurness.org.uk","description":"Emotional and practical support, activities, peer support, company, warm drink, professional help and signposting","title":"Mind in Furness","url":"https://new.cumbria.gov.uk/node/3921"},"type":"Feature"},
		{"geometry":{"coordinates":[-3.21260,54.11458],"type":"Point"},"properties":{"_source":"cumbria_council","contact":"Tel: 01229828348; Email: Admin@parkside-academy.co.uk","description":"A small community hub with internet access, hot snacks, books and work space","title":"Parkside Academy, Barrow in Furness","url":"https://new.cumbria.gov.uk/node/6586"},"type":"Feature"},
		{"geometry":{"coordinates":[-3.20518,54.11152],"type":"Point"},"properties":{"_source":"cumbria_council","contact":"Tel: 01229 407370; Email: mari.pearce@cumbria.gov.uk","description":"Friendly welcome, comfortable seating, access to information, 2 hours free computer access with available printing, books and other reading material, hot and cold drinks available","title":"Roose Library","url":"https://new.cumbria.gov.uk/node/3767"},"type":"Feature"},
		{"geometry":{"coordinates":[-3.22451,54.11533],"type":"Point"},"properties":{"_source":"cumbria_council","contact":"Tel: 07923466602","description":"People can come and access table top activities, eg. Games, craft activities, adult colouring, Use pool table and table tennis table, knit and natter. There is a Clothes bank with men’s women’s and children's clothing and accessories and a comfort cupbEach day we will offer food and hot/cold drinks eg. Crumpets, toasted tea cakes, cereals, cakes biscuits. On some occasions we will offer soup /meals. Advice/information/guidance services (e.g benefits, energy saving information)","title":"St Mark's Church","url":"https://new.cumbria.gov.uk/node/3879"},"type":"Feature"},
		{"geometry":{"coordinates":[-3.24816,54.10592],"type":"Point"},"properties":{"_source":"cumbria_council","description":"Warm space, friendly faces, community based cafe environment","title":"St Mary's Parish Centre, Walney Island","url":"https://new.cumbria.gov.uk/node/9813"},"type":"Feature"},
		{"geometry":{"coordinates":[-3.23320,54.11384],"type":"Point"},"properties":{"_source":"cumbria_council","contact":"Tel: 01229 820210; Email: office@olof.org.uk","description":"Parish community centre opening specifically for this event","title":"St Mary's Presbytery, Barrow in Furness","url":"https://new.cumbria.gov.uk/node/9111"},"type":"Feature"},
		{"geometry":{"coordinates":[-3.21351,54.12836],"type":"Point"},"properties":{"_source":"cumbria_council","contact":"Tel: 01229 821546; Email: admin.stpaulsbarrow@btconnect.com","title":"St Paul's Church Barrow","url":"https://new.cumbria.gov.uk/node/3791"},"type":"Feature"},
		{"geometry":{"coordinates":[-3.21217,54.11631],"type":"Point"},"properties":{"_source":"cumbria_council","contact":"Email: cgrace@thewell2.co.uk","description":"Key Health Messages and cost of living support.","title":"The Park Leisure Centre, The Well Communities CIC, Dalton in Furness","url":"https://new.cumbria.gov.uk/node/60891"},"type":"Feature"},
		{"geometry":{"coordinates":[-3.22821,54.11582],"type":"Point"},"properties":{"_source":"cumbria_council","contact":"Tel: 01229 433550; Email: barrow.in.furness@salvationarmy.org.uk","description":"We are opening our main hall as a warm space with tables and chairs, books, puzzles, games, hot drinks and cuppa soups.People to talk with, and people around if you need a cuppa and a chat, emotional, spiritual or practical support or signposting (eg food bank voucher, housing problems, etc.).","title":"The Salvation Army - Barrow-in-Furness","url":"https://new.cumbria.gov.uk/node/3843"},"type":"Feature"},
		{"geometry":{"coordinates":[-3.21965,54.12062],"type":"Point"},"properties":{"_source":"cumbria_council","contact":"Email: helen.hooley@methodist.org.uk","description":"Community based cafe environment. Some events will have activities; joining in is optional","title":"Trinity Church Centre (Closed and now meeting at Abbey Road Baptist church LA13 9BD), Barrow-in Furness","url":"https://new.cumbria.gov.uk/node/3873"},"type":"Feature"},
		{"geometry":{"coordinates":[-3.24644,54.11031],"type":"Point"},"properties":{"_source":"cumbria_council","contact":"Email: aberkle1@yahoo.co.uk","description":"Church opening specifically for this event. There will be reading material, jigsaws etc. available.","title":"Vickerstown Methodist Church","url":"https://new.cumbria.gov.uk/node/3871"},"type":"Feature"},
		{"geometry":{"coordinates":[-3.22645,54.11390],"type":"Point"},"properties":{"_source":"cumbria_council","contact":"Tel: 01229440556","description":"A warm welcome, chat, free wifi, talking books and board games available","title":"Vision Support Barrow and District","url":"https://new.cumbria.gov.uk/node/24262"},"type":"Feature"},
		{"geometry":{"coordinates":[-3.22323,54.12173],"type":"Point"},"properties":{"_source":"cumbria_council","contact":"Email: Mandy@astitchdifferent.co.uk","description":"Community based space, provided by A Stitch Different CIC. Warm drinks available available. free WiFi, Free phone charge pointsFree access to our sleep practitioners, additional support for families of children with disabilities. Access to our sensory resources.","title":"Walney Community Centre, Barrow in Furness","url":"https://new.cumbria.gov.uk/node/9195"},"type":"Feature"},
		{"geometry":{"coordinates":[-3.25343,54.10757],"type":"Point"},"properties":{"_source":"cumbria_council","contact":"Tel: 01229 407370; Email: mari.pearce@cumbria.gov.uk","description":"Friendly welcome, comfortable seating, access to information, 2 hours free computer access with available printing, books and other reading material, hot and cold drinks available","title":"Walney Library","url":"https://new.cumbria.gov.uk/node/3765"},"type":"Feature"}
	]
}
