{
	"type": "FeatureCollection",
	"features": [
		{"geometry":{"coordinates":[-3.39255,50.64328],"type":"Point"},"properties":{"_source":"warm_welcome","address":"Churchill Road, Exmouth, Devon EX8 5PP","description":"Everyone is welcome no matter your age or ability","hours":{"_text":"Wednesday: 10:00 - 12:00, Thursday: 13:00 - 15:15, Friday: 10:00 - 12:00","opening":"We 10:00-12:00; Th 13:00-15:15; Fr 10:00-12:00"},"title":"Brixington Community Church"},"type":"Feature"},
		{"geometry":{"coordinates":[-3.23954,50.68365],"type":"Point"},"properties":{"_source":"warm_welcome","address":"St Teresa's Hall , Sidmouth , Devon EX10 8TT","description":"Open from 07.11.2022.","hours":{"_text":"Monday: 12:00 - 14:00, Sunday: 11:30 - 12:30","opening":"Mo 12:00-14:00; Su 11:30-12:30"},"title":"Catholic Church, Sidmouth"},"type":"Feature"},
		{"geometry":{"coordinates":[-3.40874,50.62214],"type":"Point"},"properties":{"_source":"warm_welcome","address":"29 North Street, Exmouth, Devon EX8 1JZ","hours":{"_text":"Tuesday: 13:00 - 15:00 / -","opening":"Tu 13:00-15:00"},"title":"Christ Church, Exmouth 29 North Street, Exmouth EX8 1JZ"},"type":"Feature"},
		{"geometry":{"coordinates":[-3.41310,50.61982],"type":"Point"},"properties":{"_source":"warm_welcome","address":"7-9 Market Street , Exmouth, Devon EX8 1HP","hours":{"_text":"Monday: 09:30 - 12:30","opening":"Mo 09:30-12:30"},"title":"Community Church"},"type":"Feature"},
		{"geometry":{"coordinates":[-3.41065,50.61719],"type":"Point"},"properties":{"_source":"warm_welcome","address":"Holy Trinity Church 2 Rolle Road, Exmouth, Devon EX8 2AB","description":"Holy Trinity Cafe is a warm, welcoming, and safe space where anyone can drop in for a cup of coffee, toast and a chat. The access is level and children and dogs are welcome.","hours":{"_text":"Monday: 10:00 - 12:00, Tuesday: 10:00 - 12:00, Wednesday: 10:00 - 12:00, Thursday: 10:00 - 12:00, Friday: 10:00 - 12:00, Saturday: 10:00 - 12:00, Sunday: 09:30 - 11:30","opening":"Mo 10:00-12:00; Tu 10:00-12:00; We 10:00-12:00; Th 10:00-12:00; Fr 10:00-12:00; Sa 10:00-12:00; Su 09:30-11:30"},"title":"Holy Trinity Church - Anglican Church"},"type":"Feature"},
		{"geometry":{"coordinates":[-3.46014,50.60008],"type":"Point"},"properties":{"_source":"warm_welcome","address":"The Hope Centre, Swift Road, Dawlish, Devon EX7 0FS","description":"Open from 31-10-2022.","hours":{"_text":"Monday: 10:30 - 14:30, Tuesday: 10:30 - 14:30, Wednesday: 10:30 - 14:30","opening":"Mo 10:30-14:30; Tu 10:30-14:30; We 10:30-14:30"},"title":"Hope Church"},"type":"Feature"},
		{"geometry":{"coordinates":[-3.39316,50.62378],"type":"Point"},"properties":{"_source":"warm_welcome","address":"The Old Gospel Hall, 28 Hamilton Road, Exmouth, Devon EX8 2LT","description":"Open from 03-11-2022. We are open to the whole community, drop in any time and stay for as long or short a time as you like. Hot drinks and biscuits are available throughout the day. Toys are available for pre-schoolers and board games/cards/puzzles for adults.","hours":{"_text":"Thursday: 13:00 - 16:00","opening":"Th 13:00-16:00"},"title":"Hope Church Exmouth"},"type":"Feature"},
		{"geometry":{"coordinates":[-3.37691,50.62489],"type":"Point"},"properties":{"_source":"warm_welcome","address":"Littleham Leisure Centre, Exmouth, Devon EX8 2QZ","hours":{"_text":"Tuesday: 09:00 - 15:00 / -","opening":"Tu 09:00-15:00"},"title":"Littleham Community Cafe"},"type":"Feature"},
		{"geometry":{"coordinates":[-3.37758,50.62791],"type":"Point"},"properties":{"_source":"warm_welcome","address":"Capel Lane, Exmouth, Devon EX8 2QX","description":"There is a toddler's group 'Praise and Play' on Monday afternoons and the Tuesday cafe is listed separately. We cater for those wishing to play the games listed. This is a small leisure centre normally let out to defined groups but now having a Games morning on Fridays. Table tennis, pool and table football are available as well as board games, chess and card games.","hours":{"_text":"Friday: 9:30 - 11:30","opening":"Fr 09:30-11:30"},"title":"Littleham Leisure Centre"},"type":"Feature"},
		{"geometry":{"coordinates":[-3.23925,50.68202],"type":"Point"},"properties":{"_source":"warm_welcome","address":"Dissenters Hall , All saints Road , Sofmouth EX10 8ER","hours":{"_text":"Wednesday: 12:00 - 14:00","opening":"We 12:00-14:00"},"title":"Oasis Cafe sidmouth"},"type":"Feature"},
		{"geometry":{"coordinates":[-3.41125,50.61924],"type":"Point"},"properties":{"_source":"warm_welcome","address":"Church Street, Exmouth, Devon EX8 1PE","description":"We have support workers available Mon, Weds and Fri mornings to offer support and advice. We run a Community Fridge and Baby Bank and can provide showers, laundry facilities and clothes to anyone who finds themselves homeless.","hours":{"_text":"Monday: 09:30 - 15:30, Wednesday: 09:30 - 15:30, Friday: 09:30 - 15:30","opening":"Mo 09:30-15:30; We 09:30-15:30; Fr 09:30-15:30"},"title":"Open Door Exmouth"},"type":"Feature"},
		{"geometry":{"coordinates":[-3.50336,50.73107],"type":"Point"},"properties":{"_source":"warm_welcome","address":"157-165 Pinhoe Road, Exeter , Devon EX4 7HZ","description":"We have Coffee Haven, a drop in café for the community from 10-12noon on Thursday mornings. Toys are available for under fives. All are welcome","hours":{"_text":"Thursday: 09:00 - 12:30","opening":"Th 09:00-12:30"},"title":"Pinhoe Road Baptist Church"},"type":"Feature"},
		{"geometry":{"coordinates":[-3.31979,50.63152],"type":"Point"},"properties":{"_source":"warm_welcome","address":"Seachange, East Budleigh Road, Budleigh Salterton EX9 6HF","description":"Providing health and wellbeing opportunities for the community","hours":{"_text":"Monday: 08:30 - 18:00, Tuesday: 08:30 - 18:00, Wednesday: 08:30 - 18:00, Thursday: 08:00 - 18:00, Friday: 08:00 - 17:00","opening":"Mo 08:30-18:00; Tu 08:30-18:00; We 08:30-18:00; Th 08:00-18:00; Fr 08:00-17:00"},"title":"Seachange"},"type":"Feature"},
		{"geometry":{"coordinates":[-3.23807,50.68117],"type":"Point"},"properties":{"_source":"warm_welcome","address":"Blackmore Drive, Sidmouth, Devon EX10 8LA","hours":{"_text":"Monday: 09:00 - 18:00, Wednesday: 09:00 - 17:00, Thursday: 09:00 - 17:00, Friday: 09:00 - 18:00, Saturday: 09:00 - 13:00","opening":"Mo 09:00-18:00; We 09:00-17:00; Th 09:00-17:00; Fr 09:00-18:00; Sa 09:00-13:00"},"title":"Sidmouth Library"},"type":"Feature"},
		{"geometry":{"coordinates":[-3.24161,50.67997],"type":"Point"},"properties":{"_source":"warm_welcome","address":"Twyford House, Coburg Road, SIDMOUTH, Devon EX10 8NF","description":"Our focus is catering for elderly people but all are welcome to use our warm space Unlimited tea and coffee and a slice of toast £1.00","hours":{"_text":"Monday: 09:00 - 13:00, Tuesday: 09:00 - 13:00, Wednesday: 09:00 - 13:00, Thursday: 09:00 - 13:00, Friday: 09:00 - 13:00","opening":"Mo 09:00-13:00; Tu 09:00-13:00; We 09:00-13:00; Th 09:00-13:00; Fr 09:00-13:00"},"title":"Sidmouth Voluntary Services"},"type":"Feature"},
		{"geometry":{"coordinates":[-3.23851,50.67886],"type":"Point"},"properties":{"_source":"warm_welcome","address":"Church Street, Sidmouth, Devon EX10 8LG","hours":{"_text":"Tuesday: 11:00 - 14:00","opening":"Tu 11:00-14:00"},"title":"St Giles & St Nicholas church, Sidmouth"},"type":"Feature"},
		{"geometry":{"coordinates":[-3.46558,50.68305],"type":"Point"},"properties":{"_source":"warm_welcome","address":"St Margaret's Church, Topsham, Exeter Fore Street, Topsham EX3 0HL","hours":{"_text":"Monday: 08:00 - 17:00, Tuesday: 08:00 - 17:00, Wednesday: 08:00 - 17:00, Thursday: 08:00 - 17:00, Friday: 08:00 - 17:00, Saturday: 08:00 - 17:00, Sunday: 8:00 - 17:00","opening":"Mo 08:00-17:00; Tu 08:00-17:00; We 08:00-17:00; Th 08:00-17:00; Fr 08:00-17:00; Sa 08:00-17:00; Su 08:00-17:00"},"title":"St Margaret's Church"},"type":"Feature"},
		{"geometry":{"coordinates":[-3.49809,50.54762],"type":"Point"},"properties":{"_source":"warm_welcome","address":"1-3 Bitton Park Road,, Teignmouth, devon TQ14 9BT","hours":{"_text":"Monday: 14:00 - 16:30, Thursday: 14:00 - 16:30","opening":"Mo 14:00-16:30; Th 14:00-16:30"},"title":"The Alice Cross Centre"},"type":"Feature"},
		{"geometry":{"coordinates":[-3.33219,50.63492],"type":"Point"},"properties":{"_source":"warm_welcome","address":"Venture Hall, Moor Lane, Budleigh Salterton EX9 6QE","description":"An open space for the whole community to come. meet others and chat. We serve hot and cold drinks, pastries and cakes. We also have toys and simple craft activities for pre-school children and board games for adults.","hours":{"_text":"Thursday: 08:45 - 11:30","opening":"Th 08:45-11:30"},"title":"The Wave Community Cafe - Budleigh Salterton Baptist Church"},"type":"Feature"},
		{"geometry":{"coordinates":[-3.32389,50.62913],"type":"Point"},"properties":{"_source":"warm_welcome","address":"Fore Street, Budleigh Salterton, Devon EX9 6NH","description":"Launchpad is a social enterprise, training adults with learning disabilities in catering and hospitality. We aim to support our trainees to improve their confidence, motivation and develop social skills to achieve their personal goals to gain employment At Wesley's we run a range of different activities throughout the week. We can also host regular groups to run their own activites. For more information please contact us on 07955 863160 or pop in and speak to a member of staff.","hours":{"_text":"Monday: 09:30 - 16:00, Tuesday: 09:30 - 16:00, Wednesday: 09:30 - 16:00, Thursday: 09:30 - 16:00, Friday: 09:30 - 16:00, Saturday: 09:30 - 16:00","opening":"Mo 09:30-16:00; Tu 09:30-16:00; We 09:30-16:00; Th 09:30-16:00; Fr 09:30-16:00; Sa 09:30-16:00"},"title":"Wesleys, Launchpad"},"type":"Feature"},
		{"geometry":{"coordinates":[-3.50262,50.68077],"type":"Point"},"properties":{"_source":"warm_spaces","address":"Farm House Rise, Exeter, England, EX6 8AT, United Kingdom","description":"Free Food/Drink, Free Wi-Fi, Device Charging, Advice, People to chat to, Space to work, Wheelchair Accessible, Toilets, Accessible Toilet, Parking, Child Friendly","hours":{"_text":"Mon to Fri, 10am-4pm","opening":"Mo-Fr 10:00-16:00"},"title":"Westbank Community Health and Care, Warmwell.","url":"https://www.westbank.org.uk/warmwell"},"type":"Feature"},
		{"geometry":{"coordinates":[-3.42670,50.65014],"type":"Point"},"properties":{"_source":"warm_spaces","address":"School Hill, Exmouth, England, EX8 5JY, United Kingdom","description":"Free Food/Drink, Free Wi-Fi, People to chat to, Toilets, Parking, Child Friendly","hours":{"_text":"Monday 2pm-5pm (from 2nd January to 27th February 2023)","opening":"Mo 14:00-17:00"},"title":"Lympstone Village Hall","url":"https://www.lympstonevillagehall.org.uk"},"type":"Feature"},
		{"geometry":{"coordinates":[-3.49749,50.54686],"type":"Point"},"properties":{"_source":"warm_spaces","address":"Fore Street, Teignmouth, England, TQ14 8DZ, United Kingdom","description":"Free Food/Drink, People to chat to, Wheelchair Accessible, Toilets, Accessible Toilet, Child Friendly","hours":{"_text":"Wednesday 12.30pm-2pm","opening":"We 12:30-14:00"},"title":"Teignmouth Baptist Church","url":"www.teignmouthbaptist.org"},"type":"Feature"},
		{"geometry":{"coordinates":[-3.41113,50.62181],"type":"Point"},"properties":{"_source":"warm_spaces","address":"40 Exeter Road, Exmouth, England, EX8 1PS, United Kingdom","description":"Free Food/Drink, Free Wi-Fi, Device Charging, Advice, People to chat to, Space to work, Wheelchair Accessible, Toilets, Parking, Child Friendly, Computer Access","hours":{"_text":"Mon- Fri 9am-6pm, Saturday 9am-4pm","opening":"Mo-Fr 09:00-18:00; Sa 09:00-16:00"},"title":"Exmouth Library","url":"https://www.devonlibraries.org.uk/web/arena/exmouthlibrary;"},"type":"Feature"},
		{"geometry":{"coordinates":[-3.23926,50.67939],"type":"Point"},"properties":{"_source":"warm_spaces","address":"Church Street, Sidmouth, England, EX10 8LG, United Kingdom","description":"Free Food/Drink, People to chat to, Wheelchair Accessible, Toilets, Accessible Toilet, Games, knit and natter, or set up a table and ask people to join you","hours":{"_text":"Tuesday 11am-2pm","opening":"Tu 11:00-14:00"},"title":"Saint Giles &amp; Saint Nicholas Parish Church, Sidmouth"},"type":"Feature"},
		{"geometry":{"coordinates":[-3.32360,50.62952],"type":"Point"},"properties":{"_source":"warm_spaces","address":"Temple Methodist Church, Fore Street, Budleigh Salterton, England, EX9 6NG, United Kingdom","description":"Free Wi-Fi, People to chat to, Food/Drink for sale, Wheelchair Accessible, Toilets, Accessible Toilet, Parking, Child Friendly","hours":{"_text":"Monday-Saturday 9.30am-4pm","opening":"Mo-Sa 09:30-16:00"},"title":"Wesley's","url":"https://www.launchpadsw.org"},"type":"Feature"},
		{"geometry":{"coordinates":[-3.49855,50.54770],"type":"Point"},"properties":{"_source":"warm_spaces","address":"1-3 Bitton Park Road, Teignmouth, England, TQ14 9BT, United Kingdom","description":"Free Food/Drink, Free Wi-Fi, Device Charging, Advice, People to chat to, Space to work, Food/Drink for sale, Wheelchair Accessible, Toilets, Accessible Toilet, Child Friendly","hours":{"_text":"Monday &amp; Thursday 2pm-4.30pm","opening":"Mo 14:00-16:30; Th 14:00-16:30"},"title":"Heat Cafe at The Alice Cross Centre","url":"www.thealicecross.co.uk"},"type":"Feature"},
		{"geometry":{"coordinates":[-3.46740,50.58131],"type":"Point"},"properties":{"_source":"warm_spaces","address":"6 The Strand, Dawlish, England, EX7 9PS, United Kingdom","description":"Free Food/Drink, Free Wi-Fi, Device Charging, Advice, People to chat to, Free drinks, kids play area, information, notices, donated items on sale.","hours":{"_text":"Monday to Saturday 9.30am-4.30pm","opening":"Mo-Sa 09:30-16:30"},"title":"Hub Store"},"type":"Feature"},
		{"geometry":{"coordinates":[-3.46004,50.60002],"type":"Point"},"properties":{"_source":"warm_spaces","address":"The Hope Centre, Swift Road, Dawlish, England, EX7 0FS, United Kingdom","description":"Free Food/Drink, Free Wi-Fi, Device Charging, Advice, People to chat to, Space to work, Simple hot lunch and hot drinks on a donation basis","hours":{"_text":"Mon, Tue, Wed, 1030am-2:30pm","opening":"Mo 10:30-14:30; Tu 10:30-14:30; We 10:30-14:30"},"title":"Hope Church","url":"https://www.hopechurchdawlish.org"},"type":"Feature"}
	]
}
