{
	"type": "FeatureCollection",
	"features": [
		{"geometry":{"coordinates":[-0.07664,51.51544],"type":"Point"},"properties":{"_source":"warm_welcome","address":"Corporation of London, 1 Artizan Street, London E1 7AF","description":"","hours":"Mo 08:00-19:00, Tu 08:00-17:30, We 08:00-17:30, Th 08:00-17:30, Fr 08:00-17:30","title":"Artizan Street Library and Community Centre"},"type":"Feature"},
		{"geometry":{"coordinates":[-0.05095,51.53175],"type":"Point"},"properties":{"_source":"warm_welcome","address":"Approach Road, Bethnal Green, London E2 9JP","description":"Open from 04-11-22.","hours":"Fr 10:00-18:00","title":"Bethnal Green Methodist Church"},"type":"Feature"},
		{"geometry":{"coordinates":[-0.01461,51.52658],"type":"Point"},"properties":{"_source":"warm_welcome","address":"Upper floor, Devons Halls,Powis Road off Grace Street , Bow, London E3 3HJ","description":"Open from 01 11 2022. Our Sunday worship starts at 10am until 12:45pm. We will then provide hot home cooked food especially on the last sunday of every month. There will also be opportunity to check blood pressure level as well as Diabetes check freely.","hours":"Su 01:00-05:00","title":"Christ Apostolic church "},"type":"Feature"},
		{"geometry":{"coordinates":[-0.06259,51.56281],"type":"Point"},"properties":{"_source":"warm_welcome","address":"Northwold Road, Clapton, London E5 8RA","description":"","hours":"Mo 10:00-20:00, Tu 10:00-20:00, We 13:00-18:00, Th 10:00-20:00, Fr 10:00-18:00, Sa 10:00-17:00","title":"Clapton Library"},"type":"Feature"},
		{"geometry":{"coordinates":[-0.07405,51.54605],"type":"Point"},"properties":{"_source":"warm_welcome","address":"Dalston CLR James Library, London, London E8 3BQ","description":"","hours":"Mo 09:00-20:00, Tu 09:00-20:00, We 09:00-20:00, Th 09:00-20:00, Fr 09:00-18:00, Sa 09:00-17:00, Su 13:00-17:00","title":"Dalston CLR James Library"},"type":"Feature"}