{
	"type": "FeatureCollection",
	"features": [
		{"geometry":{"coordinates":[-1.48284,53.58363],"type":"Point"},"properties":{"_source":"warm_welcome","address":"Athersley Family Centre, Athersley, Barnsley S71 3NB","description":"We cater for families We have crafts and activities for families","hours":"Mo 15:30-19:00","title":"Athersley Family Centre"},"type":"Feature"},
		{"geometry":{"coordinates":[-1.47847,53.55908],"type":"Point"},"properties":{"_source":"warm_welcome","address":"Honeywell Community Centre Honeywell Street, Barnsley, South Yorkshire S71 1PZ","description":"","hours":"We 12:00-16:00","title":"Berneslai Homes"},"type":"Feature"},
		{"geometry":{"coordinates":[-1.42637,53.54627],"type":"Point"},"properties":{"_source":"warm_welcome","address":"Doncaster Road, Ardsley, Yorkshire S71 5EF","description":"Open from 02-11-2022. Drop in for coffee and toast or stay for the morning - everyone welcome!","hours":"We 09:30-12:30","title":"Christ Church Ardsley"},"type":"Feature"},
		{"geometry":{"coordinates":[-1.41855,53.57702],"type":"Point"},"properties":{"_source":"warm_welcome","address":"Cudworth Centre of Excellence, Robert Street, , Cudworth, Barnsley S72 8UQ","description":" We have regular activities every week including Story & Rhyme sessions, Lego Club, Employment Support as well as a range of children and adult activities and school holiday activities. Details on our website","hours":"Mo 09:00-19:00, Tu 09:00-17:00, We 09:00-17:00, Th 09:00-17:00, Fr 09:00-17:00, Sa 09:30-12:30","title":"Cudworth Library - Barnsley Libraries"},"type":"Feature"}