{
	"type": "FeatureCollection",
	"features": [
		{"geometry":{"coordinates":[-1.70490,55.41341],"type":"Point"},"properties":{"address":"8 Bondgate Within, Alnwick, Northumberland, NE66 1TD","hours":{},"title":"Alnwick Arts and Crafts Centre Ltd","url":"https://north.northumberlandfrontline.org.uk/Library/ServiceDetail/633bfb1c3d4e860c0a4bd2b3"},"type":"Feature"},
		{"geometry":{"coordinates":[-1.70284,55.41247],"type":"Point"},"properties":{"address":"Alnwick Playhouse And Arts Centre, Bondgate Without, Alnwick, Northumberland, NE66 1PQ","hours":{},"title":"Alnwick Library","url":"https://north.northumberlandfrontline.org.uk/Library/ServiceDetail/621635f4324c081715fcce1f"},"type":"Feature"},
		{"geometry":{"coordinates":[-1.59375,55.47187],"type":"Point"},"properties":{"address":"Craster Memorial Hall, Whin Hill, Craster, Northumberland, NE66 3TP","hours":{},"title":"Craster Memorial Hall"},"type":"Feature"},
		{"geometry":{"coordinates":[-1.61925,55.43254],"type":"Point"},"properties":{"address":"Westfield Park, Park Road, Longhoughton, Alnwick, Northumberland, NE66 3JH","hours":{},"title":"Longhoughton Community and Sports Centre"},"type":"Feature"},
		{"geometry":{"coordinates":[-1.70477,55.41397],"type":"Point"},"properties":{"address":"Gardeners Cottage, Greenwell Road, Alnwick, Northumberland, NE66 1HB","hours":{},"title":"The Alnwick Garden"},"type":"Feature"},
		{"geometry":{"coordinates":[-1.70841,55.41076],"type":"Point"},"properties":{"address":"Alnwick Baptist Church, Upper Howick Street, Alnwick, Northumberland, NE66 1UR","hours":{},"title":"Warm &amp; Welcome"},"type":"Feature"},
		{"geometry":{"coordinates":[-1.69600,55.40244],"type":"Point"},"properties":{"address":"Willowburn Sports And Leisure Centre, Willowburn Avenue, Alnwick, Northumberland, NE66 2JH","hours":{},"title":"Willowburn Sports and Leisure Centre"},"type":"Feature"}
	]
}
