{
	"type": "FeatureCollection",
	"features": [
		{"geometry":{"coordinates":[-1.70393,55.41256],"type":"Point"},"properties":{"_source":"warm_welcome","address":"The Salvation Army, Alnwick, Northumberland NE66 1QE","description":"Monthly lunch, offering a warm and welcoming space with a two course lunch and often with a speaker. This does need to be booked due to restricted space.","hours":{"_text":"Tuesday: 12:15 - 14:00 Monthly","opening":"Tu 12:15-14:00"},"title":"Alnwick Lunch group"},"type":"Feature"},
		{"geometry":{"coordinates":[-1.70417,55.41215],"type":"Point"},"properties":{"_source":"warm_welcome","address":"Salvation Army Building, Alnwick, Northumberland NE66 1QE","description":"Chance to get together for a weekly chat and hot drink & biscuit.","hours":{"_text":"Thursday: 10:00"},"title":"Coffee morning"},"type":"Feature"},
		{"geometry":{"coordinates":[-1.66656,55.49838],"type":"Point"},"properties":{"_source":"warm_welcome","address":"Christon Bank Methodsit Church, Christon Bank, Northumberland NE66 3DQ","description":"A monthly lunch held on the second Wednesday in the month at 12.30pm, in the community hall attached to the Methodist Church in Christon Bank. A donation towards the meal, for those who can afford, it is gratefully received.","hours":{"_text":"Wednesday: 12:30 - 02:00 Monthly","opening":"We 12:30-02:00"},"title":"Village Lunch"},"type":"Feature"},
		{"geometry":{"coordinates":[-1.70842,55.41077],"type":"Point"},"properties":{"_source":"warm_welcome","address":"Lisburn Street, Alnwick, Northumberland Ne661UR Ne661UR","description":"Meeting to chat and play games. Tea/coffee, cake always provided. Soup and roll too over winter","hours":{"_text":"Wednesday: 11:00 - 13:30","opening":"We 11:00-13:30"},"title":"Warm Welcome"},"type":"Feature"},
		{"geometry":{"coordinates":[-1.65363,55.57785],"type":"Point"},"properties":{"_source":"northumberland_county_council","address":"Employment Hub, Sports Hall, Stone Close, Seahouses, Northumberland, NE68 7YL","hours":{"_text":""},"loc_pcd":true,"title":"Seahouses Hub","url":"https://north.northumberlandfrontline.org.uk/Library/ServiceDetail/63db883779101c848b3776b2"},"type":"Feature"},
		{"geometry":{"coordinates":[-1.70284,55.41247],"type":"Point"},"properties":{"_source":"northumberland_county_council","address":"Alnwick Playhouse And Arts Centre, Bondgate Without, Alnwick, Northumberland, NE66 1PQ","hours":{"_text":""},"loc_pcd":true,"title":"Alnwick Library","url":"https://north.northumberlandfrontline.org.uk/Library/ServiceDetail/621635f4324c081715fcce1f"},"type":"Feature"},
		{"geometry":{"coordinates":[-1.70067,55.40932],"type":"Point"},"properties":{"_source":"northumberland_county_council","address":"Wagonway Road, Alnwick, Northumberland, NE66 1QQ","hours":{"_text":""},"loc_pcd":true,"title":"Mind and Sole","url":"https://north.northumberlandfrontline.org.uk/Library/ServiceDetail/628b98a1991f4289b6bbb7de"},"type":"Feature"},
		{"geometry":{"coordinates":[-1.69600,55.40244],"type":"Point"},"properties":{"_source":"northumberland_county_council","address":"Willowburn Sports And Leisure Centre, Willowburn Avenue, Alnwick, Northumberland, NE66 2JH","hours":{"_text":""},"loc_pcd":true,"title":"Willowburn Sports and Leisure Centre","url":"https://northumberlandfrontline.org.uk/Library/ServiceDetail/6406186979101c848bf1faa5"},"type":"Feature"}
	]
}
