{
	"type": "FeatureCollection",
	"features": [
		{"geometry":{"coordinates":[-1.70393,55.41256],"type":"Point"},"properties":{"_source":"warm_welcome","address":"The Salvation Army, Alnwick, Northumberland NE66 1QE","description":"Monthly lunch, offering a warm and welcoming space with a two course lunch and often with a speaker. This does need to be booked due to restricted space.","hours":{"_text":"Tuesday: 12:15 - 14:00 Monthly","opening":"Tu 12:15-14:00"},"title":"Alnwick Lunch group"},"type":"Feature"},
		{"geometry":{"coordinates":[-1.70417,55.41215],"type":"Point"},"properties":{"_source":"warm_welcome","address":"Salvation Army Building, Alnwick, Northumberland NE66 1QE","description":"Chance to get together for a weekly chat and hot drink & biscuit.","hours":{"_text":"Thursday: 10:00"},"title":"Coffee morning"},"type":"Feature"},
		{"geometry":{"coordinates":[-1.66656,55.49838],"type":"Point"},"properties":{"_source":"warm_welcome","address":"Christon Bank Methodsit Church, Christon Bank, Northumberland NE66 3DQ","description":"A monthly lunch held on the second Wednesday in the month at 12.30pm, in the community hall attached to the Methodist Church in Christon Bank. A donation towards the meal, for those who can afford, it is gratefully received.","hours":{"_text":"Wednesday: 12:30 - 02:00 Monthly","opening":"We 12:30-02:00"},"title":"Village Lunch"},"type":"Feature"},
		{"geometry":{"coordinates":[-1.70842,55.41077],"type":"Point"},"properties":{"_source":"warm_welcome","address":"Lisburn Street, Alnwick, Northumberland Ne661UR Ne661UR","description":"Meeting to chat and play games. Tea/coffee, cake always provided. Soup and roll too over winter","hours":{"_text":"Wednesday: 11:00 - 13:30","opening":"We 11:00-13:30"},"title":"Warm Welcome"},"type":"Feature"},
		{"geometry":{"coordinates":[-1.70285,55.41247],"type":"Point"},"properties":{"_source":"northumberland_county_council","address":"Alnwick Playhouse Bondgate Without Alnwick Northumberland NE66 1PQ","hours":{"_text":""},"loc_pcd":true,"title":"Alnwick Library","url":"https://north.northumberlandfrontline.org.uk/Library/ServiceDetail/621635f4324c081715fcce1f"},"type":"Feature"},
		{"geometry":{"coordinates":[-1.70477,55.41326],"type":"Point"},"properties":{"_source":"northumberland_county_council","address":"8 Bondgate Within Alnwick NE66 1TD","hours":{"_text":""},"loc_pcd":true,"title":"Alnwick Arts and Crafts Centre Ltd","url":"https://north.northumberlandfrontline.org.uk/Library/ServiceDetail/633bfb1c3d4e860c0a4bd2b3"},"type":"Feature"},
		{"geometry":{"coordinates":[-1.59377,55.47187],"type":"Point"},"properties":{"_source":"northumberland_county_council","address":"Whin Hill Craster Northumberland NE66 3TP","hours":{"_text":""},"loc_pcd":true,"title":"Craster Memorial Hall"},"type":"Feature"},
		{"geometry":{"coordinates":[-1.70842,55.41077],"type":"Point"},"properties":{"_source":"northumberland_county_council","address":"Alnwick Baptist Church Lisburn Street Alnwick NE66 1UR","hours":{"_text":""},"loc_pcd":true,"title":"Warm &amp; Welcome"},"type":"Feature"},
		{"geometry":{"coordinates":[-1.70477,55.41397],"type":"Point"},"properties":{"_source":"northumberland_county_council","address":"The Alnwick Garden Gardener's Cottage Greenwell Road Alnwick NE66 1HB","hours":{"_text":""},"loc_pcd":true,"title":"The Alnwick Garden"},"type":"Feature"},
		{"geometry":{"coordinates":[-1.69601,55.40244],"type":"Point"},"properties":{"_source":"northumberland_county_council","address":"Willowburn Avene Alnwick NE66 2JH","hours":{"_text":""},"loc_pcd":true,"title":"Willowburn Sports and Leisure Centre","url":"https://northumberlandfrontline.org.uk/Library/ServiceDetail/6406186979101c848bf1faa5"},"type":"Feature"},
		{"geometry":{"coordinates":[-1.61927,55.43254],"type":"Point"},"properties":{"_source":"northumberland_county_council","address":"Westfield Park Park Road Longhoughton NE66 3JH","hours":{"_text":""},"loc_pcd":true,"title":"Longhoughton Community and Sports Centre (Westfield Park)"},"type":"Feature"},
		{"geometry":{"coordinates":[-1.66596,55.57688],"type":"Point"},"properties":{"_source":"northumberland_county_council","address":"Laundry lodge 158a main street North Sunderland Seahouses NE68 7UA","hours":{"_text":""},"loc_pcd":true,"title":"Laundry lodge"},"type":"Feature"},
		{"geometry":{"coordinates":[-1.70633,55.41174],"type":"Point"},"properties":{"_source":"northumberland_county_council","address":"34-38 Green Batt Alnwick NE66 1TU","hours":{"_text":""},"loc_pcd":true,"title":"Alnwick Youth Hostel"},"type":"Feature"},
		{"geometry":{"coordinates":[-1.65365,55.57785],"type":"Point"},"properties":{"_source":"northumberland_county_council","address":"The Hub Stone Close Seahouses NE68 7YL","hours":{"_text":""},"loc_pcd":true,"title":"Seahouses Hub","url":"https://north.northumberlandfrontline.org.uk/Library/ServiceDetail/63db883779101c848b3776b2"},"type":"Feature"}
	]
}
