{
	"type": "FeatureCollection",
	"features": [
		{"geometry":{"coordinates":[-1.63544,55.49673],"type":"Point"},"properties":{"_source":"warm_spaces","address":"Embleton, Alnwick, England, NE66 3UN, United Kingdom","description":"Free Food/Drink, Free Wi-Fi, Device Charging, People to chat to, Food/Drink for sale, Wheelchair Accessible, Toilets","hours":{"_text":"8am-5pm"},"title":"The Dunstanburgh Castle Hotel","url":"https://dunstanburghcastlehotel.co.uk"},"type":"Feature"},
		{"geometry":{"coordinates":[-1.70490,55.41341],"type":"Point"},"properties":{"_source":"northumberland_county_council","address":"8 Bondgate Within, Alnwick, Northumberland, NE66 1TD","hours":{"_text":""},"loc_pcd":true,"title":"Alnwick Arts and Crafts Centre Ltd","url":"https://north.northumberlandfrontline.org.uk/Library/ServiceDetail/633bfb1c3d4e860c0a4bd2b3"},"type":"Feature"},
		{"geometry":{"coordinates":[-1.70284,55.41247],"type":"Point"},"properties":{"_source":"northumberland_county_council","address":"Alnwick Playhouse And Arts Centre, Bondgate Without, Alnwick, Northumberland, NE66 1PQ","hours":{"_text":""},"loc_pcd":true,"title":"Alnwick Library","url":"https://north.northumberlandfrontline.org.uk/Library/ServiceDetail/621635f4324c081715fcce1f"},"type":"Feature"},
		{"geometry":{"coordinates":[-1.70632,55.41174],"type":"Point"},"properties":{"_source":"northumberland_county_council","address":"34 - 38 Green Batt, Alnwick, Northumberland, NE66 1TU","hours":{"_text":""},"loc_pcd":true,"title":"Alnwick Youth Hostel","url":"Alnwick, Alnmouth, Embleton, Powburn"},"type":"Feature"},
		{"geometry":{"coordinates":[-1.59375,55.47187],"type":"Point"},"properties":{"_source":"northumberland_county_council","address":"Craster Memorial Hall, Whin Hill, Craster, Northumberland, NE66 3TP","hours":{"_text":""},"loc_pcd":true,"title":"Craster Memorial Hall","url":"Alnwick, Alnmouth, Embleton, Powburn"},"type":"Feature"},
		{"geometry":{"coordinates":[-1.61925,55.43254],"type":"Point"},"properties":{"_source":"northumberland_county_council","address":"Westfield Park, Park Road, Longhoughton, Alnwick, Northumberland, NE66 3JH","hours":{"_text":""},"loc_pcd":true,"title":"Longhoughton Community and Sports Centre","url":"Alnwick, Alnmouth, Embleton, Powburn"},"type":"Feature"},
		{"geometry":{"coordinates":[-1.70477,55.41397],"type":"Point"},"properties":{"_source":"northumberland_county_council","address":"Gardeners Cottage, Greenwell Road, Alnwick, Northumberland, NE66 1HB","hours":{"_text":""},"loc_pcd":true,"title":"The Alnwick Garden","url":"Alnwick, Alnmouth, Embleton, Powburn"},"type":"Feature"},
		{"geometry":{"coordinates":[-1.70841,55.41076],"type":"Point"},"properties":{"_source":"northumberland_county_council","address":"Alnwick Baptist Church, Upper Howick Street, Alnwick, Northumberland, NE66 1UR","hours":{"_text":""},"loc_pcd":true,"title":"Warm &amp; Welcome","url":"Alnwick, Alnmouth, Embleton, Powburn"},"type":"Feature"},
		{"geometry":{"coordinates":[-1.69600,55.40244],"type":"Point"},"properties":{"_source":"northumberland_county_council","address":"Willowburn Sports And Leisure Centre, Willowburn Avenue, Alnwick, Northumberland, NE66 2JH","hours":{"_text":""},"loc_pcd":true,"title":"Willowburn Sports and Leisure Centre","url":"Alnwick, Alnmouth, Embleton, Powburn"},"type":"Feature"},
		{"geometry":{"coordinates":[-1.66594,55.57689],"type":"Point"},"properties":{"_source":"northumberland_county_council","address":"Stonefall, 158A Main Street, North Sunderland, Seahouses, Northumberland, NE68 7UA","hours":{"_text":""},"loc_pcd":true,"title":"Laundry lodge","url":"Seahouses, North Sunderland"},"type":"Feature"},
		{"geometry":{"coordinates":[-1.65363,55.57785],"type":"Point"},"properties":{"_source":"northumberland_county_council","address":"Employment Hub, Sports Hall, Stone Close, Seahouses, Northumberland, NE68 7YL","hours":{"_text":""},"loc_pcd":true,"title":"Seahouses Hub","url":"https://north.northumberlandfrontline.org.uk/Library/ServiceDetail/63db883779101c848b3776b2"},"type":"Feature"}
	]
}
