{
	"type": "FeatureCollection",
	"features": [
		{"geometry":{"coordinates":[-1.53291,55.00306],"type":"Point"},"properties":{"_source":"warm_welcome","address":"Battle Hill Library, Coastway Shopping Forum, Wallsend NE28 9JE","description":"For the general public. Free hot drinks available during opening hours’: Services include books, magazines, newspapers, games and toys, free use of PCs and wifi, high chairs and bottle warmers.","hours":{"_text":"Tuesday: 9:00 - 13:00 / 14:00 - 17:30, Thursday: 9:00 - 13:00 / 14:00 - 17:30, Saturday: 9:00 - 13:00","opening":"Tu 09:00-13:00,14:00-17:30; Th 09:00-13:00,14:00-17:30; Sa 09:00-13:00"},"title":"Battle Hill Library"},"type":"Feature"},
		{"geometry":{"coordinates":[-1.46547,55.00416],"type":"Point"},"properties":{"_source":"warm_welcome","address":"Cedarwood Trust, Avon Avenue, North Shields NE29 7QT","description":"Open from 24 NOV 22.","hours":{"_text":"Thursday: 09:00 - 16:00","opening":"Th 09:00-16:00"},"title":"Cedarwood Trust"},"type":"Feature"},
		{"geometry":{"coordinates":[-1.55889,54.98474],"type":"Point"},"properties":{"_source":"warm_welcome","address":"Ambassador Hall, 3 Coutts Road, Walkergate, Newcastle upon Tyne NE6 4RB","hours":{"_text":"Friday: 13:00 - 17:00, Sunday: 11:30 - 12:30","opening":"Fr 13:00-17:00; Su 11:30-12:30"},"title":"Church of God"},"type":"Feature"},
		{"geometry":{"coordinates":[-1.43634,55.03407],"type":"Point"},"properties":{"_source":"warm_welcome","address":"St Georges Road, Cullercoats, Tyne and Wear NE30 3JY","description":"Services include books, magazines, games and toys, free use of PCs and wifi, bottle warmers. Free hot drinks available during opening hours.","hours":{"_text":"Tuesday: 09:00 - 13:00 / 14:00 - 17:30, Friday: 09:00 - 13:00 / 14:00 - 17:30, Saturday: 09:00 - 13:00","opening":"Tu 09:00-13:00,14:00-17:30; Fr 09:00-13:00,14:00-17:30; Sa 09:00-13:00"},"title":"Cullercoats Library"},"type":"Feature"},
		{"geometry":{"coordinates":[-1.53065,54.99115],"type":"Point"},"properties":{"_source":"warm_welcome","address":"The Well Bee-ing Hub & Cafe, 84 Park Road, Wallsend, Tyne and Wear NE28 6QY","hours":{"_text":"Tuesday: 08:00 - 17:00 / -, Wednesday: 08:00 - 17:00 / -, Thursday: 08:00 - 17:00 / -, Friday: 08:00 - 17:00 / -, Saturday: 08:00 - 17:00 / -","opening":"Tu 08:00-17:00; We 08:00-17:00; Th 08:00-17:00; Fr 08:00-17:00; Sa 08:00-17:00"},"title":"Dreamshine Community Interest Company (Well Bee-ing Hub & Cafe)"},"type":"Feature"},
		{"geometry":{"coordinates":[-1.59384,55.05627],"type":"Point"},"properties":{"_source":"warm_welcome","address":"Market Street, Dudley, Tyne and Wear NE23 7HS","description":"All welcome. Services include books, magazines, games and toys, free use of PCs and wifi, high chairs and bottle warmers. Free hot drinks available Tuesday and Thursday 2pm - 5pm","hours":{"_text":"Tuesday: 09:00 - 13:00 / 14:00 - 17:30, Thursday: 09:00 - 13:00 / 14:00 - 17:30, Saturday: 09:00 - 13:00","opening":"Tu 09:00-13:00,14:00-17:30; Th 09:00-13:00,14:00-17:30; Sa 09:00-13:00"},"title":"Dudley Library"},"type":"Feature"},
		{"geometry":{"coordinates":[-1.49772,55.04622],"type":"Point"},"properties":{"_source":"warm_welcome","address":"The Old School, Church Way, Earsdon, Whitley Bay, Tyne & Wear NE259JY","hours":{"_text":"Tuesday: 11:00 - 16:00","opening":"Tu 11:00-16:00"},"title":"Earsdon & Wellfield Community Association"},"type":"Feature"},
		{"geometry":{"coordinates":[-1.54256,54.99668],"type":"Point"},"properties":{"_source":"warm_welcome","address":"1 Miller Way, Wallsend, Tyne & Wear NE28 8EL","description":"Open from 19/12/2022. Over 65's We are offering a warm space within the café area of our home. The space is predominantly available for people over the age of 65 years.","hours":{"_text":"Monday: 10:00 - 15:00, Tuesday: 10:00 - 15:00, Wednesday: 10:00 - 15:00, Thursday: 10:00 - 15:00, Friday: 10:00 - 15:00","opening":"Mo 10:00-15:00; Tu 10:00-15:00; We 10:00-15:00; Th 10:00-15:00; Fr 10:00-15:00"},"title":"Eothen Care Homes"},"type":"Feature"},
		{"geometry":{"coordinates":[-1.56548,55.02238],"type":"Point"},"properties":{"_source":"warm_welcome","address":"Whitfield Road, Forest Hall, Newcastle NE12 7LJ","description":"Open from Tuesday 1:11:22. Services include books, magazines, newspapers, games and toys, free use of PCs and Wifi, high chairs and bottle warmers. Free hot drinks available 9:00 -16:00 Tues and Thurs and 9:00-12:00 on Sat","hours":{"_text":"Tuesday: 9:00 - 17:30 / 13:00 - 14:00, Thursday: 9:00 - 17:30 / 13:00 - 14:00, Saturday: 9:00 - 13:00","opening":"Tu 09:00-17:30,13:00-14:00; Th 09:00-17:30,13:00-14:00; Sa 09:00-13:00"},"title":"Forest Hall Library"},"type":"Feature"},
		{"geometry":{"coordinates":[-1.43118,54.99758],"type":"Point"},"properties":{"_source":"warm_welcome","address":"Grace Place, 20 Denmark Centre, South Shields, Tyne and Wear NE33 2LR","description":"We offer free hot drinks and scone/cake. We have a small craft table","hours":{"_text":"Monday: 11:00 - 15:00, Friday: 11:00 - 15:00, Saturday: 11:00 - 14:00","opening":"Mo 11:00-15:00; Fr 11:00-15:00; Sa 11:00-14:00"},"title":"Grace Place (Bede Methodist Circuit)"},"type":"Feature"},
		{"geometry":{"coordinates":[-1.59153,54.98790],"type":"Point"},"properties":{"_source":"warm_welcome","address":"Churchill Gardens, Jesmond, Newcastle upon Tyne NE2 1HB","description":"Open from 04-11-2022.","hours":{"_text":"Friday: 14:30 - 17:00","opening":"Fr 14:30-17:00"},"title":"Holy Trinity Church Jesmond"},"type":"Feature"},
		{"geometry":{"coordinates":[-1.62545,55.05218],"type":"Point"},"properties":{"_source":"warm_welcome","address":"St Columba's Church, North Tyneside, Tyne and Wear NE13 6NH","hours":{"_text":"Monday: 10:00 - 12:00, Wednesday: 10:00 - 11:00, Sunday: 11:00 - 12:00","opening":"Mo 10:00-12:00; We 10:00-11:00; Su 11:00-12:00"},"title":"https://www.stcolumbaswideopen.co.uk/"},"type":"Feature"},
		{"geometry":{"coordinates":[-1.43514,54.98744],"type":"Point"},"properties":{"_source":"warm_welcome","address":"St Jude's Terrace, South Tyneside, Tyne and Wear NE33 5PB","description":"Open from 01-11-2022.","hours":{"_text":"Monday: 12:30 - 15:30","opening":"Mo 12:30-15:30"},"title":"Living Waters Church"},"type":"Feature"},
		{"geometry":{"coordinates":[-1.46814,55.04039],"type":"Point"},"properties":{"_source":"warm_welcome","address":"Woodleigh Road, Monkseaton , Tyne and Wear NE258ET","description":"Services include books, magazines, newspapers, games and toys, free use of PCs and wifi, high chairs and bottle warmers. Free hot drinks available during opening hours (up to 30 mins before closing).","hours":{"_text":"Tuesday: 09:00 - 13:00 / 14:00 - 17:30, Friday: 09:00 - 13:00 / 14:00 - 17:30, Saturday: 09:00 - 13:00","opening":"Tu 09:00-13:00,14:00-17:30; Fr 09:00-13:00,14:00-17:30; Sa 09:00-13:00"},"title":"Monkseaton Library"},"type":"Feature"},
		{"geometry":{"coordinates":[-1.44576,55.01072],"type":"Point"},"properties":{"_source":"warm_welcome","address":"Northumberland Square, North Shields, Tyne and Wear NE30 1QU","description":"All welcome Services include books, magazines, newspapers, games and toys, free use of PCs and wifi, high chairs and bottle warmers. Free hot drinks available Wed 9.30 – 12.30 and Fri 2.30-5.","hours":{"_text":"Monday: 09:00 - 17:30, Tuesday: 09:00 - 17:30, Wednesday: 09:00 - 17:30, Thursday: 09:00 - 17:30, Friday: 09:00 - 17:30, Saturday: 09:00 - 13:00","opening":"Mo 09:00-17:30; Tu 09:00-17:30; We 09:00-17:30; Th 09:00-17:30; Fr 09:00-17:30; Sa 09:00-13:00"},"title":"North Shields Library"},"type":"Feature"},
		{"geometry":{"coordinates":[-1.56481,55.03545],"type":"Point"},"properties":{"_source":"warm_welcome","address":"Killingworth Library, White Swan Centre , Citadel East, Killingworth NE12 6SS","description":"Services include books, magazines, games and toys, free use of PC's and wifi, high chairs and bottle warmers. Free hot drinks available Tuesday 3pm - 5pm and Saturday 9:30am - 12:30","hours":{"_text":"Monday: 9:00 - 17:30, Tuesday: 9:00 - 17:30, Wednesday: 9:00 - 17:30, Thursday: 9:00 - 17:30, Friday: 9:00 - 17:30, Saturday: 9:00 - 13:00","opening":"Mo 09:00-17:30; Tu 09:00-17:30; We 09:00-17:30; Th 09:00-17:30; Fr 09:00-17:30; Sa 09:00-13:00"},"title":"North Tyneside Council"},"type":"Feature"},
		{"geometry":{"coordinates":[-1.44753,55.00886],"type":"Point"},"properties":{"_source":"warm_welcome","address":"Working Well, The Beacon Shopping Centre, North Shields , Tyne and Wear NE29 6QF","hours":{"_text":"Wednesday: 12:00 - 14:00, Friday: 10:00 - 12:00","opening":"We 12:00-14:00; Fr 10:00-12:00"},"title":"North Tyneside Council"},"type":"Feature"},
		{"geometry":{"coordinates":[-1.44954,55.00962],"type":"Point"},"properties":{"_source":"warm_welcome","address":"38 Nile Street, North Shields, Tyne and Wear NE29 0BB","description":"Open from 1/11/22. The warm hub is located upstairs in the Veterans Centre with free tea and coffee provided. Additional food and drinks can be purchased from our Coffee Shop downstairs.","hours":{"_text":"Tuesday: 09:30 - 14:30","opening":"Tu 09:30-14:30"},"title":"Operation Veteran"},"type":"Feature"},
		{"geometry":{"coordinates":[-1.74002,55.05004],"type":"Point"},"properties":{"_source":"warm_welcome","address":"Bell Villas, Ponteland, Northumberland NE20 9BE","description":"A drop in café where we serve soup, hot drinks and homemade cakes. A very friendly and welcoming atmosphere.","hours":{"_text":"Monday: 13:00 - 17:00","opening":"Mo 13:00-17:00"},"title":"Ponteland Methodist Church Open Door drop-in-café"},"type":"Feature"},
		{"geometry":{"coordinates":[-1.62732,55.02659],"type":"Point"},"properties":{"_source":"warm_welcome","address":"St Aidan's Church, Princes Road, Brunton Park, Newcastle upon Tyne NE3 5NF","description":"Open from 26-11-2022.","hours":{"_text":"Thursday: 14:00 - 16:00, Saturday: 10:00 - 12:00","opening":"Th 14:00-16:00; Sa 10:00-12:00"},"title":"St Aidan's Church, Brunton Park"},"type":"Feature"},
		{"geometry":{"coordinates":[-1.58843,55.00299],"type":"Point"},"properties":{"_source":"warm_welcome","address":"66 CLEVELAND GARDENS, NEWCASTLE UPON TYNE, Newcastle upon 'Tyne NE7 7QH","description":"A welcoming space for everyone and anyone","hours":{"_text":"Wednesday: 14:00 - 16:00 / -","opening":"We 14:00-16:00"},"title":"St Francis Church Hall"},"type":"Feature"},
		{"geometry":{"coordinates":[-1.43860,55.04016],"type":"Point"},"properties":{"_source":"warm_welcome","address":"109 Whitley Road, Whitley Bay, Tyne & Wear NE26 2ET","description":"Open from 01-11-2022.","hours":{},"title":"The Bay Church"},"type":"Feature"},
		{"geometry":{"coordinates":[-1.44503,55.00974],"type":"Point"},"properties":{"_source":"warm_welcome","address":"Howard Street, North Shields, Tyne and Wear NE30 1SE","description":"Open from 02/11/2022. We cater for everyone and you can enjoy up to two hot drinks for FREE Our café bar is an ideal space to work from or relax in. We have free Wi-Fi, a selection of board games, a book swap library and even a gallery displaying local art, all overseen by our friendly colleagues. Of course, your four-legged friends are welcome!","hours":{"_text":"Wednesday: 10:00 - 16:00","opening":"We 10:00-16:00"},"title":"The Exchange Theatre"},"type":"Feature"},
		{"geometry":{"coordinates":[-1.61973,55.00712],"type":"Point"},"properties":{"_source":"warm_welcome","address":"Trinity Church and Centre, High Street,, Gosforth,, Newcastle upon Tyne NE3 4AG","description":"A hot drink, friendly conversation, and a warm welcome","hours":{"_text":"Friday: 10:00 - 11:30","opening":"Fr 10:00-11:30"},"title":"Trinity Church"},"type":"Feature"},
		{"geometry":{"coordinates":[-1.53457,54.99088],"type":"Point"},"properties":{"_source":"warm_welcome","address":"Wallsend Customer First Centre 28 The Forum, Wallsend, North Tyneside NE28 8JR","hours":{"_text":"Monday: 09:00 - 17:30, Tuesday: 09:00 - 17:30, Wednesday: 09:00 - 17:30, Thursday: 09:00 - 17:30, Friday: 09:00 - 17:30, Saturday: 09:00 - 13:00","opening":"Mo 09:00-17:30; Tu 09:00-17:30; We 09:00-17:30; Th 09:00-17:30; Fr 09:00-17:30; Sa 09:00-13:00"},"title":"Wallsend Library"},"type":"Feature"},
		{"geometry":{"coordinates":[-1.47354,54.98073],"type":"Point"},"properties":{"_source":"warm_welcome","address":"St. Paul's Church, Church Bank, Jarrow NE32 3DZ","description":"Everyone is welcome at St. Paul's there has been a welcome at St. Paul's for over 1300 years and we look forward to meeting people of all ages.","hours":{"_text":"Monday: 11:00 - 15:00 / -, Saturday: 11:00 - 15:00 / -","opening":"Mo 11:00-15:00; Sa 11:00-15:00"},"title":"Warm Spaces at St. Paul's Jarrow"},"type":"Feature"},
		{"geometry":{"coordinates":[-1.70653,54.98887],"type":"Point"},"properties":{"_source":"warm_welcome","address":"West Denton Community Church Middlegate, Newcastle, Newcastle Upon Tyne NE5 5AY","description":"Everyone is welcome. Come and join us at our free community cafe. Come and enjoy a warm space with others in the community. Read a paper, play cards, have a chat and make friends. You're welcome to bring with you some knitting or your own book.","hours":{"_text":"Saturday: 09:00 - 12:00 / - Monthly","opening":"Sa 09:00-12:00"},"title":"West Denton Community Church"},"type":"Feature"},
		{"geometry":{"coordinates":[-1.69856,55.00165],"type":"Point"},"properties":{"_source":"warm_welcome","address":"Stamfordham Road, Westerhope, Newcastle upon Tyne NE5 5HA","description":"Open from 09-01-2023.","hours":{"_text":"Monday: 10:00 - 11:45","opening":"Mo 10:00-11:45"},"title":"Westerhope Methodist Church"},"type":"Feature"},
		{"geometry":{"coordinates":[-1.42846,54.99404],"type":"Point"},"properties":{"_source":"warm_welcome","address":"Romilly Street, South Shields , South Tyneside NE33 2SP","description":"Open from 20th November 2022. We are open for a relaxed drop-in with soup every Sunday 1-2pm. Families are welcomed to join us for a movie with food provided and optional activities every other Sunday 4-6pm starting the 20th November.","hours":{"_text":"Sunday: 13:00 - 14:00 / 16:00 - 18:00 Fortnightly","opening":"Su 13:00-14:00,16:00-18:00"},"title":"Westoe Road Baptist Church"},"type":"Feature"},
		{"geometry":{"coordinates":[-1.44942,55.04330],"type":"Point"},"properties":{"_source":"warm_welcome","address":"Whitley Bay Baptist Church, Park Avenue, Whitley Bay, North Tyneside NE26 DX","description":"Open from 01-11-2022.","hours":{"_text":"Tuesday: 9:00 - 17:00","opening":"Tu 09:00-17:00"},"title":"Whitley Bay Baptist Church"},"type":"Feature"},
		{"geometry":{"coordinates":[-1.43978,55.04105],"type":"Point"},"properties":{"_source":"warm_welcome","address":"158 Whitley Road, Whitley Bay, Tyne and Wear NE26 2LY","description":"We are a completely inclusive space. Parents are required to supervise children at all times.","hours":{"_text":"Monday: 12:00 - 16:00, Thursday: 10:00 - 17:00, Friday: 10:00 - 16:30","opening":"Mo 12:00-16:00; Th 10:00-17:00; Fr 10:00-16:30"},"title":"Whitley Bay Big Local"},"type":"Feature"},
		{"geometry":{"coordinates":[-1.44493,55.04290],"type":"Point"},"properties":{"_source":"warm_welcome","address":"Whitley Bay CFC York Road, Whitley Bay, North Tyneside NE26 1AB","description":"Services include Books, magazines, newspaper, games & toys, free use of PCs & Wi Fi, highchairs & bottle warmers. Free hot drinks available Mon 2:30pm-5:00pm & Fri 9:30am-12:30pm","hours":{"_text":"Monday: 09:00 - 17:30, Tuesday: 09:00 - 17:30, Wednesday: 09:00 - 17:30, Thursday: 09:00 - 17:30, Friday: 09:00 - 17:30, Saturday: 09:00 - 13:05","opening":"Mo 09:00-17:30; Tu 09:00-17:30; We 09:00-17:30; Th 09:00-17:30; Fr 09:00-17:30; Sa 09:00-13:05"},"title":"Whitley Bay Library North Tyneside Libraries"},"type":"Feature"},
		{"geometry":{"coordinates":[-1.62815,55.04480],"type":"Point"},"properties":{"_source":"warm_welcome","address":"Canterbury Way , Wideopen, Newcastle upon Tyne NE13 6JJ","description":"Services include books, magazines, newspapers, games and toys, free use of PCs and wifi, high chairs and bottle warmer. Free hot drinks available during opening hours.","hours":{"_text":"Tuesday: 09:00 - 13:00 / 14:00 - 17:30, Thursday: 09:00 - 13:00 / 14:00 - 17:30, Saturday: 09:00 - 13:00","opening":"Tu 09:00-13:00,14:00-17:30; Th 09:00-13:00,14:00-17:30; Sa 09:00-13:00"},"title":"Wideopen Library"},"type":"Feature"},
		{"geometry":{"coordinates":[-1.69963,54.99233],"type":"Point"},"properties":{"_source":"warm_spaces","address":"West Denton Way, Newcastle upon Tyne, England, NE5 2QZ","hours":{"_text":"Tues &amp; Sat 10am-2pm, Thur 10am-6pm, Fri 10am-5pm","opening":"Tu 10:00-14:00; Sa 10:00-14:00; Th 10:00-18:00; Fr 10:00-17:00"},"title":"Outer West Library and Community Hub","url":"https://www.facebook.com/NewcastleLibraries/"},"type":"Feature"},
		{"geometry":{"coordinates":[-1.73753,54.98138],"type":"Point"},"properties":{"_source":"warm_spaces","address":"High Street, Newcastle upon Tyne, England, NE15 8LN","hours":{"_text":"Mon &amp; Sat 10am-2pm, Tues 10am-12.30pm and 1pm-5pm, Fri 1pm-5pm","opening":"Mo 10:00-14:00; Sa 10:00-14:00; Tu 10:00-12:30,13:00-17:00; Fr 13:00-17:00"},"title":"Newburn Library","url":"https://www.facebook.com/NewcastleLibraries/"},"type":"Feature"},
		{"geometry":{"coordinates":[-1.65335,55.00562],"type":"Point"},"properties":{"_source":"warm_spaces","address":"Hillsview Avenue, Newcastle upon Tyne, England, NE3 3QJ","hours":{"_text":"Tues/Sat 10am-2pm, Thur 10am-6pm, Fri 10am-5pm","opening":"Tu 10:00-14:00; Sa 10:00-14:00; Th 10:00-18:00; Fr 10:00-17:00"},"title":"Kenton Library","url":"https://www.facebook.com/NewcastleLibraries/"},"type":"Feature"},
		{"geometry":{"coordinates":[-1.58651,54.99571],"type":"Point"},"properties":{"_source":"warm_spaces","address":"Newton Place, Newcastle upon Tyne, England, NE7 7HD","hours":{"_text":"Tues/Thur 9.30am-1pm &amp; 1.30pm-5pm, Sat 10am-1pm","opening":"Tu 09:30-13:00; Th 09:30-13:00; Sa 10:00-13:00"},"title":"High Heaton Library","url":"https://www.facebook.com/NewcastleLibraries/"},"type":"Feature"},
		{"geometry":{"coordinates":[-1.63034,55.01105],"type":"Point"},"properties":{"_source":"warm_spaces","address":"Regent Farm Road, Newcastle upon Tyne, England, NE3 3HD","hours":{"_text":"Tues 10am-6pm, Wed/Sat 10am-2pm, Fri 10am-5pm","opening":"We 10:00-14:00; Sa 10:00-14:00; Tu 10:00-18:00; Fr 10:00-17:00"},"title":"Gosforth Library","url":"https://www.facebook.com/NewcastleLibraries/"},"type":"Feature"},
		{"geometry":{"coordinates":[-1.66022,54.98445],"type":"Point"},"properties":{"_source":"warm_spaces","address":"Fenham Hall Drive, Newcastle upon Tyne, England, NE4 9XD","hours":{"_text":"Mon/Wed/Fri 10am-5pm, Tues 10am-3pm, Thur 12 noon-5pm, Sat 10am-2pm","opening":"Mo 10:00-17:00; We 10:00-17:00; Fr 10:00-17:00; Tu 10:00-15:00; Th 12:00-17:00; Sa 10:00-14:00"},"title":"Fenham Library","url":"https://www.facebook.com/NewcastleLibraries/"},"type":"Feature"},
		{"geometry":{"coordinates":[-1.68723,54.98305],"type":"Point"},"properties":{"_source":"warm_spaces","address":"677 West Road, Newcastle upon Tyne, England, NE15 7QQ","hours":{"_text":"Mon &amp; Thur 10am-1pm and 1.30pm-5pm, Sat 10am-2pm","opening":"Mo 10:00-13:00,13:30-17:00; Th 10:00-13:00,13:30-17:00; Sa 10:00-14:00"},"title":"Denton Burn Library","url":"https://www.facebook.com/NewcastleLibraries/"},"type":"Feature"},
		{"geometry":{"coordinates":[-1.43198,55.03580],"type":"Point"},"properties":{"_source":"warm_spaces","address":"Front Street, North Shields, England, NE30 4QB","hours":{"_text":"Monday 10am-4pm (often open earlier) to end Feb at least","opening":"Mo 10:00-16:00"},"title":"Cullercoats Watch House","url":"https://www.cullercoatswatchhouse.com"},"type":"Feature"},
		{"geometry":{"coordinates":[-1.59198,55.01268],"type":"Point"},"properties":{"_source":"warm_spaces","address":"West Farm Avenue, Newcastle upon Tyne, England, NE12 8RU","hours":{"_text":"Wednesday, 9am-1pm","opening":"We 09:00-13:00"},"title":"St Mary Magdalene Church","url":"https://www.facebook.com/search/top?q=st.%20mary%20magdalene%2C%20longbenton%20c%20of%20e"},"type":"Feature"},
		{"geometry":{"coordinates":[-1.62569,55.03534],"type":"Point"},"properties":{"_source":"warm_spaces","address":"Rotary Way, Newcastle upon Tyne, England, NE3 5EH","hours":{"_text":"11am-7pm"},"title":"Mimis Ice Cream Parlour","url":"https://www.facebook.com/mimisicecreamemporium"},"type":"Feature"},
		{"geometry":{"coordinates":[-1.70644,54.98857],"type":"Point"},"properties":{"_source":"warm_spaces","address":"West Denton Community Church, 5 Middle Gate, Newcastle upon Tyne, England, NE5 5AY","hours":{"_text":"First Saturday of every month 9.30am-12.00","opening":"Sa[1] 09:30-12:00"},"title":"West Denton Community Church","url":"https://www.wdcchurch.com"},"type":"Feature"},
		{"geometry":{"coordinates":[-1.59868,55.13220],"type":"Point"},"properties":{"address":"Bedlington Library, Glebe Road, Bedlington, Northumberland, NE22 6JX","hours":{},"loc_pcd":true,"title":"Bedlington Library","url":"https://central.northumberlandfrontline.org.uk/Library/ServiceDetail/621635f4324c081715fcce1f"},"type":"Feature"},
		{"geometry":{"coordinates":[-1.56852,55.14096],"type":"Point"},"properties":{"address":"East Bedlington Community Centre, 16 - 17 Station Street, Bedlington, Northumberland, NE22 7JN","hours":{},"loc_pcd":true,"title":"Bedlington Station Library","url":"https://central.northumberlandfrontline.org.uk/Library/ServiceDetail/621635f4324c081715fcce1f"},"type":"Feature"},
		{"geometry":{"coordinates":[-1.60496,55.13267],"type":"Point"},"properties":{"address":"The Lodge, St Benet Biscop Catholic Academy, Ridge Terrace, Bedlington, Northumberland, NE22 6ED","hours":{},"loc_pcd":true,"title":"Leading Link","url":"Bedlington, Hartford Bridge"},"type":"Feature"},
		{"geometry":{"coordinates":[-1.56852,55.14096],"type":"Point"},"properties":{"address":"East Bedlington Community Centre, 16 - 17 Station Street, Bedlington, Northumberland, NE22 7JN","hours":{},"loc_pcd":true,"title":"East Bedlington Community Centre","url":"https://southeast.northumberlandfrontline.org.uk/Library/ServiceDetail/63726bc7bf5ac9529f9d1e9f"},"type":"Feature"},
		{"geometry":{"coordinates":[-1.52138,55.14614],"type":"Point"},"properties":{"address":"St Andrews Church, Unity Terrace, Cambois, Blyth, Northumberland, NE24 1QU","hours":{},"loc_pcd":true,"title":"St Andrews Church","url":"Blyth, Newsham"},"type":"Feature"},
		{"geometry":{"coordinates":[-1.50689,55.12706],"type":"Point"},"properties":{"address":"Blyth Library, 20 Bridge Street, Blyth, Northumberland, NE24 2DJ","hours":{},"loc_pcd":true,"title":"Blyth Library","url":"https://southeast.northumberlandfrontline.org.uk/Library/ServiceDetail/621635f4324c081715fcce1f"},"type":"Feature"},
		{"geometry":{"coordinates":[-1.50201,55.12809],"type":"Point"},"properties":{"address":"118 Community Enterprise Centre, Ridley Street, Blyth, Northumberland, NE24 3AG","hours":{},"loc_pcd":true,"title":"BRIC, Blyth Community Centre","url":"https://southeast.northumberlandfrontline.org.uk/Library/ServiceDetail/633d4c3d3d4e860c0a57550c"},"type":"Feature"},
		{"geometry":{"coordinates":[-1.51831,55.12464],"type":"Point"},"properties":{"address":"St Wilfrids Church Hall, Claremont Terrace, Blyth, Northumberland, NE24 2LE","hours":{},"loc_pcd":true,"title":"Community Food and Friendship Blyth","url":"Blyth, Newsham"},"type":"Feature"},
		{"geometry":{"coordinates":[-1.54186,55.12669],"type":"Point"},"properties":{"address":"Briardale Community Centre, Briardale Road, Cowpen, Blyth, Northumberland, NE24 5LA","hours":{},"loc_pcd":true,"title":"Briardale House Youth &amp; Community Projects Ltd","url":"https://southeast.northumberlandfrontline.org.uk/Library/ServiceDetail/633c35373d4e860c0a5241d9"},"type":"Feature"},
		{"geometry":{"coordinates":[-1.50846,55.12754],"type":"Point"},"properties":{"address":"4 Keel Row, Union Street, Blyth, Northumberland, NE24 1AH","hours":{},"loc_pcd":true,"title":"Blyth Pride of Place Project Space","url":"Blyth, Newsham"},"type":"Feature"},
		{"geometry":{"coordinates":[-1.50629,55.12685],"type":"Point"},"properties":{"address":"20 Stanley Street, Blyth, Northumberland, NE24 2BU","hours":{},"loc_pcd":true,"title":"Blyth Valley Disabled Forum","url":"Blyth, Newsham"},"type":"Feature"},
		{"geometry":{"coordinates":[-1.52040,55.12522],"type":"Point"},"properties":{"address":"Blyth Sports Centre, Bolam Avenue, Blyth, Northumberland, NE24 5BT","hours":{},"loc_pcd":true,"title":"Blyth Sports Centre","url":"Blyth, Newsham"},"type":"Feature"},
		{"geometry":{"coordinates":[-1.56888,55.09612],"type":"Point"},"properties":{"address":"1 Axminster Close, Cramlington, Northumberland, NE23 2UA","hours":{},"loc_pcd":true,"title":"Cramlington Community House,","url":"Cramlington"},"type":"Feature"},
		{"geometry":{"coordinates":[-1.59182,55.08504],"type":"Point"},"properties":{"address":"The Hub at Cramlington, Forum Way, Cramlington, Northumberland, NE23 6YB","hours":{},"loc_pcd":true,"title":"Cramlington Library","url":"https://southeast.northumberlandfrontline.org.uk/Library/ServiceDetail/621635f4324c081715fcce1f"},"type":"Feature"},
		{"geometry":{"coordinates":[-1.59182,55.08504],"type":"Point"},"properties":{"address":"Concordia Leisure Centre, Forum Way, Cramlington, Northumberland, NE23 6YB","hours":{},"loc_pcd":true,"title":"Concordia Leisure Centre","url":"Cramlington"},"type":"Feature"},
		{"geometry":{"coordinates":[-1.58940,55.08735],"type":"Point"},"properties":{"address":"Welcome Methodist Church, Station Road, Cramlington, Northumberland, NE23 1EN","hours":{},"loc_pcd":true,"title":"CHARLEYs coffee and chat","url":"https://central.northumberlandfrontline.org.uk/Library/ServiceDetail/636a7544bf5ac9529f79408a"},"type":"Feature"},
		{"geometry":{"coordinates":[-1.58430,55.08609],"type":"Point"},"properties":{"address":"St Nicholas Church, Church Street, Cramlington, Northumberland, NE23 6QQ","hours":{},"loc_pcd":true,"title":"St Nicholas' Church","url":"Cramlington"},"type":"Feature"},
		{"geometry":{"coordinates":[-1.58366,55.08658],"type":"Point"},"properties":{"address":"Cramlington Masonic Hall, Cramlington, Northumberland, NE23 1DN","hours":{},"loc_pcd":true,"title":"Cramlington Masonic Building","url":"Cramlington"},"type":"Feature"},
		{"geometry":{"coordinates":[-1.51798,55.08406],"type":"Point"},"properties":{"address":"Hartley Memorial Hall, St Michaels Avenue, New Hartley, Whitley Bay, Northumberland, NE25 0RP","hours":{},"loc_pcd":true,"title":"New Hartley Community Association (Memorial Hall)","url":"Monkseaton, New Hartley, Holywell, Seaton Delaval"},"type":"Feature"},
		{"geometry":{"coordinates":[-1.50198,55.06447],"type":"Point"},"properties":{"address":"Holywell Veterans Hut, Holywell Dene Road, Holywell, Whitley Bay, Northumberland, NE25 0LB","hours":{},"loc_pcd":true,"title":"Holywell Community Centre - Veterans Hut","url":"Monkseaton, New Hartley, Holywell, Seaton Delaval"},"type":"Feature"},
		{"geometry":{"coordinates":[-1.52588,55.07062],"type":"Point"},"properties":{"address":"Seaton Valley Library, Astley Community High School, Elsdon Avenue, Seaton Delaval, Whitley Bay, Northumberland, NE25 0BW","hours":{},"loc_pcd":true,"title":"Seaton Valley Library","url":"https://southeast.northumberlandfrontline.org.uk/Library/ServiceDetail/621635f4324c081715fcce1f"},"type":"Feature"},
		{"geometry":{"coordinates":[-1.68437,55.16851],"type":"Point"},"properties":{"address":"Reiver House, Staithes Lane, Low Stanners, Morpeth, Northumberland, NE61 1TD","hours":{},"loc_pcd":true,"title":"Reiver House","url":"https://west.northumberlandfrontline.org.uk/Library/ServiceDetail/620d079f850dab9c0ec95433"},"type":"Feature"},
		{"geometry":{"coordinates":[-1.69106,55.16600],"type":"Point"},"properties":{"address":"Riverside Leisure Centre, Newmarket, Morpeth, Northumberland, NE61 1PR","hours":{},"loc_pcd":true,"title":"Morpeth Leisure Centre","url":"Morpeth, Tranwell, Clifton Hepscott"},"type":"Feature"},
		{"geometry":{"coordinates":[-1.67485,55.15926],"type":"Point"},"properties":{"address":"Stobhill Centre, Ninth Avenue, Stobhill Gate, Morpeth, Northumberland, NE61 2HS","hours":{},"loc_pcd":true,"title":"Stobhill Community Centre","url":"https://central.northumberlandfrontline.org.uk/Library/ServiceDetail/632c95f63d4e860c0a1969b7"},"type":"Feature"},
		{"geometry":{"coordinates":[-1.68773,55.17004],"type":"Point"},"properties":{"address":"New Life Christian Centre, 24 Dacre Street, Morpeth, Northumberland, NE61 1HW","hours":{},"loc_pcd":true,"title":"New Life Christian Centre","url":"Morpeth, Tranwell, Clifton Hepscott"},"type":"Feature"},
		{"geometry":{"coordinates":[-1.69101,55.16908],"type":"Point"},"properties":{"address":"52 Newgate Street, Morpeth, Northumberland, NE61 1BE","hours":{},"loc_pcd":true,"title":"Cafe des Amis","url":"Morpeth, Tranwell, Clifton Hepscott"},"type":"Feature"},
		{"geometry":{"coordinates":[-1.69059,55.16965],"type":"Point"},"properties":{"address":"Royal Sovereign House, Manchester Street, Morpeth, Northumberland, NE61 1AF","hours":{},"loc_pcd":true,"title":"Morpeth Library","url":"https://central.northumberlandfrontline.org.uk/Library/ServiceDetail/621635f4324c081715fcce1f"},"type":"Feature"},
		{"geometry":{"coordinates":[-1.67785,55.15925],"type":"Point"},"properties":{"address":"37 Shields Road, Stobhill Gate, Morpeth, Northumberland, NE61 2SA","hours":{},"loc_pcd":true,"title":"Stobhill Link","url":"https://north.northumberlandfrontline.org.uk/Library/ServiceDetail/6310aad459210faf7d544322"},"type":"Feature"},
		{"geometry":{"coordinates":[-1.74242,55.04714],"type":"Point"},"properties":{"address":"Ponteland Library, The Crescent, Callerton Lane, Ponteland, Newcastle Upon Tyne, Northumberland, NE20 9EG","hours":{},"loc_pcd":true,"title":"Ponteland Library","url":"https://west.northumberlandfrontline.org.uk/Library/ServiceDetail/621635f4324c081715fcce1f"},"type":"Feature"},
		{"geometry":{"coordinates":[-1.74004,55.04992],"type":"Point"},"properties":{"address":"Methodist Church, Bell Villas, Ponteland, Newcastle Upon Tyne, Northumberland, NE20 9BE","hours":{},"loc_pcd":true,"title":"Ponteland Methodist Church Open Door drop in café","url":"Ponteland"},"type":"Feature"},
		{"geometry":{"coordinates":[-1.74242,55.04714],"type":"Point"},"properties":{"address":"Ponteland Leisure Centre, The Crescent, Callerton Lane, Ponteland, Newcastle Upon Tyne, Northumberland, NE20 9EG","hours":{},"loc_pcd":true,"title":"Ponteland Leisure Centre","url":"Ponteland"},"type":"Feature"},
		{"geometry":{"coordinates":[-1.74454,55.05018],"type":"Point"},"properties":{"address":"Merton Hall, Merton Way, Ponteland, Newcastle Upon Tyne, Northumberland, NE20 9PX","hours":{},"loc_pcd":true,"title":"Merton Hall Recreation Centre","url":"Ponteland"},"type":"Feature"},
		{"geometry":{"coordinates":[-1.60078,55.16033],"type":"Point"},"properties":{"address":"Guide Post Community Centre, Cleaswell Hill, Guide Post, Choppington, Northumberland, NE62 5DW","hours":{},"loc_pcd":true,"title":"Guide Post Library","url":"https://central.northumberlandfrontline.org.uk/Library/ServiceDetail/621635f4324c081715fcce1f"},"type":"Feature"},
		{"geometry":{"coordinates":[-1.60278,55.16314],"type":"Point"},"properties":{"address":"Sheepwash Bank, Guide Post, Choppington, Northumberland, NE62 5NB","hours":{},"loc_pcd":true,"title":"Anglers Arms","url":"Scotland Gate, Guidepost, Stakeford, West Sleekburn, Bomarsund"},"type":"Feature"},
		{"geometry":{"coordinates":[-1.57650,55.16232],"type":"Point"},"properties":{"address":"Stakeford And Bomarsund Welfare Centre, Gordon Terrace, Stakeford, Choppington, Northumberland, NE62 5UD","hours":{},"loc_pcd":true,"title":"Stakeford and Bomarsund Welfare Centre","url":"Scotland Gate, Guidepost, Stakeford, West Sleekburn, Bomarsund"},"type":"Feature"},
		{"geometry":{"coordinates":[-1.47224,55.08275],"type":"Point"},"properties":{"address":"Seaton Sluice Library, Seaton Sluice Community Centre, Albert Road, Seaton Sluice, Whitley Bay, Northumberland, NE26 4QX","hours":{},"loc_pcd":true,"title":"Seaton Sluice Library","url":"https://southeast.northumberlandfrontline.org.uk/Library/ServiceDetail/621635f4324c081715fcce1f"},"type":"Feature"}
	]
}
