{
	"type": "FeatureCollection",
	"features": [
		{"geometry":{"coordinates":[-1.74002,55.05004],"type":"Point"},"properties":{"_source":"warm_welcome","address":"Bell Villas, Ponteland, Northumberland NE20 9BE","description":"A drop in café where we serve soup, hot drinks and homemade cakes. A very friendly and welcoming atmosphere.","hours":{"_text":"Monday: 13:00 - 16:00","opening":"Mo 13:00-16:00"},"title":"Open Door drop-in-café"},"type":"Feature"},
		{"geometry":{"coordinates":[-1.51838,55.00544],"type":"Point"},"properties":{"_source":"warm_welcome","address":"North Tyneside Council, Tyne and Wear NE28 9PA","description":"All welcome Services include books, magazines, newspapers, games and toys, free use of PCs and WiFi, high chairs and bottle warmers. Free hot drinks available Tuesday and Thursdays 9 am - 12.45 pm and 2 pm - 5 pm, as well as Saturdays 9 am - 12.45 pm.","hours":{"_text":"Tuesday: 09:00 - 13:00 / 14:00 - 17:30, Thursday: 09:00 - 13:00 / 14:00 - 17:50, Saturday: 09:00 - 13:00","opening":"Tu 09:00-13:00,14:00-17:30; Th 09:00-13:00,14:00-17:50; Sa 09:00-13:00"},"title":"Battle Hill Library"},"type":"Feature"},
		{"geometry":{"coordinates":[-1.67271,54.99829],"type":"Point"},"properties":{"_source":"warm_welcome","address":"Lesiure United, Newcastle upon Tyne, Tyne and Wear NE5 3TS","description":"Branch library at the heart of the community. Borrow books for free and take part in our events and activities.","hours":{"_text":"Wednesday: 10:00 - 02:00, Friday: 13:00 - 17:00","opening":"We 10:00-02:00; Fr 13:00-17:00"},"title":"Blakelaw Library at Leisure United"},"type":"Feature"},
		{"geometry":{"coordinates":[-1.51832,55.12314],"type":"Point"},"properties":{"_source":"warm_welcome","address":"Northumberland County Council, Blyth, Northumberland NE24 2DJ","description":"We are a public library so accessible and open to all.","hours":{"_text":"Monday: 09:00 - 19:00, Tuesday: 09:00 - 17:00, Wednesday: 09:00 - 17:00, Thursday: 09:00 - 17:00, Friday: 09:00 - 17:00, Saturday: 09:30 - 12:30","opening":"Mo 09:00-19:00; Tu 09:00-17:00; We 09:00-17:00; Th 09:00-17:00; Fr 09:00-17:00; Sa 09:30-12:30"},"title":"Blyth library"},"type":"Feature"},
		{"geometry":{"coordinates":[-1.70640,54.98860],"type":"Point"},"properties":{"_source":"warm_welcome","address":"West Denton Community Church, Newcastle upon Tyne, Tyne and Wear NE5 5AY","description":"A free community cafe open to everyone. With delicious baking, a fresh cuppa and a warm welcome for all.","hours":{"_text":"Wednesday: 10:00 - 11:30","opening":"We 10:00-11:30"},"title":"Cafe Connect"},"type":"Feature"},
		{"geometry":{"coordinates":[-1.55889,54.98474],"type":"Point"},"properties":{"_source":"warm_welcome","address":"Ambassador Hall, 3 Coutts Road, Walkergate, Newcastle upon Tyne NE6 4RB","description":"Light refreshments and conversation.","hours":{"_text":"Friday: 12:00 - 16:00, Sunday: 11:30 - 12:30","opening":"Fr 12:00-16:00; Su 11:30-12:30"},"title":"Church Hall in Coutts Road"},"type":"Feature"},
		{"geometry":{"coordinates":[-1.71591,54.99593],"type":"Point"},"properties":{"_source":"warm_welcome","address":"Church Of The Holy Nativity, Newcastle upon Tyne, Tyne and Wear NE5 1DR","description":"We have a drop-in open to all Mondays, Wednesdays, Fridays 10-1:30pm in a separate room with books and comfy chairs. This open to all and separate from the worship area (which is also open for anyone to use).","hours":{"_text":"Monday: 10:00 - 13:30, Wednesday: 10:00 - 13:30, Friday: 10:00 - 13:30","opening":"Mo 10:00-13:30; We 10:00-13:30; Fr 10:00-13:30"},"title":"Church of the Holy Nativity"},"type":"Feature"},
		{"geometry":{"coordinates":[-1.43634,55.03407],"type":"Point"},"properties":{"_source":"warm_welcome","address":"St Georges Road, Cullercoats, Tyne and Wear NE303JY","description":"Services include books, magazines, games and toys, free use of PCs and wifi, bottle warmers. Free hot drinks available during opening hours.","hours":{"_text":"Tuesday: 09:00 - 13:00 / 14:00 - 17:30, Friday: 09:00 - 13:00 / 14:00 - 17:30, Saturday: 09:00 - 13:00","opening":"Tu 09:00-13:00,14:00-17:30; Fr 09:00-13:00,14:00-17:30; Sa 09:00-13:00"},"title":"Cullercoats Library"},"type":"Feature"},
		{"geometry":{"coordinates":[-1.68555,54.98282],"type":"Point"},"properties":{"_source":"warm_welcome","address":"677 West Road, Tyne and Wear NE15 7QQ","description":"Branch Library in the heart of the community. Borrow books for free, use public PCs/WiFi and print or photocopy for a small charge. Check out our events and activities.","hours":{"_text":"Monday: 10:00 - 17:00, Thursday: 10:00 - 17:00, Saturday: 10:00 - 14:00","opening":"Mo 10:00-17:00; Th 10:00-17:00; Sa 10:00-14:00"},"title":"Denton Burn Library"},"type":"Feature"},
		{"geometry":{"coordinates":[-1.59560,55.05548],"type":"Point"},"properties":{"_source":"warm_welcome","address":"Market Street, Cramlington, Tyne and Wear NE23 7HS","description":"All welcome. Services include books, magazines, games and toys, free use of PCs and wifi, high chairs and bottle warmers. Free hot drinks and a snack available Tuesday, 2.30pm - 5pm. Children's food activities provided by Pretendy Chef programme, Quadrant Leisure CIC. Free hot drinks Thursdays 2pm - 5pm.","hours":{"_text":"Tuesday: 09:00 - 13:00 / 14:00 - 17:30, Thursday: 09:00 - 13:00 / 14:00 - 17:30, Saturday: 09:00 - 13:00","opening":"Tu 09:00-13:00,14:00-17:30; Th 09:00-13:00,14:00-17:30; Sa 09:00-13:00"},"title":"Dudley Library"},"type":"Feature"},
		{"geometry":{"coordinates":[-1.66033,54.98450],"type":"Point"},"properties":{"_source":"warm_welcome","address":"159 Fenham Hall Drive, Newcastle upon Tyne, Tyne and Wear NE4 9XD","description":"Branch Library in the heart of the community. Borrow books for free, use public PCs/WiFi and print or photocopy for a small charge. Check out our events and activities.","hours":{"_text":"Monday: 10:00 - 17:00, Tuesday: 10:00 - 15:00, Wednesday: 10:00 - 17:00, Thursday: 12:00 - 17:00, Friday: 10:00 - 17:00, Saturday: 10:00 - 14:00","opening":"Mo 10:00-17:00; Tu 10:00-15:00; We 10:00-17:00; Th 12:00-17:00; Fr 10:00-17:00; Sa 10:00-14:00"},"title":"Fenham Library"},"type":"Feature"},
		{"geometry":{"coordinates":[-1.63016,55.01106],"type":"Point"},"properties":{"_source":"warm_welcome","address":"Gosforth Library & Learning Centre, Newcastle upon Tyne, Tyne and Wear NE3 3HD","description":"Branch Library in the heart of the community. Borrow books for free, use public PCs/WiFi and print or photocopy for a small charge. Check out our events and activities.","hours":{"_text":"Monday: 10:00 - 17:00, Tuesday: 10:00 - 18:00, Wednesday: 10:00 - 14:00, Thursday: 10:00 - 18:00, Friday: 10:00 - 17:00, Saturday: 10:00 - 14:00","opening":"Mo 10:00-17:00; Tu 10:00-18:00; We 10:00-14:00; Th 10:00-18:00; Fr 10:00-17:00; Sa 10:00-14:00"},"title":"Gosforth Library"},"type":"Feature"},
		{"geometry":{"coordinates":[-1.43129,54.99843],"type":"Point"},"properties":{"_source":"warm_welcome","address":"20 Denmark Centre, Tyne and Wear NE33 2LR","description":"free coffee shop - hot drink and scone or cheese roll, chat, support","hours":{"_text":"Monday: 11:00 - 15:00, Wednesday: 11:00 - 14:00, Friday: 11:00 - 15:00","opening":"Mo 11:00-15:00; We 11:00-14:00; Fr 11:00-15:00"},"title":"Grace Place."},"type":"Feature"},
		{"geometry":{"coordinates":[-1.65938,54.98942],"type":"Point"},"properties":{"_source":"warm_welcome","address":"The Salvation Army, Tyne and Wear NE5 3JQ","description":"Welcome Warm Space All Welcome A Safe Space to Meet with Friends and Make New Friends Free Refreshments Available","hours":{"_text":"Tuesday: 10:00 - 14:00, Thursday: 10:00 - 14:00","opening":"Tu 10:00-14:00; Th 10:00-14:00"},"title":"he Salvation Army - Worship & Community Centre (Newcastle Upon Tyne)"},"type":"Feature"},
		{"geometry":{"coordinates":[-1.59143,54.98792],"type":"Point"},"properties":{"_source":"warm_welcome","address":"Holy Trinity Church, Tyne and Wear NE2 1HB","description":"Coffee and Connect. Drinks and chat in Chapel coffee lounge","hours":{"_text":"Wednesday: 10:30 - 12:00","opening":"We 10:30-12:00"},"title":"Holy Trinity Church Jesmond"},"type":"Feature"},
		{"geometry":{"coordinates":[-1.50358,54.99656],"type":"Point"},"properties":{"_source":"warm_welcome","address":"North Tyneside Council, Tyne and Wear NE28 7TG","description":"All welcome Services include books, magazines, newspapers, games and toys, free use of PCs and wifi, high chairs and bottle warmers. Free hot drinks available during opening hours.","hours":{"_text":"Tuesday: 09:00 - 13:00 / 14:00 - 17:30, Thursday: 09:00 - 13:00 / 14:00 - 17:30, Saturday: 09:00 - 13:00","opening":"Tu 09:00-13:00,14:00-17:30; Th 09:00-13:00,14:00-17:30; Sa 09:00-13:00"},"title":"Howdon Library"},"type":"Feature"},
		{"geometry":{"coordinates":[-1.65326,55.00523],"type":"Point"},"properties":{"_source":"warm_welcome","address":"Kenton Centre, Newcastle upon Tyne, Tyne and Wear NE3 3QJ","description":"Branch Library in the heart of the community. Borrow books for free, use public PCs/WiFi and print or photocopy for a small charge. Check out our events and activities.","hours":{"_text":"Monday: 10:00 - 17:00, Tuesday: 10:00 - 14:00, Thursday: 10:00 - 18:00, Saturday: 10:00 - 14:00","opening":"Mo 10:00-17:00; Tu 10:00-14:00; Th 10:00-18:00; Sa 10:00-14:00"},"title":"Kenton Library"},"type":"Feature"},
		{"geometry":{"coordinates":[-1.71457,54.97782],"type":"Point"},"properties":{"_source":"warm_welcome","address":"1 Algernon Road, Newcastle upon Tyne, Newcastle upon Tyne NE15 8DT","description":"Methodist church at the heart of the community in Lemington. The hall is situated on the ground floor where all warm space-related activities take place, and is wheelchair accessible.","hours":{"_text":"Tuesday: 09:30 - 11:30, Thursday: 17:00 - 18:30","opening":"Tu 09:30-11:30; Th 17:00-18:30"},"title":"Lemington Methodist Church"},"type":"Feature"},
		{"geometry":{"coordinates":[-1.43471,54.98723],"type":"Point"},"properties":{"_source":"warm_welcome","address":"Living Waters Church, South Shields, Tyne and Wear NE33 5PB","description":"Warm welcome space providing food and company in a relaxed atmosphere.","hours":{"_text":"Thursday: 13:00 - 16:00","opening":"Th 13:00-16:00"},"title":"Living Waters Church"},"type":"Feature"},
		{"geometry":{"coordinates":[-1.46814,55.04039],"type":"Point"},"properties":{"_source":"warm_welcome","address":"Woodleigh Road, Monkseaton, Tyne and Wear NE258ET","description":"Services include books, magazines, newspapers, games and toys, free use of PCs and wifi, high chairs and bottle warmers. Free hot drinks available during opening hours (up to 60 mins before closing). Services include books, magazines, newspapers, games and toys, free use of PCs and wifi, high chairs and bottle warmers. Free hot drinks available during opening hours (up to 30 mins before closing).","hours":{"_text":"Tuesday: 09:00 - 13:00 / 14:00 - 17:30, Friday: 09:00 - 13:00 / 14:00 - 17:30, Saturday: 09:00 - 13:00","opening":"Tu 09:00-13:00,14:00-17:30; Fr 09:00-13:00,14:00-17:30; Sa 09:00-13:00"},"title":"Monkseaton Library"},"type":"Feature"},
		{"geometry":{"coordinates":[-1.73755,54.98139],"type":"Point"},"properties":{"_source":"warm_welcome","address":"Newburn High Street, NE15 8LN","description":"Branch Library in the heart of the community. Borrow books for free, use public PCs/WiFi and print or photocopy for a small charge. Check out our events and activities.","hours":{"_text":"Monday: Closed / 13:30 - 17:00, Tuesday: Closed / 13:30 - 17:00, Wednesday: 10:00 - 13:00 / 13:30 - 18:00, Thursday: Closed / 13:30 - 17:00, Friday: 10:00 - 13:00 / 13:30 - 17:00, Saturday: 10:00 - 14:00","opening":"We 10:00-13:00,13:30-18:00; Fr 10:00-13:00,13:30-17:00; Sa 10:00-14:00; Tu 13:30-17:00; Th 13:30-17:00"},"title":"Newburn Library"},"type":"Feature"},
		{"geometry":{"coordinates":[-1.44576,55.01072],"type":"Point"},"properties":{"_source":"warm_welcome","address":"Northumberland Square, North Shields, Tyne and Wear NE30 1QU","description":"All welcome Services include books, magazines, newspapers, games and toys, free use of PCs and wifi, high chairs and bottle warmers. Free hot drinks available Wed 9.30 – 12.30 and Fri 2.00-5.","hours":{"_text":"Monday: 09:00 - 17:30, Tuesday: 09:00 - 17:30, Wednesday: 09:00 - 17:30, Thursday: 09:00 - 17:30, Friday: 09:00 - 17:30, Saturday: 09:00 - 13:00","opening":"Mo 09:00-17:30; Tu 09:00-17:30; We 09:00-17:30; Th 09:00-17:30; Fr 09:00-17:30; Sa 09:00-13:00"},"title":"North Shields Library"},"type":"Feature"},
		{"geometry":{"coordinates":[-1.69557,54.99234],"type":"Point"},"properties":{"_source":"warm_welcome","address":"West Denton Way, Newcastle upon Tyne, Tyne and Wear NE5 2QZ","description":"Community Hub and Library in the heart of the community. Borrow books for free, use public PCs/WiFi and print or photocopy for a small charge. Ask your face-to-face enquiries for Newcastle City Council. Check out our events and activities.","hours":{"_text":"Monday: 10:00 - 13:00 / 13:30 - 17:00, Tuesday: 10:00 - 13:00 / 13:30 - 17:00, Thursday: 10:00 - 13:00 / 13:30 - 17:00, Saturday: 10:00 - 14:00","opening":"Mo 10:00-13:00,13:30-17:00; Tu 10:00-13:00,13:30-17:00; Th 10:00-13:00,13:30-17:00; Sa 10:00-14:00"},"title":"Outer West Library"},"type":"Feature"},
		{"geometry":{"coordinates":[-1.58624,55.01170],"type":"Point"},"properties":{"_source":"warm_welcome","address":"Oxford Centre, West Farm Avenue, Longbenton, Newcastle upon Tyne NE12 8LT","description":"Library/Community Space","hours":{"_text":"Monday: 09:00 - 16:00, Tuesday: 09:00 - 16:00, Wednesday: 09:00 - 16:00, Thursday: 09:00 - 16:00, Friday: 09:00 - 16:00, Saturday: 09:00 - 12:30","opening":"Mo 09:00-16:00; Tu 09:00-16:00; We 09:00-16:00; Th 09:00-16:00; Fr 09:00-16:00; Sa 09:00-12:30"},"title":"Oxford Centre"},"type":"Feature"},
		{"geometry":{"coordinates":[-1.58879,55.00171],"type":"Point"},"properties":{"_source":"warm_welcome","address":"Church Hall, Newcastle upon 'Tyne, Newcastle upon 'Tyne NE7 7QH NE7 7QH","description":"A welcoming space for everyone and anyone offering a tea, coffee, biscuits and easy conversation. We also have occasional talks from our guests on various topics.","hours":{"_text":"Wednesday: 14:00 - 16:00","opening":"We 14:00-16:00"},"title":"Places of Welcome"},"type":"Feature"},
		{"geometry":{"coordinates":[-1.50616,55.03812],"type":"Point"},"properties":{"_source":"warm_welcome","address":"North Tyneside Council, Newcastle upon Tyne, Tyne and Wear NE27 0HJ","description":"Services include books, magazines, newspapers, games and toys, free use of PCs and wifi, high chairs and bottle warmers. Free hot drinks available during opening hours (up to 60 mins before closing). Services include books, magazines, newspapers, games and toys, free use of PCs and wifi, high chairs and bottle warmers.","hours":{"_text":"Tuesday: 09:30 - 12:30 / 14:00 - 17:00, Thursday: 09:30 - 12:30 / 14:00 - 17:00, Saturday: 09:30 - 12:30","opening":"Tu 09:30-12:30,14:00-17:00; Th 09:30-12:30,14:00-17:00; Sa 09:30-12:30"},"title":"Shiremoor Library"},"type":"Feature"},
		{"geometry":{"coordinates":[-1.45388,55.04677],"type":"Point"},"properties":{"_source":"warm_welcome","address":"St John's Methodist Church - Minor Hall, Tyne and Wear NE26 3ND","description":"Friday Cuppa","hours":{"_text":"Friday: 09:00 - 13:00","opening":"Fr 09:00-13:00"},"title":"St Johns Methodist Church"},"type":"Feature"},
		{"geometry":{"coordinates":[-1.60657,54.99242],"type":"Point"},"properties":{"_source":"warm_welcome","address":"Starbucks Coffee Co (UK) Ltd, Newcastle upon Tyne, Tyne and Wear NE2 2SX","description":"The space is open to all","hours":{"_text":"Tuesday: 10:00 - 13:00","opening":"Tu 10:00-13:00"},"title":"Starbucks Jesmond"},"type":"Feature"},
		{"geometry":{"coordinates":[-1.53330,54.99441],"type":"Point"},"properties":{"_source":"warm_welcome","address":"Life Vineyard Church, Wallsend, Tyne and Wear NE28 7NP","description":"This space is a renovated Methodist Church that is used for a varety of community activities including a warm space.","hours":{"_text":"Friday: 09:00 - 01:00","opening":"Fr 09:00-01:00"},"title":"The Allen"},"type":"Feature"},
		{"geometry":{"coordinates":[-1.60082,55.13018],"type":"Point"},"properties":{"_source":"warm_welcome","address":"The Salvation Army, Hartford Road West, Bedlington NE22 6HU","description":"Wednesday morning we offer tea and biscuits Thankful Friday is a drop in for tea/coffee and toasted tea cakes All free","hours":{"_text":"Wednesday: 09:00 - 11:30, Friday: 10:00 - 12:00","opening":"We 09:00-11:30; Fr 10:00-12:00"},"title":"The Salvation Army"},"type":"Feature"},
		{"geometry":{"coordinates":[-1.62082,55.00547],"type":"Point"},"properties":{"_source":"warm_welcome","address":"Trinity Church and Centre, Gosforth, Newcastle upon Tyne NE3 4AG","description":"A hot drink, friendly conversation, and a warm welcome","hours":{"_text":"Friday: 10:00 - 11:30","opening":"Fr 10:00-11:30"},"title":"Trinity Church Gosforth"},"type":"Feature"},
		{"geometry":{"coordinates":[-1.53497,54.99142],"type":"Point"},"properties":{"_source":"warm_welcome","address":"Wallsend Customer First Centre, Wallsend, Tyne and Wear NE28 8JR","description":"All welcome Services include books, magazines, newspapers, games and toys, free use of PCs and wifi, high chairs and bottle warmers. Free hot drinks available Wed 10 am – 4 pm and Saturday 10 am - 12.30 pm. Step inside Wallsend Customer First Centre and take the elevator, lift or stairs to the first floor.","hours":{"_text":"Monday: 09:00 - 17:30, Tuesday: 09:00 - 17:30, Wednesday: 09:00 - 17:30, Thursday: 09:00 - 17:30, Friday: 09:00 - 17:30, Saturday: 09:00 - 13:00","opening":"Mo 09:00-17:30; Tu 09:00-17:30; We 09:00-17:30; Th 09:00-17:30; Fr 09:00-17:30; Sa 09:00-13:00"},"title":"Wallsend Library"},"type":"Feature"},
		{"geometry":{"coordinates":[-1.44777,55.04406],"type":"Point"},"properties":{"_source":"warm_welcome","address":"Whitley Bay Baptist Church, Whitley Bay, Tyne and Wear NE26 1DX","description":"A place where we provide some food and refreshments. At lunch time there is soup in addition. There is disabled access. We open at 11.30 am on a Tuesday throughout the year up till 2pm. There are friends who are happy to chat with you if you wish. There is a craft table and if anyone wants to play we have dominoes, draughts and chess.","hours":{"_text":"Tuesday: 11:30 - 02:00","opening":"Tu 11:30-02:00"},"title":"Warm Welcome"},"type":"Feature"},
		{"geometry":{"coordinates":[-1.47190,54.98066],"type":"Point"},"properties":{"_source":"warm_welcome","address":"St. Paul's Church, Jarrow, Tyne and Wear NE32 3DZ","description":"Everyone is welcome at St. Paul's There has been a welcome at St. Paul's for over 1300 years and we look forward to meeting people of all ages. We offer somewhere to chat and free refreshments.","hours":{"_text":"Monday: 11:00 - 15:00, Wednesday: 11:00 - 15:00, Saturday: 11:00 - 15:00","opening":"Mo 11:00-15:00; We 11:00-15:00; Sa 11:00-15:00"},"title":"Welcoming Place at St. Paul's Church, Jarrow, NE32 3DZ"},"type":"Feature"},
		{"geometry":{"coordinates":[-1.69856,55.00165],"type":"Point"},"properties":{"_source":"warm_welcome","address":"Stamfordham Road, Westerhope, Newcastle upon Tyne ne5 5ha","description":"Open from 09-01-2023.","hours":{"_text":"Monday: 10:00 - 11:45","opening":"Mo 10:00-11:45"},"title":"Westerhope Methodist Church"},"type":"Feature"},
		{"geometry":{"coordinates":[-1.56516,55.03594],"type":"Point"},"properties":{"_source":"warm_welcome","address":"White Swan Customer First Centre, North Tyneside NE12 6SS","description":"Library","hours":{"_text":"Tuesday: 14:00 - 17:00, Thursday: 14:00 - 17:00, Saturday: 09:30 - 12:30","opening":"Tu 14:00-17:00; Th 14:00-17:00; Sa 09:30-12:30"},"title":"White Swan Customer First Centre"},"type":"Feature"},
		{"geometry":{"coordinates":[-1.44524,55.04296],"type":"Point"},"properties":{"_source":"warm_welcome","address":"Whitley Bay Hub / Library, Whitley Bay, Tyne and Wear NE26 1AB","description":"All welcome, services include books, magazines, newspapers, jigsaws, games & toys, free use of PCs & Wi Fi, highchairs & bottle warmers. Free hot drinks available Mon 2:30pm-5:00pm & Fri 9:30am-12:30pm","hours":{"_text":"Monday: 09:00 - 17:30, Tuesday: 09:00 - 17:30, Wednesday: 09:00 - 17:30, Thursday: 09:00 - 17:30, Friday: 09:00 - 17:30, Saturday: 09:00 - 13:00","opening":"Mo 09:00-17:30; Tu 09:00-17:30; We 09:00-17:30; Th 09:00-17:30; Fr 09:00-17:30; Sa 09:00-13:00"},"title":"Whitley Bay Library, North Tyneside Libraries"},"type":"Feature"},
		{"geometry":{"coordinates":[-1.62904,55.04605],"type":"Point"},"properties":{"_source":"warm_welcome","address":"Canterbury Way, Newcastle upon Tyne, Newcastle upon Tyne NE13 6JJ","description":"Services include books, magazines, newspapers, games, jigsaws plus free use of PCs and wifi. Library membership is free, please bring proof of address with you to join. Free hot drinks are available 9am-12pm, 2pm-4pm on Tuesdays and Thursdays, 9am-12pm on Saturdays.","hours":{"_text":"Tuesday: 09:00 - 13:00 / 14:00 - 17:30, Thursday: 09:00 - 13:00 / 14:00 - 17:30, Saturday: 09:00 - 13:00","opening":"Tu 09:00-13:00,14:00-17:30; Th 09:00-13:00,14:00-17:30; Sa 09:00-13:00"},"title":"Wideopen Library"},"type":"Feature"},
		{"geometry":{"coordinates":[-1.62882,55.04614],"type":"Point"},"properties":{"_source":"warm_welcome","address":"North Tyneside Council, Tyne and Wear NE13 6JJ","description":"All welcome Services include books, magazines, newspapers, games and toys, free use of PCs and WiFi. Free hot drinks available Tuesday and Thursdays 9 am - 12 noon and then 2 pm - 4 pm, as well as Saturdays 9 am - 12 noon.","hours":{"_text":"Tuesday: 09:00 - 13:00 / 14:00 - 17:30, Thursday: 09:00 - 13:00 / 14:00 - 17:30, Saturday: 09:00 - 13:00","opening":"Tu 09:00-13:00,14:00-17:30; Th 09:00-13:00,14:00-17:30; Sa 09:00-13:00"},"title":"Wideopen Library"},"type":"Feature"},
		{"geometry":{"coordinates":[-1.51803,55.08412],"type":"Point"},"properties":{"_source":"northumberland_county_council","address":"St. Michaels Ave New Hartley Whitley Bay Tyne and Wear NE25 0RP","hours":{"_text":""},"loc_pcd":true,"title":"New Hartley Community Association (Memorial Hall)"},"type":"Feature"},
		{"geometry":{"coordinates":[-1.74667,55.05025],"type":"Point"},"properties":{"_source":"northumberland_county_council","address":"MHRC Merton Way Ponteland NE20 9SR","hours":{"_text":""},"loc_pcd":true,"title":"Merton Hall Recreation Centre"},"type":"Feature"},
		{"geometry":{"coordinates":[-1.69102,55.16908],"type":"Point"},"properties":{"_source":"northumberland_county_council","address":"52 Newgate Street Morpeth NE61 1BE","hours":{"_text":""},"loc_pcd":true,"title":"Cafe des Amis"},"type":"Feature"},
		{"geometry":{"coordinates":[-1.67487,55.15926],"type":"Point"},"properties":{"_source":"northumberland_county_council","address":"Stobhill Community Centre Ninth Avenue Stobhill Morpeth NE61 2HS","hours":{"_text":""},"loc_pcd":true,"title":"Stobhill Community Centre","url":"https://central.northumberlandfrontline.org.uk/Library/ServiceDetail/632c95f63d4e860c0a1969b7"},"type":"Feature"},
		{"geometry":{"coordinates":[-1.56852,55.14096],"type":"Point"},"properties":{"_source":"northumberland_county_council","address":"16 Station Street Bedlington NE22 7JN","hours":{"_text":""},"loc_pcd":true,"title":"East Bedlington Community Centre","url":"https://southeast.northumberlandfrontline.org.uk/Library/ServiceDetail/63726bc7bf5ac9529f9d1e9f"},"type":"Feature"},
		{"geometry":{"coordinates":[-1.68438,55.16852],"type":"Point"},"properties":{"_source":"northumberland_county_council","address":"Reiver House Staithes Lane Morpeth NE61 1TD","hours":{"_text":""},"loc_pcd":true,"title":"Reiver House, Morpeth","url":"https://west.northumberlandfrontline.org.uk/Library/ServiceDetail/620d079f850dab9c0ec95433"},"type":"Feature"},
		{"geometry":{"coordinates":[-1.54110,55.12662],"type":"Point"},"properties":{"_source":"northumberland_county_council","address":"Briardale House Briardale Road Blyth Northumberland NE24 5AN","hours":{"_text":""},"loc_pcd":true,"title":"Briardale House Youth &amp; Community Projects Ltd","url":"https://southeast.northumberlandfrontline.org.uk/Library/ServiceDetail/633c35373d4e860c0a5241d9"},"type":"Feature"},
		{"geometry":{"coordinates":[-1.60498,55.13267],"type":"Point"},"properties":{"_source":"northumberland_county_council","address":"The Lodge Ridge Terrace Bedlington NE22 6ED","hours":{"_text":""},"loc_pcd":true,"title":"Leading Link"},"type":"Feature"},
		{"geometry":{"coordinates":[-1.50131,55.12720],"type":"Point"},"properties":{"_source":"northumberland_county_council","address":"Room 118 Blyth Community Enterprise Centre Ridley Street BlythNE24 3AG","hours":{"_text":""},"loc_pcd":true,"title":"BRIC, Blyth Community Centre","url":"https://southeast.northumberlandfrontline.org.uk/Library/ServiceDetail/633d4c3d3d4e860c0a57550c"},"type":"Feature"},
		{"geometry":{"coordinates":[-1.59868,55.13220],"type":"Point"},"properties":{"_source":"northumberland_county_council","address":"Glebe Road Bedlington Northumberland NE22 6JX","hours":{"_text":""},"loc_pcd":true,"title":"Bedlington Library","url":"https://central.northumberlandfrontline.org.uk/Library/ServiceDetail/621635f4324c081715fcce1f"},"type":"Feature"},
		{"geometry":{"coordinates":[-1.56852,55.14096],"type":"Point"},"properties":{"_source":"northumberland_county_council","address":"East Bedlington Community Centre 16 &amp; 17 Station Road Bedlington Northumberland NE22 7JN","hours":{"_text":""},"loc_pcd":true,"title":"Bedlington Station Library","url":"https://central.northumberlandfrontline.org.uk/Library/ServiceDetail/621635f4324c081715fcce1f"},"type":"Feature"},
		{"geometry":{"coordinates":[-1.50689,55.12706],"type":"Point"},"properties":{"_source":"northumberland_county_council","address":"Bridge Street Blyth Northumberland NE24 2DJ","hours":{"_text":""},"loc_pcd":true,"title":"Blyth Library","url":"https://southeast.northumberlandfrontline.org.uk/Library/ServiceDetail/621635f4324c081715fcce1f"},"type":"Feature"},
		{"geometry":{"coordinates":[-1.59182,55.08504],"type":"Point"},"properties":{"_source":"northumberland_county_council","address":"The Hub at Cramlington Forum Way Cramlington Northumberland NE23 6YB","hours":{"_text":""},"loc_pcd":true,"title":"Cramlington Library","url":"https://southeast.northumberlandfrontline.org.uk/Library/ServiceDetail/621635f4324c081715fcce1f"},"type":"Feature"},
		{"geometry":{"coordinates":[-1.60080,55.16034],"type":"Point"},"properties":{"_source":"northumberland_county_council","address":"Cleaswell Hill Centre Choppington Northumberland NE62 5DW","hours":{"_text":""},"loc_pcd":true,"title":"Guide Post Library","url":"https://central.northumberlandfrontline.org.uk/Library/ServiceDetail/621635f4324c081715fcce1f"},"type":"Feature"},
		{"geometry":{"coordinates":[-1.68323,55.16775],"type":"Point"},"properties":{"_source":"northumberland_county_council","address":"Gas House Lane Morpeth NE61 1SR","hours":{"_text":""},"loc_pcd":true,"title":"Morpeth Library @ Leisure Centre","url":"https://central.northumberlandfrontline.org.uk/Library/ServiceDetail/621635f4324c081715fcce1f"},"type":"Feature"},
		{"geometry":{"coordinates":[-1.74090,55.04891],"type":"Point"},"properties":{"_source":"northumberland_county_council","address":"Ponteland Library The Crescent Callerton Lane Ponteland Northumberland NE20 9EG","hours":{"_text":""},"loc_pcd":true,"title":"Ponteland Library","url":"https://west.northumberlandfrontline.org.uk/Library/ServiceDetail/621635f4324c081715fcce1f"},"type":"Feature"},
		{"geometry":{"coordinates":[-1.47226,55.08276],"type":"Point"},"properties":{"_source":"northumberland_county_council","address":"Seaton Sluice Community Centre Albert Road Seaton Sluice Whitley Bay NE26 4QX","hours":{"_text":""},"loc_pcd":true,"title":"Seaton Sluice Library","url":"https://southeast.northumberlandfrontline.org.uk/Library/ServiceDetail/621635f4324c081715fcce1f"},"type":"Feature"},
		{"geometry":{"coordinates":[-1.52590,55.07062],"type":"Point"},"properties":{"_source":"northumberland_county_council","address":"Astley High School Elsdon Avenue Seaton Delaval Whitley Bay NE25 0BW","hours":{"_text":""},"loc_pcd":true,"title":"Seaton Valley Library","url":"https://southeast.northumberlandfrontline.org.uk/Library/ServiceDetail/621635f4324c081715fcce1f"},"type":"Feature"},
		{"geometry":{"coordinates":[-1.58941,55.08736],"type":"Point"},"properties":{"_source":"northumberland_county_council","address":"Welcome Methodist Church Station Road, Cramlington NE23 1EN","hours":{"_text":""},"loc_pcd":true,"title":"CHARLEYs coffee and chat","url":"https://central.northumberlandfrontline.org.uk/Library/ServiceDetail/636a7544bf5ac9529f79408a"},"type":"Feature"},
		{"geometry":{"coordinates":[-1.67787,55.15925],"type":"Point"},"properties":{"_source":"northumberland_county_council","address":"37 Shields Road Stobhill Morpeth NE61 2SA","hours":{"_text":""},"loc_pcd":true,"title":"Stobhill Link","url":"https://north.northumberlandfrontline.org.uk/Library/ServiceDetail/6310aad459210faf7d544322"},"type":"Feature"},
		{"geometry":{"coordinates":[-1.57651,55.16232],"type":"Point"},"properties":{"_source":"northumberland_county_council","address":"The Welfare Centre East View Stakeford NE62 5UD","hours":{"_text":""},"loc_pcd":true,"title":"Stakeford and Bomarsund Welfare Centre"},"type":"Feature"},
		{"geometry":{"coordinates":[-1.50433,55.06348],"type":"Point"},"properties":{"_source":"northumberland_county_council","address":"Holywell Dene Road Holywell Village Northumberland NE25 0LJ","hours":{"_text":""},"loc_pcd":true,"title":"Holywell Community Centre - Veterans Hut"},"type":"Feature"},
		{"geometry":{"coordinates":[-1.51832,55.12464],"type":"Point"},"properties":{"_source":"northumberland_county_council","address":"Claremont Hall Claremont Terrace Blyth NE24 2LE","hours":{"_text":""},"loc_pcd":true,"title":"Community Food and Friendship Blyth"},"type":"Feature"},
		{"geometry":{"coordinates":[-1.68773,55.17004],"type":"Point"},"properties":{"_source":"northumberland_county_council","address":"NLCC 24 Dacre Street Morpeth NE61 1HW","hours":{"_text":""},"loc_pcd":true,"title":"New Life Christian Centre"},"type":"Feature"},
		{"geometry":{"coordinates":[-1.52042,55.12523],"type":"Point"},"properties":{"_source":"northumberland_county_council","address":"Bolam Park Blyth Northumberland NE24 5BT","hours":{"_text":""},"loc_pcd":true,"title":"Blyth Sports Centre","url":"https://northumberlandfrontline.org.uk/Library/ServiceDetail/6406186979101c848bf1faa5"},"type":"Feature"},
		{"geometry":{"coordinates":[-1.59182,55.08504],"type":"Point"},"properties":{"_source":"northumberland_county_council","address":"Forum Way Cramlington NE23 6YB","hours":{"_text":""},"loc_pcd":true,"title":"Concordia Leisure Centre","url":"https://northumberlandfrontline.org.uk/Library/ServiceDetail/6406186979101c848bf1faa5"},"type":"Feature"},
		{"geometry":{"coordinates":[-1.68323,55.16775],"type":"Point"},"properties":{"_source":"northumberland_county_council","address":"Gas House Lane Morpeth NE61 1SR","hours":{"_text":""},"loc_pcd":true,"title":"Morpeth Leisure Centre","url":"https://northumberlandfrontline.org.uk/Library/ServiceDetail/6406186979101c848bf1faa5"},"type":"Feature"},
		{"geometry":{"coordinates":[-1.74090,55.04891],"type":"Point"},"properties":{"_source":"northumberland_county_council","address":"Callerton Lane Ponteland NE20 9EG","hours":{"_text":""},"loc_pcd":true,"title":"Ponteland Leisure Centre","url":"https://northumberlandfrontline.org.uk/Library/ServiceDetail/6406186979101c848bf1faa5"},"type":"Feature"},
		{"geometry":{"coordinates":[-1.50621,55.12681],"type":"Point"},"properties":{"_source":"northumberland_county_council","address":"20 Stanley Street Blyth NE24 2BU","hours":{"_text":""},"loc_pcd":true,"title":"Blyth Valley Disabled Forum"},"type":"Feature"},
		{"geometry":{"coordinates":[-1.74005,55.04992],"type":"Point"},"properties":{"_source":"northumberland_county_council","address":"Ponteland Methodist Church Bell Villas Ponteland NE20 9BE","hours":{"_text":""},"loc_pcd":true,"title":"Ponteland Methodist Church Open Door Drop-n Café"},"type":"Feature"},
		{"geometry":{"coordinates":[-1.58430,55.08609],"type":"Point"},"properties":{"_source":"northumberland_county_council","address":"St Nicholas' Church Blagdon Terrace Cramlington NE23 6QQ","hours":{"_text":""},"loc_pcd":true,"title":"St Nicholas' Church"},"type":"Feature"},
		{"geometry":{"coordinates":[-1.56889,55.09612],"type":"Point"},"properties":{"_source":"northumberland_county_council","address":"1 Axminster Close Cramlington NE23 2UA","hours":{"_text":""},"loc_pcd":true,"title":"Cramlington Community House"},"type":"Feature"},
		{"geometry":{"coordinates":[-1.68323,55.16775],"type":"Point"},"properties":{"_source":"northumberland_county_council","address":"Gas House Lane Morpeth NE61 1SR","hours":{"_text":""},"loc_pcd":true,"title":"Morpeth Library","url":"https://central.northumberlandfrontline.org.uk/Library/ServiceDetail/621635f4324c081715fcce1f"},"type":"Feature"},
		{"geometry":{"coordinates":[-1.58342,55.08706],"type":"Point"},"properties":{"_source":"northumberland_county_council","address":"Cramlington Masonic Buildings Limited School Lane Cramlington Northumberland NE23 1DP","hours":{"_text":""},"loc_pcd":true,"title":"Cramlington Masonic Building"},"type":"Feature"},
		{"geometry":{"coordinates":[-1.52140,55.14545],"type":"Point"},"properties":{"_source":"northumberland_county_council","address":"St Andrews Church Cambois Blyth NE24 1QX","hours":{"_text":""},"loc_pcd":true,"title":"St Andrews Church"},"type":"Feature"},
		{"geometry":{"coordinates":[-1.50847,55.12754],"type":"Point"},"properties":{"_source":"northumberland_county_council","address":"Keel Row Shopping Centre Regent St Blyth NE24 1AH","hours":{"_text":""},"loc_pcd":true,"title":"Blyth Pride of Place Project Space"},"type":"Feature"},
		{"geometry":{"coordinates":[-1.60279,55.16315],"type":"Point"},"properties":{"_source":"northumberland_county_council","address":"Anglers Arms Sheepwash Bank Choppington NE62 5NB","hours":{"_text":""},"loc_pcd":true,"title":"Anglers Arms"},"type":"Feature"},
		{"geometry":{"coordinates":[-1.59182,55.08504],"type":"Point"},"properties":{"_source":"northumberland_county_council","address":"Cramlington Hub Retail Park Manor Walks Cramlington NE23 6YB","hours":{"_text":""},"loc_pcd":true,"title":"The Cramlington Hub","url":"https://southeast.northumberlandfrontline.org.uk/Library/ServiceDetail/624d6c658a38a23df1caef81"},"type":"Feature"},
		{"geometry":{"coordinates":[-1.53050,55.11035],"type":"Point"},"properties":{"_source":"northumberland_county_council","address":"8 Cramlington Terrace off Newcastle Road Newsham Blyth Northumberland NE24 4AQ.","hours":{"_text":""},"loc_pcd":true,"title":"The Congregation of Yahweh"},"type":"Feature"},
		{"geometry":{"coordinates":[-1.52073,55.13338],"type":"Point"},"properties":{"_source":"northumberland_county_council","address":"79 Chestnut Avenue Blyth NE24 1PJ","hours":{"_text":""},"loc_pcd":true,"title":"Forget me not"},"type":"Feature"},
		{"geometry":{"coordinates":[-1.55191,55.16958],"type":"Point"},"properties":{"_source":"northumberland_county_council","address":"Unit 2 Hedley Trade Park Hedley Way North Seaton Industrial Estate ASHINGTON NE63 0YA","hours":{"_text":""},"loc_pcd":true,"title":"Happy Head Shed"},"type":"Feature"}
	]
}
