{
	"type": "FeatureCollection",
	"features": [
		{"geometry":{"coordinates":[-1.53291,55.00306],"type":"Point"},"properties":{"_source":"warm_welcome","address":"Battle Hill Library, Coastway Shopping Forum, Wallsend NE28 9JE","description":"For the general public. Free hot drinks available during opening hours’: Services include books, magazines, newspapers, games and toys, free use of PCs and wifi, high chairs and bottle warmers.","hours":{"_text":"Tuesday: 9:00 - 13:00 / 14:00 - 17:30, Thursday: 9:00 - 13:00 / 14:00 - 17:30, Saturday: 9:00 - 13:00","opening":"Tu 09:00-13:00,14:00-17:30; Th 09:00-13:00,14:00-17:30; Sa 09:00-13:00"},"title":"Battle Hill Library"},"type":"Feature"},
		{"geometry":{"coordinates":[-1.46547,55.00416],"type":"Point"},"properties":{"_source":"warm_welcome","address":"Cedarwood Trust, Avon Avenue, North Shields NE29 7QT","description":"Open from 24 NOV 22.","hours":{"_text":"Thursday: 09:00 - 16:00","opening":"Th 09:00-16:00"},"title":"Cedarwood Trust"},"type":"Feature"},
		{"geometry":{"coordinates":[-1.55889,54.98474],"type":"Point"},"properties":{"_source":"warm_welcome","address":"Ambassador Hall, 3 Coutts Road, Walkergate, Newcastle upon Tyne NE6 4RB","hours":{"_text":"Tuesday: 13:00 - 17:00, Wednesday: 13:00 - 17:00, Thursday: 13:00 - 17:00, Friday: 13:00 - 17:00, Sunday: 11:30 - 12:30","opening":"Tu 13:00-17:00; We 13:00-17:00; Th 13:00-17:00; Fr 13:00-17:00; Su 11:30-12:30"},"title":"Church of God"},"type":"Feature"},
		{"geometry":{"coordinates":[-1.43634,55.03407],"type":"Point"},"properties":{"_source":"warm_welcome","address":"St Georges Road, Cullercoats, Tyne and Wear NE30 3JY","description":"Services include books, magazines, games and toys, free use of PCs and wifi, bottle warmers. Free hot drinks available during opening hours.","hours":{"_text":"Tuesday: 09:00 - 13:00 / 14:00 - 17:30, Friday: 09:00 - 13:00 / 14:00 - 17:30, Saturday: 09:00 - 13:00","opening":"Tu 09:00-13:00,14:00-17:30; Fr 09:00-13:00,14:00-17:30; Sa 09:00-13:00"},"title":"Cullercoats Library"},"type":"Feature"},
		{"geometry":{"coordinates":[-1.68637,54.98300],"type":"Point"},"properties":{"_source":"warm_welcome","address":"677 West Road, Newcastle upon Tyne, Tyne and Wear NE15 7QQ","description":"Book lending, jigsaw and games in the library, printing and photocopying","hours":{"_text":"Monday: 10:00 - 13:00 / 13:30 - 17:00, Thursday: 10:00 - 13:00 / 13:30 - 17:00, Saturday: 10:00 - 14:00","opening":"Mo 10:00-13:00,13:30-17:00; Th 10:00-13:00,13:30-17:00; Sa 10:00-14:00"},"title":"Denton Burn Library"},"type":"Feature"},
		{"geometry":{"coordinates":[-1.53065,54.99115],"type":"Point"},"properties":{"_source":"warm_welcome","address":"The Well Bee-ing Hub & Cafe, 84 Park Road, Wallsend, Tyne and Wear NE28 6QY","hours":{"_text":"Tuesday: 08:00 - 17:00 / -, Wednesday: 08:00 - 17:00 / -, Thursday: 08:00 - 17:00 / -, Friday: 08:00 - 17:00 / -, Saturday: 08:00 - 17:00 / -","opening":"Tu 08:00-17:00; We 08:00-17:00; Th 08:00-17:00; Fr 08:00-17:00; Sa 08:00-17:00"},"title":"Dreamshine Community Interest Company (Well Bee-ing Hub & Cafe)"},"type":"Feature"},
		{"geometry":{"coordinates":[-1.59384,55.05627],"type":"Point"},"properties":{"_source":"warm_welcome","address":"Market Street, Dudley, Tyne and Wear NE23 7HS","description":"All welcome. Services include books, magazines, games and toys, free use of PCs and wifi, high chairs and bottle warmers. Free hot drinks available Tuesday and Thursday 2pm - 5pm","hours":{"_text":"Tuesday: 09:00 - 13:00 / 14:00 - 17:30, Thursday: 09:00 - 13:00 / 14:00 - 17:30, Saturday: 09:00 - 13:00","opening":"Tu 09:00-13:00,14:00-17:30; Th 09:00-13:00,14:00-17:30; Sa 09:00-13:00"},"title":"Dudley Library"},"type":"Feature"},
		{"geometry":{"coordinates":[-1.49772,55.04622],"type":"Point"},"properties":{"_source":"warm_welcome","address":"The Old School, Church Way, Earsdon, Whitley Bay, Tyne & Wear NE259JY","hours":{"_text":"Tuesday: 11:00 - 16:00","opening":"Tu 11:00-16:00"},"title":"Earsdon & Wellfield Community Association"},"type":"Feature"},
		{"geometry":{"coordinates":[-1.54256,54.99668],"type":"Point"},"properties":{"_source":"warm_welcome","address":"1 Miller Way, Wallsend, Tyne & Wear NE28 8EL","description":"Open from 19/12/2022. Over 65's We are offering a warm space within the café area of our home. The space is predominantly available for people over the age of 65 years.","hours":{"_text":"Monday: 10:00 - 15:00, Tuesday: 10:00 - 15:00, Wednesday: 10:00 - 15:00, Thursday: 10:00 - 15:00, Friday: 10:00 - 15:00","opening":"Mo 10:00-15:00; Tu 10:00-15:00; We 10:00-15:00; Th 10:00-15:00; Fr 10:00-15:00"},"title":"Eothen Care Homes"},"type":"Feature"},
		{"geometry":{"coordinates":[-1.65291,54.98400],"type":"Point"},"properties":{"_source":"warm_welcome","address":"Fenham Hall Drive, Newcastle upon Tyne, Tyne and Wear NE4 9XD","description":"Book lending, printing and photocopying","hours":{"_text":"Monday: 10:00 - 17:00, Tuesday: 10:00 - 15:00, Wednesday: 10:00 - 17:00, Thursday: 12:00 - 17:00, Friday: 10:00 - 17:00, Saturday: 10:00 - 14:00","opening":"Mo 10:00-17:00; Tu 10:00-15:00; We 10:00-17:00; Th 12:00-17:00; Fr 10:00-17:00; Sa 10:00-14:00"},"title":"Fenham Library"},"type":"Feature"},
		{"geometry":{"coordinates":[-1.56548,55.02238],"type":"Point"},"properties":{"_source":"warm_welcome","address":"Whitfield Road, Forest Hall, Newcastle NE12 7LJ","description":"Open from Tuesday 1:11:22. Services include books, magazines, newspapers, games and toys, free use of PCs and Wifi, high chairs and bottle warmers. Free hot drinks available 9:00 -16:00 Tues and Thurs and 9:00-12:00 on Sat","hours":{"_text":"Tuesday: 9:00 - 17:30 / 13:00 - 14:00, Thursday: 9:00 - 17:30 / 13:00 - 14:00, Saturday: 9:00 - 13:00","opening":"Tu 09:00-17:30,13:00-14:00; Th 09:00-17:30,13:00-14:00; Sa 09:00-13:00"},"title":"Forest Hall Library"},"type":"Feature"},
		{"geometry":{"coordinates":[-1.62573,55.01096],"type":"Point"},"properties":{"_source":"warm_welcome","address":"Regent Farm Road, Gosforth, Newcastle upon Tyne NE3 3HD","description":"Book lending, printing and photocopying","hours":{"_text":"Tuesday: 10:00 - 18:00, Wednesday: 10:00 - 14:00, Friday: 10:00 - 17:00, Saturday: 10:00 - 14:00","opening":"Tu 10:00-18:00; We 10:00-14:00; Fr 10:00-17:00; Sa 10:00-14:00"},"title":"Gosforth Library"},"type":"Feature"},
		{"geometry":{"coordinates":[-1.43118,54.99758],"type":"Point"},"properties":{"_source":"warm_welcome","address":"Grace Place, 20 Denmark Centre, South Shields, Tyne and Wear NE33 2LR","description":"We offer free hot drinks and scone/cake. We have a small craft table","hours":{"_text":"Monday: 11:00 - 15:00, Friday: 11:00 - 15:00, Saturday: 11:00 - 14:00","opening":"Mo 11:00-15:00; Fr 11:00-15:00; Sa 11:00-14:00"},"title":"Grace Place (Bede Methodist Circuit)"},"type":"Feature"},
		{"geometry":{"coordinates":[-1.58595,54.99551],"type":"Point"},"properties":{"_source":"warm_welcome","address":"Newton Place, High Heaton, Newcastle upon Tyne NE7 7HD","description":"Book lending, board games, printing and photocopying","hours":{"_text":"Tuesday: 09:30 - 13:00 / 13:30 - 17:00, Thursday: 09:30 - 13:00 / 13:30 - 17:00, Saturday: 10:00 - 13:00","opening":"Tu 09:30-13:00,13:30-17:00; Th 09:30-13:00,13:30-17:00; Sa 10:00-13:00"},"title":"High Heaton Library"},"type":"Feature"},
		{"geometry":{"coordinates":[-1.59153,54.98790],"type":"Point"},"properties":{"_source":"warm_welcome","address":"Churchill Gardens, Jesmond, Newcastle upon Tyne NE2 1HB","description":"Open from 29-01-23.","hours":{"_text":"Sunday: 13:00 - 15:30","opening":"Su 13:00-15:30"},"title":"Holy Trinity Church Jesmond"},"type":"Feature"},
		{"geometry":{"coordinates":[-1.62545,55.05218],"type":"Point"},"properties":{"_source":"warm_welcome","address":"St Columba's Church, North Tyneside, Tyne and Wear NE13 6NH","hours":{"_text":"Monday: 10:00 - 12:00, Wednesday: 10:00 - 11:00, Sunday: 11:00 - 12:00","opening":"Mo 10:00-12:00; We 10:00-11:00; Su 11:00-12:00"},"title":"https://www.stcolumbaswideopen.co.uk/"},"type":"Feature"},
		{"geometry":{"coordinates":[-1.65327,55.00535],"type":"Point"},"properties":{"_source":"warm_welcome","address":"The Kenton Centre, Hillsview Avenue, Newcastle upon Tyne, Tyne and Wear NE3 3QJ","description":"Book lending, printing and photocopying","hours":{"_text":"Tuesday: 10:00 - 14:00, Thursday: 10:00 - 18:00, Friday: 10:00 - 17:00, Saturday: 10:00 - 14:00","opening":"Tu 10:00-14:00; Th 10:00-18:00; Fr 10:00-17:00; Sa 10:00-14:00"},"title":"Kenton Library"},"type":"Feature"},
		{"geometry":{"coordinates":[-1.43514,54.98744],"type":"Point"},"properties":{"_source":"warm_welcome","address":"St Jude's Terrace, South Tyneside, Tyne and Wear NE33 5PB","description":"Open from 01-11-2022.","hours":{"_text":"Monday: 12:30 - 14:30, Thursday: 12:00 - 16:00","opening":"Mo 12:30-14:30; Th 12:00-16:00"},"title":"Living Waters Church"},"type":"Feature"},
		{"geometry":{"coordinates":[-1.46814,55.04039],"type":"Point"},"properties":{"_source":"warm_welcome","address":"Woodleigh Road, Monkseaton , Tyne and Wear NE258ET","description":"Services include books, magazines, newspapers, games and toys, free use of PCs and wifi, high chairs and bottle warmers. Free hot drinks available during opening hours (up to 30 mins before closing).","hours":{"_text":"Tuesday: 09:00 - 13:00 / 14:00 - 17:30, Friday: 09:00 - 13:00 / 14:00 - 17:30, Saturday: 09:00 - 13:00","opening":"Tu 09:00-13:00,14:00-17:30; Fr 09:00-13:00,14:00-17:30; Sa 09:00-13:00"},"title":"Monkseaton Library"},"type":"Feature"},
		{"geometry":{"coordinates":[-1.73848,54.98181],"type":"Point"},"properties":{"_source":"warm_welcome","address":"High Street, Newburn, Newcastle upon Tyne NE15 8LN","description":"Book lending, printing and photocopying","hours":{"_text":"Monday: 10:00 - 14:00, Tuesday: 10:00 - 12:30 / 13:00 - 17:00, Friday: 13:00 - 17:00, Saturday: 10:00 - 14:00","opening":"Mo 10:00-14:00; Tu 10:00-12:30,13:00-17:00; Fr 13:00-17:00; Sa 10:00-14:00"},"title":"Newburn Library"},"type":"Feature"},
		{"geometry":{"coordinates":[-1.44576,55.01072],"type":"Point"},"properties":{"_source":"warm_welcome","address":"Northumberland Square, North Shields, Tyne and Wear NE30 1QU","description":"All welcome Services include books, magazines, newspapers, games and toys, free use of PCs and wifi, high chairs and bottle warmers. Free hot drinks available Wed 9.30 – 12.30 and Fri 2.30-5.","hours":{"_text":"Monday: 09:00 - 17:30, Tuesday: 09:00 - 17:30, Wednesday: 09:00 - 17:30, Thursday: 09:00 - 17:30, Friday: 09:00 - 17:30, Saturday: 09:00 - 13:00","opening":"Mo 09:00-17:30; Tu 09:00-17:30; We 09:00-17:30; Th 09:00-17:30; Fr 09:00-17:30; Sa 09:00-13:00"},"title":"North Shields Library"},"type":"Feature"},
		{"geometry":{"coordinates":[-1.56481,55.03545],"type":"Point"},"properties":{"_source":"warm_welcome","address":"Killingworth Library, White Swan Centre , Citadel East, Killingworth NE12 6SS","description":"Services include books, magazines, games and toys, free use of PC's and wifi, high chairs and bottle warmers. Free hot drinks available Tuesday 3pm - 5pm and Saturday 9:30am - 12:30","hours":{"_text":"Monday: 9:00 - 17:30, Tuesday: 9:00 - 17:30, Wednesday: 9:00 - 17:30, Thursday: 9:00 - 17:30, Friday: 9:00 - 17:30, Saturday: 9:00 - 13:00","opening":"Mo 09:00-17:30; Tu 09:00-17:30; We 09:00-17:30; Th 09:00-17:30; Fr 09:00-17:30; Sa 09:00-13:00"},"title":"North Tyneside Council"},"type":"Feature"},
		{"geometry":{"coordinates":[-1.58624,55.01170],"type":"Point"},"properties":{"_source":"warm_welcome","address":"Oxford Centre, West Farm Avenue, Longbenton, Newcastle upon Tyne NE12 8LT","hours":{"_text":"Monday: 9:00 - 16:00, Tuesday: 9:00 - 16:00, Wednesday: 9:00 - 16:00, Thursday: 9:00 - 16:00, Friday: 9:00 - 16:00, Saturday: 9:00 - 12:30","opening":"Mo 09:00-16:00; Tu 09:00-16:00; We 09:00-16:00; Th 09:00-16:00; Fr 09:00-16:00; Sa 09:00-12:30"},"title":"North Tyneside Council"},"type":"Feature"},
		{"geometry":{"coordinates":[-1.44753,55.00886],"type":"Point"},"properties":{"_source":"warm_welcome","address":"Working Well, The Beacon Shopping Centre, North Shields , Tyne and Wear NE29 6QF","hours":{"_text":"Wednesday: 12:00 - 14:00, Friday: 10:00 - 12:00","opening":"We 12:00-14:00; Fr 10:00-12:00"},"title":"North Tyneside Council"},"type":"Feature"},
		{"geometry":{"coordinates":[-1.44954,55.00962],"type":"Point"},"properties":{"_source":"warm_welcome","address":"38 Nile Street, North Shields, Tyne and Wear NE29 0BB","description":"Open from 1/11/22. The warm hub is located upstairs in the Veterans Centre with free tea and coffee provided. Additional food and drinks can be purchased from our Coffee Shop downstairs.","hours":{"_text":"Tuesday: 09:30 - 14:30","opening":"Tu 09:30-14:30"},"title":"Operation Veteran"},"type":"Feature"},
		{"geometry":{"coordinates":[-1.69926,54.99303],"type":"Point"},"properties":{"_source":"warm_welcome","address":"West Denton Way, Denton Park, Newcastle upon Tyne NE5 2QZ","description":"Book lending, printing and photocopying","hours":{"_text":"Tuesday: 10:00 - 14:00, Thursday: 10:00 - 18:00, Friday: 10:00 - 17:00, Saturday: 10:00 - 14:00","opening":"Tu 10:00-14:00; Th 10:00-18:00; Fr 10:00-17:00; Sa 10:00-14:00"},"title":"Outer West Library"},"type":"Feature"},
		{"geometry":{"coordinates":[-1.74002,55.05004],"type":"Point"},"properties":{"_source":"warm_welcome","address":"Bell Villas, Ponteland, Northumberland NE20 9BE","description":"A drop in café where we serve soup, hot drinks and homemade cakes. A very friendly and welcoming atmosphere.","hours":{"_text":"Monday: 13:00 - 17:00","opening":"Mo 13:00-17:00"},"title":"Ponteland Methodist Church Open Door drop-in-café"},"type":"Feature"},
		{"geometry":{"coordinates":[-1.62732,55.02659],"type":"Point"},"properties":{"_source":"warm_welcome","address":"St Aidan's Church, Princes Road, Brunton Park, Newcastle upon Tyne NE3 5NF","description":"Open from 26-11-2022.","hours":{"_text":"Thursday: 14:00 - 16:00, Saturday: 10:00 - 12:00","opening":"Th 14:00-16:00; Sa 10:00-12:00"},"title":"St Aidan's Church, Brunton Park"},"type":"Feature"},
		{"geometry":{"coordinates":[-1.58843,55.00299],"type":"Point"},"properties":{"_source":"warm_welcome","address":"66 CLEVELAND GARDENS, NEWCASTLE UPON TYNE, Newcastle upon 'Tyne NE7 7QH","description":"A welcoming space for everyone and anyone","hours":{"_text":"Wednesday: 14:00 - 16:00 / -","opening":"We 14:00-16:00"},"title":"St Francis Church Hall"},"type":"Feature"},
		{"geometry":{"coordinates":[-1.43860,55.04016],"type":"Point"},"properties":{"_source":"warm_welcome","address":"109 Whitley Road, Whitley Bay, Tyne & Wear NE26 2ET","description":"Open from 01-11-2022.","hours":{"_text":"Thursday: 09:30 - 15:00","opening":"Th 09:30-15:00"},"title":"The Bay Church"},"type":"Feature"},
		{"geometry":{"coordinates":[-1.44503,55.00974],"type":"Point"},"properties":{"_source":"warm_welcome","address":"Howard Street, North Shields, Tyne and Wear NE30 1SE","description":"Open from 02/11/2022. We cater for everyone and you can enjoy up to two hot drinks for FREE Our café bar is an ideal space to work from or relax in. We have free Wi-Fi, a selection of board games, a book swap library and even a gallery displaying local art, all overseen by our friendly colleagues. Of course, your four-legged friends are welcome!","hours":{"_text":"Wednesday: 10:00 - 16:00","opening":"We 10:00-16:00"},"title":"The Exchange Theatre"},"type":"Feature"},
		{"geometry":{"coordinates":[-1.61973,55.00712],"type":"Point"},"properties":{"_source":"warm_welcome","address":"Trinity Church and Centre, High Street,, Gosforth,, Newcastle upon Tyne NE3 4AG","description":"A hot drink, friendly conversation, and a warm welcome","hours":{"_text":"Friday: 10:00 - 11:30","opening":"Fr 10:00-11:30"},"title":"Trinity Church"},"type":"Feature"},
		{"geometry":{"coordinates":[-1.53457,54.99088],"type":"Point"},"properties":{"_source":"warm_welcome","address":"Wallsend Customer First Centre 28 The Forum, Wallsend, North Tyneside NE28 8JR","hours":{"_text":"Monday: 09:00 - 17:30, Tuesday: 09:00 - 17:30, Wednesday: 09:00 - 17:30, Thursday: 09:00 - 17:30, Friday: 09:00 - 17:30, Saturday: 09:00 - 13:00","opening":"Mo 09:00-17:30; Tu 09:00-17:30; We 09:00-17:30; Th 09:00-17:30; Fr 09:00-17:30; Sa 09:00-13:00"},"title":"Wallsend Library"},"type":"Feature"},
		{"geometry":{"coordinates":[-1.47354,54.98073],"type":"Point"},"properties":{"_source":"warm_welcome","address":"St. Paul's Church, Church Bank, Jarrow NE32 3DZ","description":"Everyone is welcome at St. Paul's there has been a welcome at St. Paul's for over 1300 years and we look forward to meeting people of all ages.","hours":{"_text":"Monday: 11:00 - 15:00 / -, Saturday: 11:00 - 15:00 / -","opening":"Mo 11:00-15:00; Sa 11:00-15:00"},"title":"Warm Spaces at St. Paul's Jarrow"},"type":"Feature"},
		{"geometry":{"coordinates":[-1.70653,54.98887],"type":"Point"},"properties":{"_source":"warm_welcome","address":"West Denton Community Church Middlegate, Newcastle, Newcastle Upon Tyne NE5 5AY","description":"Everyone is welcome. Come and join us at our free community cafe. Come and enjoy a warm space with others in the community. Read a paper, play cards, have a chat and make friends. You're welcome to bring with you some knitting or your own book.","hours":{"_text":"Saturday: 09:00 - 12:00 / - Monthly","opening":"Sa 09:00-12:00"},"title":"West Denton Community Church"},"type":"Feature"},
		{"geometry":{"coordinates":[-1.69926,54.99303],"type":"Point"},"properties":{"_source":"warm_welcome","address":"West Denton Way, Denton Park, Newcastle upon Tyne NE5 2QZ","description":"Book lending, printing and photocopying","hours":{"_text":"Tuesday: 10:00 - 14:00, Thursday: 10:00 - 18:00, Friday: 10:00 - 17:00, Saturday: 10:00 - 14:00","opening":"Tu 10:00-14:00; Th 10:00-18:00; Fr 10:00-17:00; Sa 10:00-14:00"},"title":"West End Library"},"type":"Feature"},
		{"geometry":{"coordinates":[-1.69856,55.00165],"type":"Point"},"properties":{"_source":"warm_welcome","address":"Stamfordham Road, Westerhope, Newcastle upon Tyne NE5 5HA","description":"Open from 09-01-2023.","hours":{"_text":"Monday: 10:00 - 11:45","opening":"Mo 10:00-11:45"},"title":"Westerhope Methodist Church"},"type":"Feature"},
		{"geometry":{"coordinates":[-1.42846,54.99404],"type":"Point"},"properties":{"_source":"warm_welcome","address":"Romilly Street, South Shields , South Tyneside NE33 2SP","description":"Open from 20th November 2022. We are open for a relaxed drop-in with soup every Sunday 1-2pm. Families are welcomed to join us for a movie with food provided and optional activities every other Sunday 4-6pm starting the 20th November.","hours":{"_text":"Sunday: 13:00 - 14:00 / 16:00 - 18:00 Fortnightly","opening":"Su 13:00-14:00,16:00-18:00"},"title":"Westoe Road Baptist Church"},"type":"Feature"},
		{"geometry":{"coordinates":[-1.44942,55.04330],"type":"Point"},"properties":{"_source":"warm_welcome","address":"Whitley Bay Baptist Church, Park Avenue, Whitley Bay, North Tyneside NE26 DX","description":"Open from 01-11-2022.","hours":{"_text":"Tuesday: 9:00 - 17:00","opening":"Tu 09:00-17:00"},"title":"Whitley Bay Baptist Church"},"type":"Feature"},
		{"geometry":{"coordinates":[-1.43978,55.04105],"type":"Point"},"properties":{"_source":"warm_welcome","address":"158 Whitley Road, Whitley Bay, Tyne and Wear NE26 2LY","description":"We are a completely inclusive space. Parents are required to supervise children at all times.","hours":{"_text":"Monday: 12:00 - 16:00, Thursday: 10:00 - 17:00, Friday: 10:00 - 16:30","opening":"Mo 12:00-16:00; Th 10:00-17:00; Fr 10:00-16:30"},"title":"Whitley Bay Big Local"},"type":"Feature"},
		{"geometry":{"coordinates":[-1.44493,55.04290],"type":"Point"},"properties":{"_source":"warm_welcome","address":"Whitley Bay CFC York Road, Whitley Bay, North Tyneside NE26 1AB","description":"Services include Books, magazines, newspaper, games & toys, free use of PCs & Wi Fi, highchairs & bottle warmers. Free hot drinks available Mon 2:30pm-5:00pm & Fri 9:30am-12:30pm","hours":{"_text":"Monday: 09:00 - 17:30, Tuesday: 09:00 - 17:30, Wednesday: 09:00 - 17:30, Thursday: 09:00 - 17:30, Friday: 09:00 - 17:30, Saturday: 09:00 - 13:05","opening":"Mo 09:00-17:30; Tu 09:00-17:30; We 09:00-17:30; Th 09:00-17:30; Fr 09:00-17:30; Sa 09:00-13:05"},"title":"Whitley Bay Library North Tyneside Libraries"},"type":"Feature"},
		{"geometry":{"coordinates":[-1.62815,55.04480],"type":"Point"},"properties":{"_source":"warm_welcome","address":"Canterbury Way , Wideopen, Newcastle upon Tyne NE13 6JJ","description":"Services include books, magazines, newspapers, games and toys, free use of PCs and wifi, high chairs and bottle warmer. Free hot drinks available during opening hours.","hours":{"_text":"Tuesday: 09:00 - 13:00 / 14:00 - 17:30, Thursday: 09:00 - 13:00 / 14:00 - 17:30, Saturday: 09:00 - 13:00","opening":"Tu 09:00-13:00,14:00-17:30; Th 09:00-13:00,14:00-17:30; Sa 09:00-13:00"},"title":"Wideopen Library"},"type":"Feature"},
		{"geometry":{"coordinates":[-1.41729,54.99472],"type":"Point"},"properties":{"_source":"warm_spaces","address":"Sea Winnings Way, South Shields, England, NE33 3PE, United Kingdom","description":"Free Food/Drink, Free Wi-Fi, Device Charging, People to chat to, Food/Drink for sale, Wheelchair Accessible, Toilets, Accessible Toilet, Parking","hours":{"_text":"Fridays, 1pm-3pm","opening":"Fr 13:00-15:00"},"title":"Westoe Crown Community Hub/AutismAble"},"type":"Feature"},
		{"geometry":{"coordinates":[-1.58065,54.97984],"type":"Point"},"properties":{"_source":"warm_spaces","address":"Heaton Road, Newcastle upon Tyne, England, NE6 1SB, United Kingdom","description":"Free Food/Drink, Free Wi-Fi, Device Charging, Advice, People to chat to, Food/Drink for sale, Wheelchair Accessible, Toilets, Accessible Toilet","hours":{"_text":"Wednesday 12pm-2pm","opening":"We 12:00-14:00"},"title":"Kingdom Life Church Drop In","url":"https://www.kingdomlifechurchnewcastle.com"},"type":"Feature"},
		{"geometry":{"coordinates":[-1.44487,55.00942],"type":"Point"},"properties":{"_source":"warm_spaces","address":"37-39 Howard Street, North Shields, England, NE30 1AR, United Kingdom","description":"Free Food/Drink, Device Charging, People to chat to, Space to work, Wheelchair Accessible, Toilets, Accessible Toilet, Child Friendly","hours":{"_text":"Thursdays, 9:30am-12:30pm","opening":"Th 09:30-12:30"},"title":"North Shields Baptist Church","url":"www.nsb.org.uk / https://www.facebook.com/profile.php?id=100064824843233"},"type":"Feature"},
		{"geometry":{"coordinates":[-1.68717,55.16916],"type":"Point"},"properties":{"_source":"warm_spaces","address":"24 Dacre Street, Morpeth, England, NE61 1HW, United Kingdom","description":"Free Food/Drink, Free Wi-Fi, Device Charging, People to chat to, Space to work, Wheelchair Accessible, Toilets, Accessible Toilet, Parking, Child Friendly","hours":{"_text":"12noon-3pm"},"title":"New Life Church","url":"https://www.newlife-morpeth.org"},"type":"Feature"},
		{"geometry":{"coordinates":[-1.69963,54.99233],"type":"Point"},"properties":{"_source":"warm_spaces","address":"West Denton Way, Newcastle upon Tyne, England, NE5 2QZ, United Kingdom","description":"Free Food/Drink, Free Wi-Fi, Device Charging, Advice, People to chat to, Space to work, Wheelchair Accessible, Toilets, Accessible Toilet, Parking, Child Friendly, Computer Access","hours":{"_text":"Tues &amp; Sat 10am-2pm, Thur 10am-6pm, Fri 10am-5pm","opening":"Tu 10:00-14:00; Sa 10:00-14:00; Th 10:00-18:00; Fr 10:00-17:00"},"title":"Outer West Library and Community Hub","url":"https://www.facebook.com/NewcastleLibraries/"},"type":"Feature"},
		{"geometry":{"coordinates":[-1.73753,54.98138],"type":"Point"},"properties":{"_source":"warm_spaces","address":"High Street, Newcastle upon Tyne, England, NE15 8LN, United Kingdom","description":"Free Food/Drink, Free Wi-Fi, Device Charging, Advice, People to chat to, Space to work, Wheelchair Accessible, Toilets, Accessible Toilet, Parking, Child Friendly, Computer Access","hours":{"_text":"Mon &amp; Sat 10am-2pm, Tues 10am-12.30pm and 1pm-5pm, Fri 1pm-5pm","opening":"Mo 10:00-14:00; Sa 10:00-14:00; Tu 10:00-12:30,13:00-17:00; Fr 13:00-17:00"},"title":"Newburn Library","url":"https://www.facebook.com/NewcastleLibraries/"},"type":"Feature"},
		{"geometry":{"coordinates":[-1.65335,55.00562],"type":"Point"},"properties":{"_source":"warm_spaces","address":"Hillsview Avenue, Newcastle upon Tyne, England, NE3 3QJ, United Kingdom","description":"Free Food/Drink, Free Wi-Fi, Device Charging, Advice, People to chat to, Space to work, Wheelchair Accessible, Toilets, Accessible Toilet, Parking, Child Friendly, Computer Access","hours":{"_text":"Tues/Sat 10am-2pm, Thur 10am-6pm, Fri 10am-5pm","opening":"Tu 10:00-14:00; Sa 10:00-14:00; Th 10:00-18:00; Fr 10:00-17:00"},"title":"Kenton Library","url":"https://www.facebook.com/NewcastleLibraries/"},"type":"Feature"},
		{"geometry":{"coordinates":[-1.58651,54.99571],"type":"Point"},"properties":{"_source":"warm_spaces","address":"Newton Place, Newcastle upon Tyne, England, NE7 7HD, United Kingdom","description":"Free Food/Drink, Free Wi-Fi, Device Charging, Advice, People to chat to, Space to work, Food/Drink for sale, Wheelchair Accessible, Toilets, Accessible Toilet, Parking, Child Friendly, Computer Access","hours":{"_text":"Tues/Thur 9.30am-1pm &amp; 1.30pm-5pm, Sat 10am-1pm","opening":"Tu 09:30-13:00; Th 09:30-13:00; Sa 10:00-13:00"},"title":"High Heaton Library","url":"https://www.facebook.com/NewcastleLibraries/"},"type":"Feature"},
		{"geometry":{"coordinates":[-1.63034,55.01105],"type":"Point"},"properties":{"_source":"warm_spaces","address":"Regent Farm Road, Newcastle upon Tyne, England, NE3 3HD, United Kingdom","description":"Free Food/Drink, Free Wi-Fi, Device Charging, Advice, People to chat to, Space to work, Wheelchair Accessible, Toilets, Accessible Toilet, Parking, Child Friendly, Computer Access","hours":{"_text":"Tues 10am-6pm, Wed/Sat 10am-2pm, Fri 10am-5pm","opening":"We 10:00-14:00; Sa 10:00-14:00; Tu 10:00-18:00; Fr 10:00-17:00"},"title":"Gosforth Library","url":"https://www.facebook.com/NewcastleLibraries/"},"type":"Feature"},
		{"geometry":{"coordinates":[-1.66022,54.98445],"type":"Point"},"properties":{"_source":"warm_spaces","address":"Fenham Hall Drive, Newcastle upon Tyne, England, NE4 9XD, United Kingdom","description":"Free Food/Drink, Free Wi-Fi, Device Charging, Advice, People to chat to, Space to work, Wheelchair Accessible, Toilets, Accessible Toilet, Parking, Child Friendly, Computer Access","hours":{"_text":"Mon/Wed/Fri 10am-5pm, Tues 10am-3pm, Thur 12 noon-5pm, Sat 10am-2pm","opening":"Mo 10:00-17:00; We 10:00-17:00; Fr 10:00-17:00; Tu 10:00-15:00; Th 12:00-17:00; Sa 10:00-14:00"},"title":"Fenham Library","url":"https://www.facebook.com/NewcastleLibraries/"},"type":"Feature"},
		{"geometry":{"coordinates":[-1.68723,54.98305],"type":"Point"},"properties":{"_source":"warm_spaces","address":"677 West Road, Newcastle upon Tyne, England, NE15 7QQ, United Kingdom","description":"Free Food/Drink, Free Wi-Fi, Device Charging, Advice, People to chat to, Space to work, Wheelchair Accessible, Toilets, Accessible Toilet, Parking, Child Friendly, Computer Access","hours":{"_text":"Mon &amp; Thur 10am-1pm and 1.30pm-5pm, Sat 10am-2pm","opening":"Mo 10:00-13:00,13:30-17:00; Th 10:00-13:00,13:30-17:00; Sa 10:00-14:00"},"title":"Denton Burn Library","url":"https://www.facebook.com/NewcastleLibraries/"},"type":"Feature"},
		{"geometry":{"coordinates":[-1.43198,55.03580],"type":"Point"},"properties":{"_source":"warm_spaces","address":"Front Street, North Shields, England, NE30 4QB, United Kingdom","description":"Free Food/Drink, Free Wi-Fi, Device Charging, People to chat to, Space to work, Toilets","hours":{"_text":"Monday 10am-4pm (often open earlier) to end Feb at least","opening":"Mo 10:00-16:00"},"title":"Cullercoats Watch House","url":"https://www.cullercoatswatchhouse.com"},"type":"Feature"},
		{"geometry":{"coordinates":[-1.59198,55.01268],"type":"Point"},"properties":{"_source":"warm_spaces","address":"West Farm Avenue, Newcastle upon Tyne, England, NE12 8RU, United Kingdom","description":"Free Food/Drink, People to chat to, Wheelchair Accessible, Toilets, Accessible Toilet, Parking","hours":{"_text":"Wednesday, 9am-1pm","opening":"We 09:00-13:00"},"title":"St Mary Magdalene Church","url":"https://www.facebook.com/search/top?q=st.%20mary%20magdalene%2C%20longbenton%20c%20of%20e"},"type":"Feature"},
		{"geometry":{"coordinates":[-1.62569,55.03534],"type":"Point"},"properties":{"_source":"warm_spaces","address":"Rotary Way, Newcastle upon Tyne, England, NE3 5EH, United Kingdom","description":"Free Wi-Fi, Device Charging, Space to work, Food/Drink for sale, Wheelchair Accessible, Toilets, Accessible Toilet, Parking, Child Friendly","hours":{"_text":"11am-7pm"},"title":"Mimis Ice Cream Parlour","url":"https://www.facebook.com/mimisicecreamemporium"},"type":"Feature"},
		{"geometry":{"coordinates":[-1.70644,54.98857],"type":"Point"},"properties":{"_source":"warm_spaces","address":"West Denton Community Church, 5 Middle Gate, Newcastle upon Tyne, England, NE5 5AY, United Kingdom","description":"Free Food/Drink, Device Charging, People to chat to, Space to work, An opportunity to enjoy a warm community cafe for free. Bring your knitting, a good book or join in with others over a cuppa.","hours":{"_text":"First Saturday of every month 9.30am-12.00","opening":"Sa[1] 09:30-12:00"},"title":"West Denton Community Church","url":"https://www.wdcchurch.com"},"type":"Feature"},
		{"geometry":{"coordinates":[-1.59868,55.13220],"type":"Point"},"properties":{"_source":"northumberland_county_council","address":"Bedlington Library, Glebe Road, Bedlington, Northumberland, NE22 6JX","hours":{"_text":""},"loc_pcd":true,"title":"Bedlington Library","url":"https://central.northumberlandfrontline.org.uk/Library/ServiceDetail/621635f4324c081715fcce1f"},"type":"Feature"},
		{"geometry":{"coordinates":[-1.56852,55.14096],"type":"Point"},"properties":{"_source":"northumberland_county_council","address":"East Bedlington Community Centre, 16 - 17 Station Street, Bedlington, Northumberland, NE22 7JN","hours":{"_text":""},"loc_pcd":true,"title":"Bedlington Station Library","url":"https://central.northumberlandfrontline.org.uk/Library/ServiceDetail/621635f4324c081715fcce1f"},"type":"Feature"},
		{"geometry":{"coordinates":[-1.56852,55.14096],"type":"Point"},"properties":{"_source":"northumberland_county_council","address":"East Bedlington Community Centre, 16 - 17 Station Street, Bedlington, Northumberland, NE22 7JN","hours":{"_text":""},"loc_pcd":true,"title":"East Bedlington Community Centre","url":"https://southeast.northumberlandfrontline.org.uk/Library/ServiceDetail/63726bc7bf5ac9529f9d1e9f"},"type":"Feature"},
		{"geometry":{"coordinates":[-1.60496,55.13267],"type":"Point"},"properties":{"_source":"northumberland_county_council","address":"The Lodge, St Benet Biscop Catholic Academy, Ridge Terrace, Bedlington, Northumberland, NE22 6ED","hours":{"_text":""},"loc_pcd":true,"title":"Leading Link","url":"Bedlington, Hartford Bridge"},"type":"Feature"},
		{"geometry":{"coordinates":[-1.50689,55.12706],"type":"Point"},"properties":{"_source":"northumberland_county_council","address":"Blyth Library, 20 Bridge Street, Blyth, Northumberland, NE24 2DJ","hours":{"_text":""},"loc_pcd":true,"title":"Blyth Library","url":"https://southeast.northumberlandfrontline.org.uk/Library/ServiceDetail/621635f4324c081715fcce1f"},"type":"Feature"},
		{"geometry":{"coordinates":[-1.50846,55.12754],"type":"Point"},"properties":{"_source":"northumberland_county_council","address":"4 Keel Row, Union Street, Blyth, Northumberland, NE24 1AH","hours":{"_text":""},"loc_pcd":true,"title":"Blyth Pride of Place Project Space","url":"Blyth, Newsham"},"type":"Feature"},
		{"geometry":{"coordinates":[-1.52040,55.12522],"type":"Point"},"properties":{"_source":"northumberland_county_council","address":"Blyth Sports Centre, Bolam Avenue, Blyth, Northumberland, NE24 5BT","hours":{"_text":""},"loc_pcd":true,"title":"Blyth Sports Centre","url":"Blyth, Newsham"},"type":"Feature"},
		{"geometry":{"coordinates":[-1.50629,55.12685],"type":"Point"},"properties":{"_source":"northumberland_county_council","address":"20 Stanley Street, Blyth, Northumberland, NE24 2BU","hours":{"_text":""},"loc_pcd":true,"title":"Blyth Valley Disabled Forum","url":"Blyth, Newsham"},"type":"Feature"},
		{"geometry":{"coordinates":[-1.54186,55.12669],"type":"Point"},"properties":{"_source":"northumberland_county_council","address":"Briardale Community Centre, Briardale Road, Cowpen, Blyth, Northumberland, NE24 5LA","hours":{"_text":""},"loc_pcd":true,"title":"Briardale House Youth &amp; Community Projects Ltd","url":"https://southeast.northumberlandfrontline.org.uk/Library/ServiceDetail/633c35373d4e860c0a5241d9"},"type":"Feature"},
		{"geometry":{"coordinates":[-1.50201,55.12809],"type":"Point"},"properties":{"_source":"northumberland_county_council","address":"118 Community Enterprise Centre, Ridley Street, Blyth, Northumberland, NE24 3AG","hours":{"_text":""},"loc_pcd":true,"title":"BRIC, Blyth Community Centre","url":"https://southeast.northumberlandfrontline.org.uk/Library/ServiceDetail/633d4c3d3d4e860c0a57550c"},"type":"Feature"},
		{"geometry":{"coordinates":[-1.51831,55.12464],"type":"Point"},"properties":{"_source":"northumberland_county_council","address":"St Wilfrids Church Hall, Claremont Terrace, Blyth, Northumberland, NE24 2LE","hours":{"_text":""},"loc_pcd":true,"title":"Community Food and Friendship Blyth","url":"Blyth, Newsham"},"type":"Feature"},
		{"geometry":{"coordinates":[-1.52138,55.14614],"type":"Point"},"properties":{"_source":"northumberland_county_council","address":"St Andrews Church, Unity Terrace, Cambois, Blyth, Northumberland, NE24 1QU","hours":{"_text":""},"loc_pcd":true,"title":"St Andrews Church","url":"Blyth, Newsham"},"type":"Feature"},
		{"geometry":{"coordinates":[-1.53017,55.10831],"type":"Point"},"properties":{"_source":"northumberland_county_council","address":"Church Of Yahweh, Cramlington Terrace, Blyth, Northumberland, NE24 4AS","hours":{"_text":""},"loc_pcd":true,"title":"The Congregation of Yahweh","url":"Blyth, Newsham"},"type":"Feature"},
		{"geometry":{"coordinates":[-1.58940,55.08735],"type":"Point"},"properties":{"_source":"northumberland_county_council","address":"Welcome Methodist Church, Station Road, Cramlington, Northumberland, NE23 1EN","hours":{"_text":""},"loc_pcd":true,"title":"CHARLEYs coffee and chat","url":"https://central.northumberlandfrontline.org.uk/Library/ServiceDetail/636a7544bf5ac9529f79408a"},"type":"Feature"},
		{"geometry":{"coordinates":[-1.59182,55.08504],"type":"Point"},"properties":{"_source":"northumberland_county_council","address":"Concordia Leisure Centre, Forum Way, Cramlington, Northumberland, NE23 6YB","hours":{"_text":""},"loc_pcd":true,"title":"Concordia Leisure Centre","url":"Cramlington"},"type":"Feature"},
		{"geometry":{"coordinates":[-1.56888,55.09612],"type":"Point"},"properties":{"_source":"northumberland_county_council","address":"1 Axminster Close, Cramlington, Northumberland, NE23 2UA","hours":{"_text":""},"loc_pcd":true,"title":"Cramlington Community House,","url":"Cramlington"},"type":"Feature"},
		{"geometry":{"coordinates":[-1.59182,55.08504],"type":"Point"},"properties":{"_source":"northumberland_county_council","address":"The Hub at Cramlington, Forum Way, Cramlington, Northumberland, NE23 6YB","hours":{"_text":""},"loc_pcd":true,"title":"Cramlington Library","url":"https://southeast.northumberlandfrontline.org.uk/Library/ServiceDetail/621635f4324c081715fcce1f"},"type":"Feature"},
		{"geometry":{"coordinates":[-1.58366,55.08658],"type":"Point"},"properties":{"_source":"northumberland_county_council","address":"Cramlington Masonic Hall, Cramlington, Northumberland, NE23 1DN","hours":{"_text":""},"loc_pcd":true,"title":"Cramlington Masonic Building","url":"Cramlington"},"type":"Feature"},
		{"geometry":{"coordinates":[-1.58430,55.08609],"type":"Point"},"properties":{"_source":"northumberland_county_council","address":"St Nicholas Church, Church Street, Cramlington, Northumberland, NE23 6QQ","hours":{"_text":""},"loc_pcd":true,"title":"St Nicholas' Church","url":"Cramlington"},"type":"Feature"},
		{"geometry":{"coordinates":[-1.59182,55.08504],"type":"Point"},"properties":{"_source":"northumberland_county_council","address":"The Hub at Cramlington, Forum Way, Cramlington, Northumberland, NE23 6YB","hours":{"_text":""},"loc_pcd":true,"title":"The Cramlington Hub","url":"https://southeast.northumberlandfrontline.org.uk/Library/ServiceDetail/624d6c658a38a23df1caef81"},"type":"Feature"},
		{"geometry":{"coordinates":[-1.50198,55.06447],"type":"Point"},"properties":{"_source":"northumberland_county_council","address":"Holywell Veterans Hut, Holywell Dene Road, Holywell, Whitley Bay, Northumberland, NE25 0LB","hours":{"_text":""},"loc_pcd":true,"title":"Holywell Community Centre - Veterans Hut","url":"Monkseaton, New Hartley, Holywell, Seaton Delaval"},"type":"Feature"},
		{"geometry":{"coordinates":[-1.51798,55.08406],"type":"Point"},"properties":{"_source":"northumberland_county_council","address":"Hartley Memorial Hall, St Michaels Avenue, New Hartley, Whitley Bay, Northumberland, NE25 0RP","hours":{"_text":""},"loc_pcd":true,"title":"New Hartley Community Association (Memorial Hall)","url":"Monkseaton, New Hartley, Holywell, Seaton Delaval"},"type":"Feature"},
		{"geometry":{"coordinates":[-1.52588,55.07062],"type":"Point"},"properties":{"_source":"northumberland_county_council","address":"Seaton Valley Library, Astley Community High School, Elsdon Avenue, Seaton Delaval, Whitley Bay, Northumberland, NE25 0BW","hours":{"_text":""},"loc_pcd":true,"title":"Seaton Valley Library","url":"https://southeast.northumberlandfrontline.org.uk/Library/ServiceDetail/621635f4324c081715fcce1f"},"type":"Feature"},
		{"geometry":{"coordinates":[-1.69101,55.16908],"type":"Point"},"properties":{"_source":"northumberland_county_council","address":"52 Newgate Street, Morpeth, Northumberland, NE61 1BE","hours":{"_text":""},"loc_pcd":true,"title":"Cafe des Amis","url":"Morpeth, Tranwell, Clifton Hepscott"},"type":"Feature"},
		{"geometry":{"coordinates":[-1.69106,55.16600],"type":"Point"},"properties":{"_source":"northumberland_county_council","address":"Riverside Leisure Centre, Newmarket, Morpeth, Northumberland, NE61 1PR","hours":{"_text":""},"loc_pcd":true,"title":"Morpeth Leisure Centre","url":"Morpeth, Tranwell, Clifton Hepscott"},"type":"Feature"},
		{"geometry":{"coordinates":[-1.69059,55.16965],"type":"Point"},"properties":{"_source":"northumberland_county_council","address":"Royal Sovereign House, Manchester Street, Morpeth, Northumberland, NE61 1AF","hours":{"_text":""},"loc_pcd":true,"title":"Morpeth Library","url":"https://central.northumberlandfrontline.org.uk/Library/ServiceDetail/621635f4324c081715fcce1f"},"type":"Feature"},
		{"geometry":{"coordinates":[-1.68773,55.17004],"type":"Point"},"properties":{"_source":"northumberland_county_council","address":"New Life Christian Centre, 24 Dacre Street, Morpeth, Northumberland, NE61 1HW","hours":{"_text":""},"loc_pcd":true,"title":"New Life Christian Centre","url":"Morpeth, Tranwell, Clifton Hepscott"},"type":"Feature"},
		{"geometry":{"coordinates":[-1.68437,55.16851],"type":"Point"},"properties":{"_source":"northumberland_county_council","address":"Reiver House, Staithes Lane, Low Stanners, Morpeth, Northumberland, NE61 1TD","hours":{"_text":""},"loc_pcd":true,"title":"Reiver House","url":"https://west.northumberlandfrontline.org.uk/Library/ServiceDetail/620d079f850dab9c0ec95433"},"type":"Feature"},
		{"geometry":{"coordinates":[-1.67485,55.15926],"type":"Point"},"properties":{"_source":"northumberland_county_council","address":"Stobhill Centre, Ninth Avenue, Stobhill Gate, Morpeth, Northumberland, NE61 2HS","hours":{"_text":""},"loc_pcd":true,"title":"Stobhill Community Centre","url":"https://central.northumberlandfrontline.org.uk/Library/ServiceDetail/632c95f63d4e860c0a1969b7"},"type":"Feature"},
		{"geometry":{"coordinates":[-1.67785,55.15925],"type":"Point"},"properties":{"_source":"northumberland_county_council","address":"37 Shields Road, Stobhill Gate, Morpeth, Northumberland, NE61 2SA","hours":{"_text":""},"loc_pcd":true,"title":"Stobhill Link","url":"https://north.northumberlandfrontline.org.uk/Library/ServiceDetail/6310aad459210faf7d544322"},"type":"Feature"},
		{"geometry":{"coordinates":[-1.74454,55.05018],"type":"Point"},"properties":{"_source":"northumberland_county_council","address":"Merton Hall, Merton Way, Ponteland, Newcastle Upon Tyne, Northumberland, NE20 9PX","hours":{"_text":""},"loc_pcd":true,"title":"Merton Hall Recreation Centre","url":"Ponteland"},"type":"Feature"},
		{"geometry":{"coordinates":[-1.74242,55.04714],"type":"Point"},"properties":{"_source":"northumberland_county_council","address":"Ponteland Leisure Centre, The Crescent, Callerton Lane, Ponteland, Newcastle Upon Tyne, Northumberland, NE20 9EG","hours":{"_text":""},"loc_pcd":true,"title":"Ponteland Leisure Centre","url":"Ponteland"},"type":"Feature"},
		{"geometry":{"coordinates":[-1.74242,55.04714],"type":"Point"},"properties":{"_source":"northumberland_county_council","address":"Ponteland Library, The Crescent, Callerton Lane, Ponteland, Newcastle Upon Tyne, Northumberland, NE20 9EG","hours":{"_text":""},"loc_pcd":true,"title":"Ponteland Library","url":"https://west.northumberlandfrontline.org.uk/Library/ServiceDetail/621635f4324c081715fcce1f"},"type":"Feature"},
		{"geometry":{"coordinates":[-1.74004,55.04992],"type":"Point"},"properties":{"_source":"northumberland_county_council","address":"Methodist Church, Bell Villas, Ponteland, Newcastle Upon Tyne, Northumberland, NE20 9BE","hours":{"_text":""},"loc_pcd":true,"title":"Ponteland Methodist Church Open Door drop in café","url":"Ponteland"},"type":"Feature"},
		{"geometry":{"coordinates":[-1.60278,55.16314],"type":"Point"},"properties":{"_source":"northumberland_county_council","address":"Sheepwash Bank, Guide Post, Choppington, Northumberland, NE62 5NB","hours":{"_text":""},"loc_pcd":true,"title":"Anglers Arms","url":"Scotland Gate, Guidepost, Stakeford, West Sleekburn, Bomarsund"},"type":"Feature"},
		{"geometry":{"coordinates":[-1.60078,55.16033],"type":"Point"},"properties":{"_source":"northumberland_county_council","address":"Guide Post Community Centre, Cleaswell Hill, Guide Post, Choppington, Northumberland, NE62 5DW","hours":{"_text":""},"loc_pcd":true,"title":"Guide Post Library","url":"https://central.northumberlandfrontline.org.uk/Library/ServiceDetail/621635f4324c081715fcce1f"},"type":"Feature"},
		{"geometry":{"coordinates":[-1.57650,55.16232],"type":"Point"},"properties":{"_source":"northumberland_county_council","address":"Stakeford And Bomarsund Welfare Centre, Gordon Terrace, Stakeford, Choppington, Northumberland, NE62 5UD","hours":{"_text":""},"loc_pcd":true,"title":"Stakeford and Bomarsund Welfare Centre","url":"Scotland Gate, Guidepost, Stakeford, West Sleekburn, Bomarsund"},"type":"Feature"},
		{"geometry":{"coordinates":[-1.47224,55.08275],"type":"Point"},"properties":{"_source":"northumberland_county_council","address":"Seaton Sluice Library, Seaton Sluice Community Centre, Albert Road, Seaton Sluice, Whitley Bay, Northumberland, NE26 4QX","hours":{"_text":""},"loc_pcd":true,"title":"Seaton Sluice Library","url":"https://southeast.northumberlandfrontline.org.uk/Library/ServiceDetail/621635f4324c081715fcce1f"},"type":"Feature"},
		{"geometry":{"coordinates":[-1.42667,54.99650],"type":"Point"},"properties":{"_source":"south_tyneside_council","address":"29 Beach Road, South Shields, NE33 2QUDrop-in:","description":"Monday: 9am to 1pm; Tuesday, Wednesday and Thursday: 9am to 4pm; Friday: 1 to 4pm; Saturday: 9.30am to 12.30pmNearest metro: South Shields; Nearest bus: Fowler Street, South Shields","loc_pcd":true,"title":"Age Concern Tyneside South (ACTS)"},"type":"Feature"},
		{"geometry":{"coordinates":[-1.42694,54.99975],"type":"Point"},"properties":{"_source":"south_tyneside_council","address":"124-126 Ocean Road, South Shields, NE33 2JF","description":"Nearest metro: South Shields; Nearest bus: Ocean Road or South Shields Interchange","hours":{"_text":"Monday - Thursday, 9.30am to 3pm","opening":"Mo-Th 09:30-15:00"},"loc_pcd":true,"title":"Apna Ghar (Women only)"},"type":"Feature"},
		{"geometry":{"coordinates":[-1.48541,54.98137],"type":"Point"},"properties":{"_source":"south_tyneside_council","address":"Cambrian Street, Jarrow, NE32 3QN","description":"Nearest metro: Jarrow; Nearest bus: Jarrow Bus Station","hours":{"_text":"Tuesday and Wednesday, 10am to 11:30am","opening":"Tu 10:00-11:30; We 10:00-11:30"},"loc_pcd":true,"title":"Big Local Jarrow"},"type":"Feature"},
		{"geometry":{"coordinates":[-1.42463,54.98664],"type":"Point"},"properties":{"_source":"south_tyneside_council","address":"42-44 Dean Road, Westoe, South Shields, NE33 4DZ","description":"Nearest metro: Chichester; Nearest bus: Dean Road / Sunderland Road","hours":{"_text":"Wednesday, 10am to 1pm","opening":"We 10:00-13:00"},"loc_pcd":true,"title":"Café Westoe"},"type":"Feature"},
		{"geometry":{"coordinates":[-1.43103,54.99888],"type":"Point"},"properties":{"_source":"south_tyneside_council","address":"Ocean Road, South Shields, NE33 2HZ","description":"Nearest metro: South Shields; Nearest bus: Ocean Road or South Shields Interchange","hours":{"_text":"Monday to Friday, 10am to 3pm","opening":"Mo-Fr 10:00-15:00"},"loc_pcd":true,"title":"Criterion Pub"},"type":"Feature"},
		{"geometry":{"coordinates":[-1.42500,55.00017],"type":"Point"},"properties":{"_source":"south_tyneside_council","address":"220 Ocean Road, South Shields, NE33 2JQ","description":"Nearest metro: South Shields; Nearest bus: Ocean Road or South Shields Interchange","hours":{"_text":"Monday, Wednesday, Thursday and Friday, 2pm to 6pm (Hot drinks for £1 and free soup) Thursday night free food and music (times to be confirmed)","opening":"Mo 14:00-18:00; We 14:00-18:00; Th 14:00-18:00; Fr 14:00-18:00"},"loc_pcd":true,"title":"Fisherman's Catch"},"type":"Feature"},
		{"geometry":{"coordinates":[-1.43111,54.99831],"type":"Point"},"properties":{"_source":"south_tyneside_council","address":"20, Denmark Centre, South Shields, NE33 2LR","description":"Nearest metro: South Shields; Nearest bus: South Shields Interchange","hours":{"_text":"Monday and Friday: 11am to 3pm Saturday: 11am to 2pm","opening":"Mo 11:00-15:00; Fr 11:00-15:00; Sa 11:00-14:00"},"loc_pcd":true,"title":"Grace Place"},"type":"Feature"},
		{"geometry":{"coordinates":[-1.49271,54.98137],"type":"Point"},"properties":{"_source":"south_tyneside_council","address":"Grange Road West, Jarrow, NE32 3JA","description":"Nearest metro: Jarrow; Nearest bus: Jarrow Bus Station","hours":{"_text":"Monday: 1pm to 3pm Friday: 10am to 12 noon Sunday: 1pm to 3pm","opening":"Mo 13:00-15:00; Fr 10:00-12:00; Su 13:00-15:00"},"loc_pcd":true,"title":"Grange Road Baptist Church"},"type":"Feature"},
		{"geometry":{"coordinates":[-1.44522,54.98553],"type":"Point"},"properties":{"_source":"south_tyneside_council","address":"St. Jude's Terrace, Laygate, South Shields, NE33 5BP","description":"Nearest metro: Chichester; Nearest bus: Laygate Place or Laygate","hours":{"_text":"Monday: 12.30pm to 2.30pm; Thursday: 12pm to 4pm STARCH: Tuesday, time to be confirmed","opening":"Mo 12:30-14:30; Th 12:00-16:00"},"loc_pcd":true,"title":"Living Waters Church"},"type":"Feature"},
		{"geometry":{"coordinates":[-1.42936,54.99957],"type":"Point"},"properties":{"_source":"south_tyneside_council","address":"Ocean Road, South Shields, NE33 2DW","description":"Nearest metro: South Shields; Nearest bus: Ocean Road or South Shields Interchange","hours":{"_text":"Home cooked meals cooked between 4pm and 7pm, Tuesday and Wednesday","opening":"Tu 16:00-19:00"},"loc_pcd":true,"title":"Ocean Road Community Association"},"type":"Feature"},
		{"geometry":{"coordinates":[-1.48342,54.98323],"type":"Point"},"properties":{"_source":"south_tyneside_council","address":"Queens Road, Jarrow, NE32 3PZ","description":"Nearest metro: Jarrow; Nearest bus: Jarrow bus station","hours":{"_text":"Monday - Friday, TIME TBC."},"loc_pcd":true,"title":"Queens Road Centre"},"type":"Feature"},
		{"geometry":{"coordinates":[-1.42827,54.99259],"type":"Point"},"properties":{"_source":"south_tyneside_council","address":"59 Westoe Road, South Shields, NE33 4LU","description":"Nearest metro: South Shields; Nearest bus: Westoe Road / Fowler Street","hours":{"_text":"Tuesday, Wednesday and Saturday"},"loc_pcd":true,"title":"Radio Shields"},"type":"Feature"},
		{"geometry":{"coordinates":[-1.43151,54.99873],"type":"Point"},"properties":{"_source":"south_tyneside_council","address":"King Street, South Shields, NE33 2JA","description":"Nearest metro: South Shields; Nearest bus: South Shields Interchange","hours":{"_text":"To be confirmed"},"loc_pcd":true,"title":"South Shields Museum"},"type":"Feature"},
		{"geometry":{"coordinates":[-1.43471,54.98723],"type":"Point"},"properties":{"_source":"south_tyneside_council","address":"Alice Street, Laygate, South Shields, NE33 5PB","description":"Nearest metro: Chichester; Nearest bus: TBC","hours":{"_text":"Wednesday (pm)"},"loc_pcd":true,"title":"St Jude's Church"},"type":"Feature"},
		{"geometry":{"coordinates":[-1.42299,54.99175],"type":"Point"},"properties":{"_source":"south_tyneside_council","address":"Mile End Road, South Shields, NE33 3DW","description":"Nearest metro: South Shields; Nearest bus: South Shields Interchange","hours":{"_text":"Monday and Saturday, 9am to 12noon (From early November 2022)","opening":"Mo 09:00-12:00; Sa 09:00-12:00"},"loc_pcd":true,"title":"St. Stephen's Church"},"type":"Feature"},
		{"geometry":{"coordinates":[-1.41975,54.98622],"type":"Point"},"properties":{"_source":"south_tyneside_council","address":"Greenfields Building (next to 1861 gym), Grosvenor Road entrance, South Shields, NE34 6ET","description":"Nearest metro: Chichester; Nearest bus: Dean Road, Sunderland Road","hours":{"_text":"Monday to Friday, 10am to 2pm","opening":"Mo-Fr 10:00-14:00"},"loc_pcd":true,"title":"Tyne Coast College"},"type":"Feature"},
		{"geometry":{"coordinates":[-1.44085,54.99499],"type":"Point"},"properties":{"_source":"south_tyneside_council","address":"Mill Dam, South Shields, NE33 1ES","description":"Drop-in: Wednesday, 2pm to 4pm","loc_pcd":true,"title":"The Customs House"},"type":"Feature"},
		{"geometry":{"coordinates":[-1.42824,54.99403],"type":"Point"},"properties":{"_source":"south_tyneside_council","address":"Westoe Road, South Shields, NE33 2SP","description":"Nearest metro: Chichester; Nearest bus: Westoe Road, South Shields","hours":{"_text":"Every Sunday 1pm to 2pm (mainly for older people) Family Film Evening, every other Sunday (including 4 December) 4pm to 6pm","opening":"Su 13:00-14:00; Su 16:00-18:00"},"loc_pcd":true,"title":"Westoe Road Baptist Church"},"type":"Feature"},
		{"geometry":{"coordinates":[-1.43337,55.00005],"type":"Point"},"properties":{"_source":"south_tyneside_council","address":"33 Mile End Road, South Shields, NE33 1TA","description":"Nearest metro: South Shields ; Nearest bus: South Shields Interchange, Ocean Road","hours":{"_text":"Monday to Friday 9:30am to 4:30pm. Free tea and coffee (up to 3 cups per day).","opening":"Mo-Fr 09:30-16:30"},"loc_pcd":true,"title":"WHiST"},"type":"Feature"},
		{"geometry":{"coordinates":[-1.43534,54.97784],"type":"Point"},"properties":{"_source":"south_tyneside_council","address":"Whitehall Street, South Shields, NE33 4SU","description":"Nearest metro: Tyne Dock; Nearest bus: Stanhope Road, South Shields","hours":{"_text":"Thursday, 9am to 12noon","opening":"Th 09:00-12:00"},"loc_pcd":true,"title":"All Saints Children Centre"},"type":"Feature"},
		{"geometry":{"coordinates":[-1.48314,54.98094],"type":"Point"},"properties":{"_source":"south_tyneside_council","address":"Stanley Street, Jarrow, NE32 3BQ","description":"Nearest metro: Jarrow; Nearest bus: Jarrow Bus Station","hours":{"_text":"Wednesday, 10am to 11:30am","opening":"We 10:00-11:30"},"loc_pcd":true,"title":"Jarrow Children Centre"},"type":"Feature"},
		{"geometry":{"coordinates":[-1.42774,54.99889],"type":"Point"},"properties":{"_source":"south_tyneside_council","address":"Flagg Court, South Shields, NE33 2LS","description":"Activity: Please contact Marine Park Children Centre for information; Nearest metro: South Shields; Nearest bus: Ocean Road / South Shields Interchange","loc_pcd":true,"title":"Marine Park Children Centre"},"type":"Feature"},
		{"geometry":{"coordinates":[-1.43162,54.98418],"type":"Point"},"properties":{"_source":"south_tyneside_council","address":"Garrick Street, South Shields, NE33 4JT","description":"Nearest metro: Chichester; Nearest bus: Stanhope Road","hours":{"_text":"Wednesday, 1pm to 4pm","opening":"We 13:00-16:00"},"loc_pcd":true,"title":"Riverside Children Centre"},"type":"Feature"},
		{"geometry":{"coordinates":[-1.48542,54.98137],"type":"Point"},"properties":{"_source":"south_tyneside_council","title":"Jarrow Focus","url":"https://www.southtyneside.gov.uk/article/14899#jarrow-focus"},"type":"Feature"},
		{"geometry":{"coordinates":[-1.43843,54.99711],"type":"Point"},"properties":{"_source":"south_tyneside_council","title":"The Word","url":"https://www.southtyneside.gov.uk/article/14899#the-word"},"type":"Feature"}
	]
}
