{
	"type": "FeatureCollection",
	"features": [
		{"geometry":{"coordinates":[-1.74002,55.05004],"type":"Point"},"properties":{"_source":"warm_welcome","address":"Bell Villas, Ponteland, Northumberland NE20 9BE","description":"A drop in café where we serve soup, hot drinks and homemade cakes. A very friendly and welcoming atmosphere.","hours":{"_text":"Monday: 13:00 - 16:00","opening":"Mo 13:00-16:00"},"title":"Open Door drop-in-café"},"type":"Feature"},
		{"geometry":{"coordinates":[-1.51838,55.00544],"type":"Point"},"properties":{"_source":"warm_welcome","address":"North Tyneside Council, Tyne and Wear NE28 9PA","description":"All welcome Services include books, magazines, newspapers, games and toys, free use of PCs and WiFi, high chairs and bottle warmers. Free hot drinks available Tuesday and Thursdays 9 am - 12.45 pm and 2 pm - 5 pm, as well as Saturdays 9 am - 12.45 pm.","hours":{"_text":"Tuesday: 09:00 - 13:00 / 14:00 - 17:30, Thursday: 09:00 - 13:00 / 14:00 - 17:50, Saturday: 09:00 - 13:00","opening":"Tu 09:00-13:00,14:00-17:30; Th 09:00-13:00,14:00-17:50; Sa 09:00-13:00"},"title":"Battle Hill Library"},"type":"Feature"},
		{"geometry":{"coordinates":[-1.55889,54.98474],"type":"Point"},"properties":{"_source":"warm_welcome","address":"Ambassador Hall, 3 Coutts Road, Walkergate, Newcastle upon Tyne NE6 4RB","description":"Light refreshments and conversation.","hours":{"_text":"Friday: 12:00 - 16:00, Sunday: 11:30 - 12:30","opening":"Fr 12:00-16:00; Su 11:30-12:30"},"title":"Church Hall in Coutts Road"},"type":"Feature"},
		{"geometry":{"coordinates":[-1.43634,55.03407],"type":"Point"},"properties":{"_source":"warm_welcome","address":"St Georges Road, Cullercoats, Tyne and Wear NE303JY","description":"Services include books, magazines, games and toys, free use of PCs and wifi, bottle warmers. Free hot drinks available during opening hours.","hours":{"_text":"Tuesday: 09:00 - 13:00 / 14:00 - 17:30, Friday: 09:00 - 13:00 / 14:00 - 17:30, Saturday: 09:00 - 13:00","opening":"Tu 09:00-13:00,14:00-17:30; Fr 09:00-13:00,14:00-17:30; Sa 09:00-13:00"},"title":"Cullercoats Library"},"type":"Feature"},
		{"geometry":{"coordinates":[-1.59560,55.05548],"type":"Point"},"properties":{"_source":"warm_welcome","address":"Market Street, Cramlington, Tyne and Wear NE23 7HS","description":"All welcome. Services include books, magazines, games and toys, free use of PCs and wifi, high chairs and bottle warmers. Free hot drinks and a snack available Tuesday, 2.30pm - 5pm. Children's food activities provided by Pretendy Chef programme, Quadrant Leisure CIC. Free hot drinks Thursdays 2pm - 5pm.","hours":{"_text":"Tuesday: 09:00 - 13:00 / 14:00 - 17:30, Thursday: 09:00 - 13:00 / 14:00 - 17:30, Saturday: 09:00 - 13:00","opening":"Tu 09:00-13:00,14:00-17:30; Th 09:00-13:00,14:00-17:30; Sa 09:00-13:00"},"title":"Dudley Library"},"type":"Feature"},
		{"geometry":{"coordinates":[-1.49806,55.04638],"type":"Point"},"properties":{"_source":"warm_welcome","address":"The Old School, Tyne & Wear NE25 9JY","description":"SPACE OPENING ON 7th November 2023** Old village school, which is now run as community centre","hours":{"_text":"Tuesday: 11:30 - 15:00","opening":"Tu 11:30-15:00"},"title":"Earsdon & Wellfield Community Centre"},"type":"Feature"},
		{"geometry":{"coordinates":[-1.43129,54.99843],"type":"Point"},"properties":{"_source":"warm_welcome","address":"20 Denmark Centre, Tyne and Wear NE33 2LR","description":"free coffee shop - hot drink and scone or cheese roll, chat, support","hours":{"_text":"Monday: 11:00 - 15:00, Wednesday: 11:00 - 14:00, Friday: 11:00 - 15:00","opening":"Mo 11:00-15:00; We 11:00-14:00; Fr 11:00-15:00"},"title":"Grace Place."},"type":"Feature"},
		{"geometry":{"coordinates":[-1.65938,54.98942],"type":"Point"},"properties":{"_source":"warm_welcome","address":"The Salvation Army, Tyne and Wear NE5 3JQ","description":"Welcome Warm Space All Welcome A Safe Space to Meet with Friends and Make New Friends Free Refreshments Available","hours":{"_text":"Tuesday: 10:00 - 14:00, Thursday: 10:00 - 14:00","opening":"Tu 10:00-14:00; Th 10:00-14:00"},"title":"he Salvation Army - Worship & Community Centre (Newcastle Upon Tyne)"},"type":"Feature"},
		{"geometry":{"coordinates":[-1.59143,54.98792],"type":"Point"},"properties":{"_source":"warm_welcome","address":"Holy Trinity Church , Tyne and Wear NE2 1HB","description":"Coffee and Connect. Drinks and chat in Chapel coffee lounge","hours":{"_text":"Wednesday: 10:30 - 12:00","opening":"We 10:30-12:00"},"title":"Holy Trinity Church Jesmond"},"type":"Feature"},
		{"geometry":{"coordinates":[-1.50358,54.99656],"type":"Point"},"properties":{"_source":"warm_welcome","address":"North Tyneside Council, Tyne and Wear NE28 7TG","description":"All welcome Services include books, magazines, newspapers, games and toys, free use of PCs and wifi, high chairs and bottle warmers. Free hot drinks available during opening hours.","hours":{"_text":"Tuesday: 09:00 - 13:00 / 14:00 - 17:30, Thursday: 09:00 - 13:00 / 14:00 - 17:30, Saturday: 09:00 - 13:00","opening":"Tu 09:00-13:00,14:00-17:30; Th 09:00-13:00,14:00-17:30; Sa 09:00-13:00"},"title":"Howdon Library"},"type":"Feature"},
		{"geometry":{"coordinates":[-1.71457,54.97782],"type":"Point"},"properties":{"_source":"warm_welcome","address":"1 Algernon Road, Newcastle upon Tyne, Newcastle upon Tyne NE15 8DT","description":"Methodist church at the heart of the community in Lemington. The hall is situated on the ground floor where all warm space-related activities take place, and is wheelchair accessible.","hours":{"_text":"Tuesday: 09:30 - 11:30, Thursday: 17:00 - 18:30","opening":"Tu 09:30-11:30; Th 17:00-18:30"},"title":"Lemington Methodist Church"},"type":"Feature"},
		{"geometry":{"coordinates":[-1.43471,54.98723],"type":"Point"},"properties":{"_source":"warm_welcome","address":"Living Waters Church, South Shields, Tyne and Wear NE33 5PB","description":"Warm welcome space providing food and company in a relaxed atmosphere.","hours":{"_text":"Thursday: 12:00 - 15:00","opening":"Th 12:00-15:00"},"title":"Living Waters Church"},"type":"Feature"},
		{"geometry":{"coordinates":[-1.46814,55.04039],"type":"Point"},"properties":{"_source":"warm_welcome","address":"Woodleigh Road, Monkseaton, Tyne and Wear NE258ET","description":"Services include books, magazines, newspapers, games and toys, free use of PCs and wifi, high chairs and bottle warmers. Free hot drinks available during opening hours (up to 60 mins before closing). Services include books, magazines, newspapers, games and toys, free use of PCs and wifi, high chairs and bottle warmers. Free hot drinks available during opening hours (up to 30 mins before closing).","hours":{"_text":"Tuesday: 09:00 - 13:00 / 14:00 - 17:30, Friday: 09:00 - 13:00 / 14:00 - 17:30, Saturday: 09:00 - 13:00","opening":"Tu 09:00-13:00,14:00-17:30; Fr 09:00-13:00,14:00-17:30; Sa 09:00-13:00"},"title":"Monkseaton Library"},"type":"Feature"},
		{"geometry":{"coordinates":[-1.44576,55.01072],"type":"Point"},"properties":{"_source":"warm_welcome","address":"Northumberland Square, North Shields, Tyne and Wear NE30 1QU","description":"All welcome Services include books, magazines, newspapers, games and toys, free use of PCs and wifi, high chairs and bottle warmers. Free hot drinks available Wed 9.30 – 12.30 and Fri 2.00-5.","hours":{"_text":"Monday: 09:00 - 17:30, Tuesday: 09:00 - 17:30, Wednesday: 09:00 - 17:30, Thursday: 09:00 - 17:30, Friday: 09:00 - 17:30, Saturday: 09:00 - 13:00","opening":"Mo 09:00-17:30; Tu 09:00-17:30; We 09:00-17:30; Th 09:00-17:30; Fr 09:00-17:30; Sa 09:00-13:00"},"title":"North Shields Library"},"type":"Feature"},
		{"geometry":{"coordinates":[-1.58624,55.01170],"type":"Point"},"properties":{"_source":"warm_welcome","address":"Oxford Centre, West Farm Avenue, Longbenton, Newcastle upon Tyne NE12 8LT","description":"Library/Community Space","hours":{"_text":"Monday: 09:00 - 16:00, Tuesday: 09:00 - 16:00, Wednesday: 09:00 - 16:00, Thursday: 09:00 - 16:00, Friday: 09:00 - 16:00, Saturday: 09:00 - 12:30","opening":"Mo 09:00-16:00; Tu 09:00-16:00; We 09:00-16:00; Th 09:00-16:00; Fr 09:00-16:00; Sa 09:00-12:30"},"title":"Oxford Centre"},"type":"Feature"},
		{"geometry":{"coordinates":[-1.58879,55.00171],"type":"Point"},"properties":{"_source":"warm_welcome","address":"Church Hall, Newcastle upon 'Tyne, Newcastle upon 'Tyne NE7 7QH NE7 7QH","description":"A welcoming space for everyone and anyone offering a tea, coffee, biscuits and easy conversation. We also have occasional talks from our guests on various topics.","hours":{"_text":"Wednesday: 14:00 - 16:00","opening":"We 14:00-16:00"},"title":"Places of Welcome"},"type":"Feature"},
		{"geometry":{"coordinates":[-1.45388,55.04677],"type":"Point"},"properties":{"_source":"warm_welcome","address":"St John's Methodist Church - Minor Hall, Tyne and Wear NE26 3ND","description":"Friday Cuppa","hours":{"_text":"Friday: 09:00 - 13:00","opening":"Fr 09:00-13:00"},"title":"St Johns Methodist Church"},"type":"Feature"},
		{"geometry":{"coordinates":[-1.60082,55.13018],"type":"Point"},"properties":{"_source":"warm_welcome","address":"The Salvation Army, Hartford Road West, Bedlington NE22 6HU","description":"Wednesday morning we offer tea and biscuits Thankful Friday is a drop in for tea/coffee and toasted tea cakes All free","hours":{"_text":"Wednesday: 09:00 - 11:30, Friday: 10:00 - 12:00","opening":"We 09:00-11:30; Fr 10:00-12:00"},"title":"The Salvation Army"},"type":"Feature"},
		{"geometry":{"coordinates":[-1.62082,55.00547],"type":"Point"},"properties":{"_source":"warm_welcome","address":"Trinity Church and Centre, Gosforth, Newcastle upon Tyne NE3 4AG","description":"A hot drink, friendly conversation, and a warm welcome","hours":{"_text":"Friday: 10:00 - 11:30","opening":"Fr 10:00-11:30"},"title":"Trinity Church Gosforth"},"type":"Feature"},
		{"geometry":{"coordinates":[-1.53497,54.99142],"type":"Point"},"properties":{"_source":"warm_welcome","address":"Wallsend Customer First Centre, Wallsend, Tyne and Wear NE28 8JR","description":"All welcome Services include books, magazines, newspapers, games and toys, free use of PCs and wifi, high chairs and bottle warmers. Free hot drinks available Wed 10 am – 4 pm and Saturday 10 am - 12.30 pm. Step inside Wallsend Customer First Centre and take the elevator, lift or stairs to the first floor.","hours":{"_text":"Monday: 09:00 - 17:30, Tuesday: 09:00 - 17:30, Wednesday: 09:00 - 17:30, Thursday: 09:00 - 17:30, Friday: 09:00 - 17:30, Saturday: 09:00 - 13:00","opening":"Mo 09:00-17:30; Tu 09:00-17:30; We 09:00-17:30; Th 09:00-17:30; Fr 09:00-17:30; Sa 09:00-13:00"},"title":"Wallsend Library"},"type":"Feature"},
		{"geometry":{"coordinates":[-1.47190,54.98066],"type":"Point"},"properties":{"_source":"warm_welcome","address":"St. Paul's Church, Jarrow, Tyne and Wear NE32 3DZ","description":"Everyone is welcome at St. Paul's There has been a welcome at St. Paul's for over 1300 years and we look forward to meeting people of all ages. We offer somewhere to chat and free refreshments.","hours":{"_text":"Monday: 11:00 - 15:00, Wednesday: 11:00 - 15:00, Saturday: 11:00 - 15:00","opening":"Mo 11:00-15:00; We 11:00-15:00; Sa 11:00-15:00"},"title":"Welcoming Place at St. Paul's Church, Jarrow, NE32 3DZ"},"type":"Feature"},
		{"geometry":{"coordinates":[-1.69856,55.00165],"type":"Point"},"properties":{"_source":"warm_welcome","address":"Stamfordham Road, Westerhope, Newcastle upon Tyne ne5 5ha","description":"Open from 09-01-2023.","hours":{"_text":"Monday: 10:00 - 11:45","opening":"Mo 10:00-11:45"},"title":"Westerhope Methodist Church"},"type":"Feature"},
		{"geometry":{"coordinates":[-1.56516,55.03594],"type":"Point"},"properties":{"_source":"warm_welcome","address":"White Swan Customer First Centre, North Tyneside NE12 6SS","description":"Library","hours":{"_text":"Tuesday: 14:00 - 17:00, Thursday: 14:00 - 17:00, Saturday: 09:30 - 12:30","opening":"Tu 14:00-17:00; Th 14:00-17:00; Sa 09:30-12:30"},"title":"White Swan Customer First Centre"},"type":"Feature"},
		{"geometry":{"coordinates":[-1.44524,55.04296],"type":"Point"},"properties":{"_source":"warm_welcome","address":"Whitley Bay Hub / Library, Whitley Bay, Tyne and Wear NE26 1AB","description":"All welcome, services include books, magazines, newspapers, jigsaws, games & toys, free use of PCs & Wi Fi, highchairs & bottle warmers. Free hot drinks available Mon 2:30pm-5:00pm & Fri 9:30am-12:30pm","hours":{"_text":"Monday: 09:00 - 17:30, Tuesday: 09:00 - 17:30, Wednesday: 09:00 - 17:30, Thursday: 09:00 - 17:30, Friday: 09:00 - 17:30, Saturday: 09:00 - 13:00","opening":"Mo 09:00-17:30; Tu 09:00-17:30; We 09:00-17:30; Th 09:00-17:30; Fr 09:00-17:30; Sa 09:00-13:00"},"title":"Whitley Bay Library, North Tyneside Libraries"},"type":"Feature"},
		{"geometry":{"coordinates":[-1.62882,55.04614],"type":"Point"},"properties":{"_source":"warm_welcome","address":"North Tyneside Council, Tyne and Wear NE13 6JJ","description":"All welcome Services include books, magazines, newspapers, games and toys, free use of PCs and WiFi. Free hot drinks available Tuesday and Thursdays 9 am - 12 noon and then 2 pm - 4 pm, as well as Saturdays 9 am - 12 noon.","hours":{"_text":"Tuesday: 09:00 - 13:00 / 14:00 - 17:30, Thursday: 09:00 - 13:00 / 14:00 - 17:30, Saturday: 09:00 - 13:00","opening":"Tu 09:00-13:00,14:00-17:30; Th 09:00-13:00,14:00-17:30; Sa 09:00-13:00"},"title":"Wideopen Library"},"type":"Feature"},
		{"geometry":{"coordinates":[-1.62543,55.05217],"type":"Point"},"properties":{"_source":"warm_welcome","address":"St Columba's Church, Wideopen, Tyne and Wear NE13 6NH NE13 6NH","description":"Space with a variety of activities, from crafts to crosswords, quizzes and singing, with home baked goods, tea and coffee","hours":{"_text":"Monday: 10:00 - 12:00","opening":"Mo 10:00-12:00"},"title":"Wideopen Wellbeing Warm Hub"},"type":"Feature"},
		{"geometry":{"coordinates":[-1.41729,54.99472],"type":"Point"},"properties":{"_source":"warm_spaces","address":"Sea Winnings Way, South Shields, England, NE33 3PE, United Kingdom","description":"Free Food/Drink, Free Wi-Fi, Device Charging, People to chat to, Food/Drink for sale, Wheelchair Accessible, Toilets, Accessible Toilet, Parking","hours":{"_text":"Fridays, 1pm-3pm","opening":"Fr 13:00-15:00"},"title":"Westoe Crown Community Hub/AutismAble"},"type":"Feature"},
		{"geometry":{"coordinates":[-1.58065,54.97984],"type":"Point"},"properties":{"_source":"warm_spaces","address":"Heaton Road, Newcastle upon Tyne, England, NE6 1SB, United Kingdom","description":"Free Food/Drink, Free Wi-Fi, Device Charging, Advice, People to chat to, Food/Drink for sale, Wheelchair Accessible, Toilets, Accessible Toilet","hours":{"_text":"Wednesday 12pm-2pm","opening":"We 12:00-14:00"},"title":"Kingdom Life Church Drop In","url":"https://www.kingdomlifechurchnewcastle.com"},"type":"Feature"},
		{"geometry":{"coordinates":[-1.44487,55.00942],"type":"Point"},"properties":{"_source":"warm_spaces","address":"37-39 Howard Street, North Shields, England, NE30 1AR, United Kingdom","description":"Free Food/Drink, Device Charging, People to chat to, Space to work, Wheelchair Accessible, Toilets, Accessible Toilet, Child Friendly","hours":{"_text":"Thursdays, 9:30am-12:30pm","opening":"Th 09:30-12:30"},"title":"North Shields Baptist Church","url":"www.nsb.org.uk / https://www.facebook.com/profile.php?id=100064824843233"},"type":"Feature"},
		{"geometry":{"coordinates":[-1.68717,55.16916],"type":"Point"},"properties":{"_source":"warm_spaces","address":"24 Dacre Street, Morpeth, England, NE61 1HW, United Kingdom","description":"Free Food/Drink, Free Wi-Fi, Device Charging, People to chat to, Space to work, Wheelchair Accessible, Toilets, Accessible Toilet, Parking, Child Friendly","hours":{"_text":"12noon-3pm"},"title":"New Life Church","url":"https://www.newlife-morpeth.org"},"type":"Feature"},
		{"geometry":{"coordinates":[-1.69963,54.99233],"type":"Point"},"properties":{"_source":"warm_spaces","address":"West Denton Way, Newcastle upon Tyne, England, NE5 2QZ, United Kingdom","description":"Free Food/Drink, Free Wi-Fi, Device Charging, Advice, People to chat to, Space to work, Wheelchair Accessible, Toilets, Accessible Toilet, Parking, Child Friendly, Computer Access","hours":{"_text":"Tues &amp; Sat 10am-2pm, Thur 10am-6pm, Fri 10am-5pm","opening":"Tu 10:00-14:00; Sa 10:00-14:00; Th 10:00-18:00; Fr 10:00-17:00"},"title":"Outer West Library and Community Hub","url":"https://www.facebook.com/NewcastleLibraries/"},"type":"Feature"},
		{"geometry":{"coordinates":[-1.73753,54.98138],"type":"Point"},"properties":{"_source":"warm_spaces","address":"High Street, Newcastle upon Tyne, England, NE15 8LN, United Kingdom","description":"Free Food/Drink, Free Wi-Fi, Device Charging, Advice, People to chat to, Space to work, Wheelchair Accessible, Toilets, Accessible Toilet, Parking, Child Friendly, Computer Access","hours":{"_text":"Mon &amp; Sat 10am-2pm, Tues 10am-12.30pm and 1pm-5pm, Fri 1pm-5pm","opening":"Mo 10:00-14:00; Sa 10:00-14:00; Tu 10:00-12:30,13:00-17:00; Fr 13:00-17:00"},"title":"Newburn Library","url":"https://www.facebook.com/NewcastleLibraries/"},"type":"Feature"},
		{"geometry":{"coordinates":[-1.65335,55.00562],"type":"Point"},"properties":{"_source":"warm_spaces","address":"Hillsview Avenue, Newcastle upon Tyne, England, NE3 3QJ, United Kingdom","description":"Free Food/Drink, Free Wi-Fi, Device Charging, Advice, People to chat to, Space to work, Wheelchair Accessible, Toilets, Accessible Toilet, Parking, Child Friendly, Computer Access","hours":{"_text":"Tues/Sat 10am-2pm, Thur 10am-6pm, Fri 10am-5pm","opening":"Tu 10:00-14:00; Sa 10:00-14:00; Th 10:00-18:00; Fr 10:00-17:00"},"title":"Kenton Library","url":"https://www.facebook.com/NewcastleLibraries/"},"type":"Feature"},
		{"geometry":{"coordinates":[-1.58651,54.99571],"type":"Point"},"properties":{"_source":"warm_spaces","address":"Newton Place, Newcastle upon Tyne, England, NE7 7HD, United Kingdom","description":"Free Food/Drink, Free Wi-Fi, Device Charging, Advice, People to chat to, Space to work, Food/Drink for sale, Wheelchair Accessible, Toilets, Accessible Toilet, Parking, Child Friendly, Computer Access","hours":{"_text":"Tues/Thur 9.30am-1pm &amp; 1.30pm-5pm, Sat 10am-1pm","opening":"Tu 09:30-13:00; Th 09:30-13:00; Sa 10:00-13:00"},"title":"High Heaton Library","url":"https://www.facebook.com/NewcastleLibraries/"},"type":"Feature"},
		{"geometry":{"coordinates":[-1.63034,55.01105],"type":"Point"},"properties":{"_source":"warm_spaces","address":"Regent Farm Road, Newcastle upon Tyne, England, NE3 3HD, United Kingdom","description":"Free Food/Drink, Free Wi-Fi, Device Charging, Advice, People to chat to, Space to work, Wheelchair Accessible, Toilets, Accessible Toilet, Parking, Child Friendly, Computer Access","hours":{"_text":"Tues 10am-6pm, Wed/Sat 10am-2pm, Fri 10am-5pm","opening":"We 10:00-14:00; Sa 10:00-14:00; Tu 10:00-18:00; Fr 10:00-17:00"},"title":"Gosforth Library","url":"https://www.facebook.com/NewcastleLibraries/"},"type":"Feature"},
		{"geometry":{"coordinates":[-1.66022,54.98445],"type":"Point"},"properties":{"_source":"warm_spaces","address":"Fenham Hall Drive, Newcastle upon Tyne, England, NE4 9XD, United Kingdom","description":"Free Food/Drink, Free Wi-Fi, Device Charging, Advice, People to chat to, Space to work, Wheelchair Accessible, Toilets, Accessible Toilet, Parking, Child Friendly, Computer Access","hours":{"_text":"Mon/Wed/Fri 10am-5pm, Tues 10am-3pm, Thur 12 noon-5pm, Sat 10am-2pm","opening":"Mo 10:00-17:00; We 10:00-17:00; Fr 10:00-17:00; Tu 10:00-15:00; Th 12:00-17:00; Sa 10:00-14:00"},"title":"Fenham Library","url":"https://www.facebook.com/NewcastleLibraries/"},"type":"Feature"},
		{"geometry":{"coordinates":[-1.68723,54.98305],"type":"Point"},"properties":{"_source":"warm_spaces","address":"677 West Road, Newcastle upon Tyne, England, NE15 7QQ, United Kingdom","description":"Free Food/Drink, Free Wi-Fi, Device Charging, Advice, People to chat to, Space to work, Wheelchair Accessible, Toilets, Accessible Toilet, Parking, Child Friendly, Computer Access","hours":{"_text":"Mon &amp; Thur 10am-1pm and 1.30pm-5pm, Sat 10am-2pm","opening":"Mo 10:00-13:00,13:30-17:00; Th 10:00-13:00,13:30-17:00; Sa 10:00-14:00"},"title":"Denton Burn Library","url":"https://www.facebook.com/NewcastleLibraries/"},"type":"Feature"},
		{"geometry":{"coordinates":[-1.43198,55.03580],"type":"Point"},"properties":{"_source":"warm_spaces","address":"Front Street, North Shields, England, NE30 4QB, United Kingdom","description":"Free Food/Drink, Free Wi-Fi, Device Charging, People to chat to, Space to work, Toilets","hours":{"_text":"Monday 10am-4pm (often open earlier) to end Feb at least","opening":"Mo 10:00-16:00"},"title":"Cullercoats Watch House","url":"https://www.cullercoatswatchhouse.com"},"type":"Feature"},
		{"geometry":{"coordinates":[-1.59198,55.01268],"type":"Point"},"properties":{"_source":"warm_spaces","address":"West Farm Avenue, Newcastle upon Tyne, England, NE12 8RU, United Kingdom","description":"Free Food/Drink, People to chat to, Wheelchair Accessible, Toilets, Accessible Toilet, Parking","hours":{"_text":"Wednesday, 9am-1pm","opening":"We 09:00-13:00"},"title":"St Mary Magdalene Church","url":"https://www.facebook.com/search/top?q=st.%20mary%20magdalene%2C%20longbenton%20c%20of%20e"},"type":"Feature"},
		{"geometry":{"coordinates":[-1.62569,55.03534],"type":"Point"},"properties":{"_source":"warm_spaces","address":"Rotary Way, Newcastle upon Tyne, England, NE3 5EH, United Kingdom","description":"Free Wi-Fi, Device Charging, Space to work, Food/Drink for sale, Wheelchair Accessible, Toilets, Accessible Toilet, Parking, Child Friendly","hours":{"_text":"11am-7pm"},"title":"Mimis Ice Cream Parlour","url":"https://www.facebook.com/mimisicecreamemporium"},"type":"Feature"},
		{"geometry":{"coordinates":[-1.70644,54.98857],"type":"Point"},"properties":{"_source":"warm_spaces","address":"West Denton Community Church, 5 Middle Gate, Newcastle upon Tyne, England, NE5 5AY, United Kingdom","description":"Free Food/Drink, Device Charging, People to chat to, Space to work, An opportunity to enjoy a warm community cafe for free. Bring your knitting, a good book or join in with others over a cuppa.","hours":{"_text":"First Saturday of every month 9.30am-12.00","opening":"Sa[1] 09:30-12:00"},"title":"West Denton Community Church","url":"https://www.wdcchurch.com"},"type":"Feature"},
		{"geometry":{"coordinates":[-1.55193,55.16974],"type":"Point"},"properties":{"_source":"northumberland_county_council","address":"Unit 2, Hedley Trade Park, Hedley Way, North Seaton Industrial Estate, Ashington, Northumberland, NE63 0YA","hours":{"_text":""},"loc_pcd":true,"title":"Happy Head Shed"},"type":"Feature"},
		{"geometry":{"coordinates":[-1.59868,55.13220],"type":"Point"},"properties":{"_source":"northumberland_county_council","address":"Bedlington Library, Glebe Road, Bedlington, Northumberland, NE22 6JX","hours":{"_text":""},"loc_pcd":true,"title":"Bedlington Library","url":"https://central.northumberlandfrontline.org.uk/Library/ServiceDetail/621635f4324c081715fcce1f"},"type":"Feature"},
		{"geometry":{"coordinates":[-1.56852,55.14096],"type":"Point"},"properties":{"_source":"northumberland_county_council","address":"East Bedlington Community Centre, 16 - 17 Station Street, Bedlington, Northumberland, NE22 7JN","hours":{"_text":""},"loc_pcd":true,"title":"Bedlington Station Library","url":"https://central.northumberlandfrontline.org.uk/Library/ServiceDetail/621635f4324c081715fcce1f"},"type":"Feature"},
		{"geometry":{"coordinates":[-1.56852,55.14096],"type":"Point"},"properties":{"_source":"northumberland_county_council","address":"East Bedlington Community Centre, 16 - 17 Station Street, Bedlington, Northumberland, NE22 7JN","hours":{"_text":""},"loc_pcd":true,"title":"East Bedlington Community Centre","url":"https://southeast.northumberlandfrontline.org.uk/Library/ServiceDetail/63726bc7bf5ac9529f9d1e9f"},"type":"Feature"},
		{"geometry":{"coordinates":[-1.60496,55.13267],"type":"Point"},"properties":{"_source":"northumberland_county_council","address":"The Lodge, St Benet Biscop Catholic Academy, Ridge Terrace, Bedlington, Northumberland, NE22 6ED","hours":{"_text":""},"loc_pcd":true,"title":"Leading Link"},"type":"Feature"},
		{"geometry":{"coordinates":[-1.50689,55.12706],"type":"Point"},"properties":{"_source":"northumberland_county_council","address":"Blyth Library, 20 Bridge Street, Blyth, Northumberland, NE24 2DJ","hours":{"_text":""},"loc_pcd":true,"title":"Blyth Library","url":"https://southeast.northumberlandfrontline.org.uk/Library/ServiceDetail/621635f4324c081715fcce1f"},"type":"Feature"},
		{"geometry":{"coordinates":[-1.50846,55.12754],"type":"Point"},"properties":{"_source":"northumberland_county_council","address":"4 Keel Row, Union Street, Blyth, Northumberland, NE24 1AH","hours":{"_text":""},"loc_pcd":true,"title":"Blyth Pride of Place Project Space"},"type":"Feature"},
		{"geometry":{"coordinates":[-1.52040,55.12522],"type":"Point"},"properties":{"_source":"northumberland_county_council","address":"Blyth Sports Centre, Bolam Avenue, Blyth, Northumberland, NE24 5BT","hours":{"_text":""},"loc_pcd":true,"title":"Blyth Sports Centre","url":"https://northumberlandfrontline.org.uk/Library/ServiceDetail/6406186979101c848bf1faa5"},"type":"Feature"},
		{"geometry":{"coordinates":[-1.50629,55.12685],"type":"Point"},"properties":{"_source":"northumberland_county_council","address":"20 Stanley Street, Blyth, Northumberland, NE24 2BU","hours":{"_text":""},"loc_pcd":true,"title":"Blyth Valley Disabled Forum"},"type":"Feature"},
		{"geometry":{"coordinates":[-1.54186,55.12669],"type":"Point"},"properties":{"_source":"northumberland_county_council","address":"Briardale Community Centre, Briardale Road, Cowpen, Blyth, Northumberland, NE24 5LA","hours":{"_text":""},"loc_pcd":true,"title":"Briardale House Youth &amp; Community Projects Ltd","url":"https://southeast.northumberlandfrontline.org.uk/Library/ServiceDetail/633c35373d4e860c0a5241d9"},"type":"Feature"},
		{"geometry":{"coordinates":[-1.50201,55.12809],"type":"Point"},"properties":{"_source":"northumberland_county_council","address":"118 Community Enterprise Centre, Ridley Street, Blyth, Northumberland, NE24 3AG","hours":{"_text":""},"loc_pcd":true,"title":"BRIC, Blyth Community Centre","url":"https://southeast.northumberlandfrontline.org.uk/Library/ServiceDetail/633d4c3d3d4e860c0a57550c"},"type":"Feature"},
		{"geometry":{"coordinates":[-1.51831,55.12464],"type":"Point"},"properties":{"_source":"northumberland_county_council","address":"St Wilfrids Church Hall, Claremont Terrace, Blyth, Northumberland, NE24 2LE","hours":{"_text":""},"loc_pcd":true,"title":"Community Food and Friendship Blyth"},"type":"Feature"},
		{"geometry":{"coordinates":[-1.52138,55.14614],"type":"Point"},"properties":{"_source":"northumberland_county_council","address":"St Andrews Church, Unity Terrace, Cambois, Blyth, Northumberland, NE24 1QU","hours":{"_text":""},"loc_pcd":true,"title":"St Andrews Church"},"type":"Feature"},
		{"geometry":{"coordinates":[-1.53017,55.10831],"type":"Point"},"properties":{"_source":"northumberland_county_council","address":"Church Of Yahweh, Cramlington Terrace, Blyth, Northumberland, NE24 4AS","hours":{"_text":""},"loc_pcd":true,"title":"The Congregation of Yahweh"},"type":"Feature"},
		{"geometry":{"coordinates":[-1.58940,55.08735],"type":"Point"},"properties":{"_source":"northumberland_county_council","address":"Welcome Methodist Church, Station Road, Cramlington, Northumberland, NE23 1EN","hours":{"_text":""},"loc_pcd":true,"title":"CHARLEYs coffee and chat","url":"https://central.northumberlandfrontline.org.uk/Library/ServiceDetail/636a7544bf5ac9529f79408a"},"type":"Feature"},
		{"geometry":{"coordinates":[-1.59182,55.08504],"type":"Point"},"properties":{"_source":"northumberland_county_council","address":"Concordia Leisure Centre, Forum Way, Cramlington, Northumberland, NE23 6YB","hours":{"_text":""},"loc_pcd":true,"title":"Concordia Leisure Centre","url":"https://northumberlandfrontline.org.uk/Library/ServiceDetail/6406186979101c848bf1faa5"},"type":"Feature"},
		{"geometry":{"coordinates":[-1.56888,55.09612],"type":"Point"},"properties":{"_source":"northumberland_county_council","address":"1 Axminster Close, Cramlington, Northumberland, NE23 2UA","hours":{"_text":""},"loc_pcd":true,"title":"Cramlington Community House,"},"type":"Feature"},
		{"geometry":{"coordinates":[-1.59182,55.08504],"type":"Point"},"properties":{"_source":"northumberland_county_council","address":"The Hub at Cramlington, Forum Way, Cramlington, Northumberland, NE23 6YB","hours":{"_text":""},"loc_pcd":true,"title":"Cramlington Library","url":"https://southeast.northumberlandfrontline.org.uk/Library/ServiceDetail/621635f4324c081715fcce1f"},"type":"Feature"},
		{"geometry":{"coordinates":[-1.58366,55.08658],"type":"Point"},"properties":{"_source":"northumberland_county_council","address":"Cramlington Masonic Hall, Cramlington, Northumberland, NE23 1DN","hours":{"_text":""},"loc_pcd":true,"title":"Cramlington Masonic Building"},"type":"Feature"},
		{"geometry":{"coordinates":[-1.58430,55.08609],"type":"Point"},"properties":{"_source":"northumberland_county_council","address":"St Nicholas Church, Church Street, Cramlington, Northumberland, NE23 6QQ","hours":{"_text":""},"loc_pcd":true,"title":"St Nicholas' Church"},"type":"Feature"},
		{"geometry":{"coordinates":[-1.59182,55.08504],"type":"Point"},"properties":{"_source":"northumberland_county_council","address":"The Hub at Cramlington, Forum Way, Cramlington, Northumberland, NE23 6YB","hours":{"_text":""},"loc_pcd":true,"title":"The Cramlington Hub","url":"https://southeast.northumberlandfrontline.org.uk/Library/ServiceDetail/624d6c658a38a23df1caef81"},"type":"Feature"},
		{"geometry":{"coordinates":[-1.50198,55.06447],"type":"Point"},"properties":{"_source":"northumberland_county_council","address":"Holywell Veterans Hut, Holywell Dene Road, Holywell, Whitley Bay, Northumberland, NE25 0LB","hours":{"_text":""},"loc_pcd":true,"title":"Holywell Community Centre - Veterans Hut"},"type":"Feature"},
		{"geometry":{"coordinates":[-1.51798,55.08406],"type":"Point"},"properties":{"_source":"northumberland_county_council","address":"Hartley Memorial Hall, St Michaels Avenue, New Hartley, Whitley Bay, Northumberland, NE25 0RP","hours":{"_text":""},"loc_pcd":true,"title":"New Hartley Community Association (Memorial Hall)"},"type":"Feature"},
		{"geometry":{"coordinates":[-1.52588,55.07062],"type":"Point"},"properties":{"_source":"northumberland_county_council","address":"Seaton Valley Library, Astley Community High School, Elsdon Avenue, Seaton Delaval, Whitley Bay, Northumberland, NE25 0BW","hours":{"_text":""},"loc_pcd":true,"title":"Seaton Valley Library","url":"https://southeast.northumberlandfrontline.org.uk/Library/ServiceDetail/621635f4324c081715fcce1f"},"type":"Feature"},
		{"geometry":{"coordinates":[-1.69101,55.16908],"type":"Point"},"properties":{"_source":"northumberland_county_council","address":"52 Newgate Street, Morpeth, Northumberland, NE61 1BE","hours":{"_text":""},"loc_pcd":true,"title":"Cafe des Amis"},"type":"Feature"},
		{"geometry":{"coordinates":[-1.69106,55.16600],"type":"Point"},"properties":{"_source":"northumberland_county_council","address":"Riverside Leisure Centre, Newmarket, Morpeth, Northumberland, NE61 1PR","hours":{"_text":""},"loc_pcd":true,"title":"Morpeth Leisure Centre","url":"https://northumberlandfrontline.org.uk/Library/ServiceDetail/6406186979101c848bf1faa5"},"type":"Feature"},
		{"geometry":{"coordinates":[-1.69059,55.16965],"type":"Point"},"properties":{"_source":"northumberland_county_council","address":"Royal Sovereign House, Manchester Street, Morpeth, Northumberland, NE61 1AF","hours":{"_text":""},"loc_pcd":true,"title":"Morpeth Library","url":"https://central.northumberlandfrontline.org.uk/Library/ServiceDetail/621635f4324c081715fcce1f"},"type":"Feature"},
		{"geometry":{"coordinates":[-1.68773,55.17004],"type":"Point"},"properties":{"_source":"northumberland_county_council","address":"New Life Christian Centre, 24 Dacre Street, Morpeth, Northumberland, NE61 1HW","hours":{"_text":""},"loc_pcd":true,"title":"New Life Christian Centre"},"type":"Feature"},
		{"geometry":{"coordinates":[-1.68437,55.16851],"type":"Point"},"properties":{"_source":"northumberland_county_council","address":"Reiver House, Staithes Lane, Low Stanners, Morpeth, Northumberland, NE61 1TD","hours":{"_text":""},"loc_pcd":true,"title":"Reiver House","url":"https://west.northumberlandfrontline.org.uk/Library/ServiceDetail/620d079f850dab9c0ec95433"},"type":"Feature"},
		{"geometry":{"coordinates":[-1.67485,55.15926],"type":"Point"},"properties":{"_source":"northumberland_county_council","address":"Stobhill Centre, Ninth Avenue, Stobhill Gate, Morpeth, Northumberland, NE61 2HS","hours":{"_text":""},"loc_pcd":true,"title":"Stobhill Community Centre","url":"https://central.northumberlandfrontline.org.uk/Library/ServiceDetail/632c95f63d4e860c0a1969b7"},"type":"Feature"},
		{"geometry":{"coordinates":[-1.67785,55.15925],"type":"Point"},"properties":{"_source":"northumberland_county_council","address":"37 Shields Road, Stobhill Gate, Morpeth, Northumberland, NE61 2SA","hours":{"_text":""},"loc_pcd":true,"title":"Stobhill Link","url":"https://north.northumberlandfrontline.org.uk/Library/ServiceDetail/6310aad459210faf7d544322"},"type":"Feature"},
		{"geometry":{"coordinates":[-1.74454,55.05018],"type":"Point"},"properties":{"_source":"northumberland_county_council","address":"Merton Hall, Merton Way, Ponteland, Newcastle Upon Tyne, Northumberland, NE20 9PX","hours":{"_text":""},"loc_pcd":true,"title":"Merton Hall Recreation Centre"},"type":"Feature"},
		{"geometry":{"coordinates":[-1.74242,55.04714],"type":"Point"},"properties":{"_source":"northumberland_county_council","address":"Ponteland Leisure Centre, The Crescent, Callerton Lane, Ponteland, Newcastle Upon Tyne, Northumberland, NE20 9EG","hours":{"_text":""},"loc_pcd":true,"title":"Ponteland Leisure Centre","url":"https://northumberlandfrontline.org.uk/Library/ServiceDetail/6406186979101c848bf1faa5"},"type":"Feature"},
		{"geometry":{"coordinates":[-1.74242,55.04714],"type":"Point"},"properties":{"_source":"northumberland_county_council","address":"Ponteland Library, The Crescent, Callerton Lane, Ponteland, Newcastle Upon Tyne, Northumberland, NE20 9EG","hours":{"_text":""},"loc_pcd":true,"title":"Ponteland Library","url":"https://west.northumberlandfrontline.org.uk/Library/ServiceDetail/621635f4324c081715fcce1f"},"type":"Feature"},
		{"geometry":{"coordinates":[-1.74004,55.04992],"type":"Point"},"properties":{"_source":"northumberland_county_council","address":"Methodist Church, Bell Villas, Ponteland, Newcastle Upon Tyne, Northumberland, NE20 9BE","hours":{"_text":""},"loc_pcd":true,"title":"Ponteland Methodist Church Open Door drop in café"},"type":"Feature"},
		{"geometry":{"coordinates":[-1.60278,55.16314],"type":"Point"},"properties":{"_source":"northumberland_county_council","address":"Sheepwash Bank, Guide Post, Choppington, Northumberland, NE62 5NB","hours":{"_text":""},"loc_pcd":true,"title":"Anglers Arms"},"type":"Feature"},
		{"geometry":{"coordinates":[-1.60078,55.16033],"type":"Point"},"properties":{"_source":"northumberland_county_council","address":"Guide Post Community Centre, Cleaswell Hill, Guide Post, Choppington, Northumberland, NE62 5DW","hours":{"_text":""},"loc_pcd":true,"title":"Guide Post Library","url":"https://central.northumberlandfrontline.org.uk/Library/ServiceDetail/621635f4324c081715fcce1f"},"type":"Feature"},
		{"geometry":{"coordinates":[-1.57650,55.16232],"type":"Point"},"properties":{"_source":"northumberland_county_council","address":"Stakeford And Bomarsund Welfare Centre, Gordon Terrace, Stakeford, Choppington, Northumberland, NE62 5UD","hours":{"_text":""},"loc_pcd":true,"title":"Stakeford and Bomarsund Welfare Centre"},"type":"Feature"},
		{"geometry":{"coordinates":[-1.47224,55.08275],"type":"Point"},"properties":{"_source":"northumberland_county_council","address":"Seaton Sluice Library, Seaton Sluice Community Centre, Albert Road, Seaton Sluice, Whitley Bay, Northumberland, NE26 4QX","hours":{"_text":""},"loc_pcd":true,"title":"Seaton Sluice Library","url":"https://southeast.northumberlandfrontline.org.uk/Library/ServiceDetail/621635f4324c081715fcce1f"},"type":"Feature"},
		{"geometry":{"coordinates":[-1.42667,54.99650],"type":"Point"},"properties":{"_source":"south_tyneside_council","address":"29 Beach Road, South Shields, NE33 2QUDrop-in:Monday: 9am to 4pmTuesday to Thursday: 9am to 4pmFriday: 1pm to 4pmSaturday: 9.30am to 12.30pmNearest metro: South Shields","description":"Nearest bus: Fowler Street, South Shields","loc_pcd":true,"title":"Age Concern Tyneside South (ACTS)"},"type":"Feature"},
		{"geometry":{"coordinates":[-1.42694,54.99975],"type":"Point"},"properties":{"_source":"south_tyneside_council","address":"124-126 Ocean Road, South Shields, NE33 2JFDrop-in:Monday to Thursday: 9.30am to 3pmNearest metro: South Shields","description":"Nearest bus: Ocean Road or South Shields Interchange","loc_pcd":true,"title":"Apna Ghar (Women only)"},"type":"Feature"},
		{"geometry":{"coordinates":[-1.48541,54.98137],"type":"Point"},"properties":{"_source":"south_tyneside_council","address":"Cambrian Street, Jarrow, NE32 3QNDrop-in plus activities: Tuesday and Wednesday: 10am to 11.30amDigital support on Wednesday: 10am to 11.30amNearest metro: Jarrow","description":"Nearest bus: Jarrow Bus Station","loc_pcd":true,"title":"Big Local Jarrow"},"type":"Feature"},
		{"geometry":{"coordinates":[-1.43103,54.99888],"type":"Point"},"properties":{"_source":"south_tyneside_council","address":"Ocean Road, South Shields, NE33 2HZDrop-in:Monday to Friday, 10am to 3pmNearest metro: South Shields","description":"Nearest bus: Ocean Road or South Shields Interchange","loc_pcd":true,"title":"Criterion Pub"},"type":"Feature"},
		{"geometry":{"coordinates":[-1.42500,55.00017],"type":"Point"},"properties":{"_source":"south_tyneside_council","address":"220 Ocean Road, South Shields, NE33 2JQDrop-in: Monday, Wednesday, Thursday and Friday: 2pm to 6pm (Hot drinks for £1 and free soup)Thursday night free food and music: 5pm to 8pmNearest metro: South Shields","description":"Nearest bus: Ocean Road or South Shields Interchange","loc_pcd":true,"title":"Fisherman's Catch"},"type":"Feature"},
		{"geometry":{"coordinates":[-1.43111,54.99831],"type":"Point"},"properties":{"_source":"south_tyneside_council","address":"20, Denmark Centre, South Shields, NE33 2LRDrop-in: Monday and Friday: 11am to 3pmWednesday: 11am to 2pmNearest metro: South Shields","description":"Nearest bus: South Shields Interchange","loc_pcd":true,"title":"Grace Place"},"type":"Feature"},
		{"geometry":{"coordinates":[-1.49271,54.98137],"type":"Point"},"properties":{"_source":"south_tyneside_council","address":"Grange Road West, Jarrow, NE32 3JADrop-in: Monday: 1pm to 3pmFriday: 10am to 12pmSunday: 1pm to 3pmNearest metro: Jarrow","description":"Nearest bus: Jarrow Bus Station","loc_pcd":true,"title":"Grange Road Baptist Church"},"type":"Feature"},
		{"geometry":{"coordinates":[-1.44522,54.98553],"type":"Point"},"properties":{"_source":"south_tyneside_council","address":"St. Jude's Terrace, Laygate, South Shields, NE33 5BPDrop-in: Thursday: 12pm to 4pmNearest metro: Chichester","description":"Nearest bus: Laygate Place or Laygate","loc_pcd":true,"title":"Living Waters Church"},"type":"Feature"},
		{"geometry":{"coordinates":[-1.43974,54.98144],"type":"Point"},"properties":{"_source":"south_tyneside_council","address":"Dean Road, South Shields, NE33 5LPDrop-in:Tuesday to Thursday: 10am to 4pmNearest metro: Tyne Dock","description":"Nearest bus: Dean Road / Marshall Wallis Road","loc_pcd":true,"title":"Lucie's Laundry"},"type":"Feature"},
		{"geometry":{"coordinates":[-1.42936,54.99957],"type":"Point"},"properties":{"_source":"south_tyneside_council","address":"Ocean Road, South Shields, NE33 2DWDrop-in:Monday to Friday, 9am to 6pm (Affordable meals and snacks available)Nearest metro: South Shields","description":"Nearest bus: Ocean Road or South Shields Interchange","loc_pcd":true,"title":"Ocean Road Community Association"},"type":"Feature"},
		{"geometry":{"coordinates":[-1.42299,54.99175],"type":"Point"},"properties":{"_source":"south_tyneside_council","address":"Mile End Road, South Shields, NE33 3DWDrop-in:Saturday coffee morning, 10am to 11.30amNearest metro: South Shields","description":"Nearest bus: South Shields Interchange","loc_pcd":true,"title":"St. Stephen's Church"},"type":"Feature"},
		{"geometry":{"coordinates":[-1.42463,54.98664],"type":"Point"},"properties":{"_source":"south_tyneside_council","address":"42 - 44 Dean Road, Westoe, South Shields, NE33 4DZDrop-in: Wednesday, 12pm to 2pm (free soup and bun is available)Nearest metro: Chichester","description":"Nearest bus: Dean Road / Sunderland Road","loc_pcd":true,"title":"Café Westoe"},"type":"Feature"},
		{"geometry":{"coordinates":[-1.43337,55.00005],"type":"Point"},"properties":{"_source":"south_tyneside_council","address":"33 Mile End Road, South Shields, NE33 1TADrop-in and activities (Women only): Monday to Thursday: 10am to 2pmNearest metro: South Shields","description":"Nearest bus: South Shields Interchange, Ocean Road","loc_pcd":true,"title":"WHiST"},"type":"Feature"},
		{"geometry":{"coordinates":[-1.43534,54.97784],"type":"Point"},"properties":{"_source":"south_tyneside_council","address":"Whitehall Street, South Shields, NE33 4SUDrop-in for parents under 4s:Thursday: 9am to 12pmNearest metro: Tyne Dock","description":"Nearest bus: Stanhope Road, South Shields","loc_pcd":true,"title":"All Saints Family Hub"},"type":"Feature"},
		{"geometry":{"coordinates":[-1.42774,54.99889],"type":"Point"},"properties":{"_source":"south_tyneside_council","address":"Flagg Court, South Shields, NE33 2LS","description":"Activity: Please contact Marine Park Family Hub for information; Nearest metro: South Shields; Nearest bus: Ocean Road / South Shields Interchange","loc_pcd":true,"title":"Marine Park Family Hub"},"type":"Feature"},
		{"geometry":{"coordinates":[-1.43162,54.98418],"type":"Point"},"properties":{"_source":"south_tyneside_council","address":"Garrick Street, South Shields, NE33 4JTDrop-in for parents with children under 4: Wednesdays, 1pm to 4pmNearest metro: Chichester","description":"Nearest bus: Stanhope Road","loc_pcd":true,"title":"Riverside Family Hub"},"type":"Feature"},
		{"geometry":{"coordinates":[-1.48542,54.98137],"type":"Point"},"properties":{"_source":"south_tyneside_council","title":"Jarrow Focus","url":"https://www.southtyneside.gov.uk/article/14899#jarrow-focus"},"type":"Feature"},
		{"geometry":{"coordinates":[-1.43843,54.99711],"type":"Point"},"properties":{"_source":"south_tyneside_council","title":"The Word","url":"https://www.southtyneside.gov.uk/article/14899#the-word"},"type":"Feature"}
	]
}
