{
	"type": "FeatureCollection",
	"features": [
		{"geometry":{"coordinates":[-1.74002,55.05004],"type":"Point"},"properties":{"_source":"warm_welcome","address":"Bell Villas, Ponteland, Northumberland NE20 9BE","description":"A drop in café where we serve soup, hot drinks and homemade cakes. A very friendly and welcoming atmosphere.","hours":{"_text":"Monday: 13:00 - 16:00","opening":"Mo 13:00-16:00"},"title":"Open Door drop-in-café"},"type":"Feature"},
		{"geometry":{"coordinates":[-1.51838,55.00544],"type":"Point"},"properties":{"_source":"warm_welcome","address":"North Tyneside Council, Tyne and Wear NE28 9PA","description":"All welcome Services include books, magazines, newspapers, games and toys, free use of PCs and WiFi, high chairs and bottle warmers. Free hot drinks available Tuesday and Thursdays 9 am - 12.45 pm and 2 pm - 5 pm, as well as Saturdays 9 am - 12.45 pm.","hours":{"_text":"Tuesday: 09:00 - 13:00 / 14:00 - 17:30, Thursday: 09:00 - 13:00 / 14:00 - 17:50, Saturday: 09:00 - 13:00","opening":"Tu 09:00-13:00,14:00-17:30; Th 09:00-13:00,14:00-17:50; Sa 09:00-13:00"},"title":"Battle Hill Library"},"type":"Feature"},
		{"geometry":{"coordinates":[-1.51832,55.12314],"type":"Point"},"properties":{"_source":"warm_welcome","address":"Northumberland County Council, Blyth, Northumberland NE24 2DJ","description":"We are a public library so accessible and open to all.","hours":{"_text":"Monday: 09:00 - 19:00, Tuesday: 09:00 - 17:00, Wednesday: 09:00 - 17:00, Thursday: 09:00 - 17:00, Friday: 09:00 - 17:00, Saturday: 09:30 - 12:30","opening":"Mo 09:00-19:00; Tu 09:00-17:00; We 09:00-17:00; Th 09:00-17:00; Fr 09:00-17:00; Sa 09:30-12:30"},"title":"Blyth library"},"type":"Feature"},
		{"geometry":{"coordinates":[-1.55889,54.98474],"type":"Point"},"properties":{"_source":"warm_welcome","address":"Ambassador Hall, 3 Coutts Road, Walkergate, Newcastle upon Tyne NE6 4RB","description":"Light refreshments and conversation.","hours":{"_text":"Friday: 12:00 - 16:00, Sunday: 11:30 - 12:30","opening":"Fr 12:00-16:00; Su 11:30-12:30"},"title":"Church Hall in Coutts Road"},"type":"Feature"},
		{"geometry":{"coordinates":[-1.43634,55.03407],"type":"Point"},"properties":{"_source":"warm_welcome","address":"St Georges Road, Cullercoats, Tyne and Wear NE303JY","description":"Services include books, magazines, games and toys, free use of PCs and wifi, bottle warmers. Free hot drinks available during opening hours.","hours":{"_text":"Tuesday: 09:00 - 13:00 / 14:00 - 17:30, Friday: 09:00 - 13:00 / 14:00 - 17:30, Saturday: 09:00 - 13:00","opening":"Tu 09:00-13:00,14:00-17:30; Fr 09:00-13:00,14:00-17:30; Sa 09:00-13:00"},"title":"Cullercoats Library"},"type":"Feature"},
		{"geometry":{"coordinates":[-1.59560,55.05548],"type":"Point"},"properties":{"_source":"warm_welcome","address":"Market Street, Cramlington, Tyne and Wear NE23 7HS","description":"All welcome. Services include books, magazines, games and toys, free use of PCs and wifi, high chairs and bottle warmers. Free hot drinks and a snack available Tuesday, 2.30pm - 5pm. Children's food activities provided by Pretendy Chef programme, Quadrant Leisure CIC. Free hot drinks Thursdays 2pm - 5pm.","hours":{"_text":"Tuesday: 09:00 - 13:00 / 14:00 - 17:30, Thursday: 09:00 - 13:00 / 14:00 - 17:30, Saturday: 09:00 - 13:00","opening":"Tu 09:00-13:00,14:00-17:30; Th 09:00-13:00,14:00-17:30; Sa 09:00-13:00"},"title":"Dudley Library"},"type":"Feature"},
		{"geometry":{"coordinates":[-1.43129,54.99843],"type":"Point"},"properties":{"_source":"warm_welcome","address":"20 Denmark Centre, Tyne and Wear NE33 2LR","description":"free coffee shop - hot drink and scone or cheese roll, chat, support","hours":{"_text":"Monday: 11:00 - 15:00, Wednesday: 11:00 - 14:00, Friday: 11:00 - 15:00","opening":"Mo 11:00-15:00; We 11:00-14:00; Fr 11:00-15:00"},"title":"Grace Place."},"type":"Feature"},
		{"geometry":{"coordinates":[-1.65938,54.98942],"type":"Point"},"properties":{"_source":"warm_welcome","address":"The Salvation Army, Tyne and Wear NE5 3JQ","description":"Welcome Warm Space All Welcome A Safe Space to Meet with Friends and Make New Friends Free Refreshments Available","hours":{"_text":"Tuesday: 10:00 - 14:00, Thursday: 10:00 - 14:00","opening":"Tu 10:00-14:00; Th 10:00-14:00"},"title":"he Salvation Army - Worship & Community Centre (Newcastle Upon Tyne)"},"type":"Feature"},
		{"geometry":{"coordinates":[-1.59143,54.98792],"type":"Point"},"properties":{"_source":"warm_welcome","address":"Holy Trinity Church , Tyne and Wear NE2 1HB","description":"Coffee and Connect. Drinks and chat in Chapel coffee lounge","hours":{"_text":"Wednesday: 10:30 - 12:00","opening":"We 10:30-12:00"},"title":"Holy Trinity Church Jesmond"},"type":"Feature"},
		{"geometry":{"coordinates":[-1.50358,54.99656],"type":"Point"},"properties":{"_source":"warm_welcome","address":"North Tyneside Council, Tyne and Wear NE28 7TG","description":"All welcome Services include books, magazines, newspapers, games and toys, free use of PCs and wifi, high chairs and bottle warmers. Free hot drinks available during opening hours.","hours":{"_text":"Tuesday: 09:00 - 13:00 / 14:00 - 17:30, Thursday: 09:00 - 13:00 / 14:00 - 17:30, Saturday: 09:00 - 13:00","opening":"Tu 09:00-13:00,14:00-17:30; Th 09:00-13:00,14:00-17:30; Sa 09:00-13:00"},"title":"Howdon Library"},"type":"Feature"},
		{"geometry":{"coordinates":[-1.71457,54.97782],"type":"Point"},"properties":{"_source":"warm_welcome","address":"1 Algernon Road, Newcastle upon Tyne, Newcastle upon Tyne NE15 8DT","description":"Methodist church at the heart of the community in Lemington. The hall is situated on the ground floor where all warm space-related activities take place, and is wheelchair accessible.","hours":{"_text":"Tuesday: 09:30 - 11:30, Thursday: 17:00 - 18:30","opening":"Tu 09:30-11:30; Th 17:00-18:30"},"title":"Lemington Methodist Church"},"type":"Feature"},
		{"geometry":{"coordinates":[-1.43471,54.98723],"type":"Point"},"properties":{"_source":"warm_welcome","address":"Living Waters Church, South Shields, Tyne and Wear NE33 5PB","description":"Warm welcome space providing food and company in a relaxed atmosphere.","hours":{"_text":"Thursday: 12:00 - 15:00","opening":"Th 12:00-15:00"},"title":"Living Waters Church"},"type":"Feature"},
		{"geometry":{"coordinates":[-1.46814,55.04039],"type":"Point"},"properties":{"_source":"warm_welcome","address":"Woodleigh Road, Monkseaton, Tyne and Wear NE258ET","description":"Services include books, magazines, newspapers, games and toys, free use of PCs and wifi, high chairs and bottle warmers. Free hot drinks available during opening hours (up to 60 mins before closing). Services include books, magazines, newspapers, games and toys, free use of PCs and wifi, high chairs and bottle warmers. Free hot drinks available during opening hours (up to 30 mins before closing).","hours":{"_text":"Tuesday: 09:00 - 13:00 / 14:00 - 17:30, Friday: 09:00 - 13:00 / 14:00 - 17:30, Saturday: 09:00 - 13:00","opening":"Tu 09:00-13:00,14:00-17:30; Fr 09:00-13:00,14:00-17:30; Sa 09:00-13:00"},"title":"Monkseaton Library"},"type":"Feature"},
		{"geometry":{"coordinates":[-1.44576,55.01072],"type":"Point"},"properties":{"_source":"warm_welcome","address":"Northumberland Square, North Shields, Tyne and Wear NE30 1QU","description":"All welcome Services include books, magazines, newspapers, games and toys, free use of PCs and wifi, high chairs and bottle warmers. Free hot drinks available Wed 9.30 – 12.30 and Fri 2.00-5.","hours":{"_text":"Monday: 09:00 - 17:30, Tuesday: 09:00 - 17:30, Wednesday: 09:00 - 17:30, Thursday: 09:00 - 17:30, Friday: 09:00 - 17:30, Saturday: 09:00 - 13:00","opening":"Mo 09:00-17:30; Tu 09:00-17:30; We 09:00-17:30; Th 09:00-17:30; Fr 09:00-17:30; Sa 09:00-13:00"},"title":"North Shields Library"},"type":"Feature"},
		{"geometry":{"coordinates":[-1.58624,55.01170],"type":"Point"},"properties":{"_source":"warm_welcome","address":"Oxford Centre, West Farm Avenue, Longbenton, Newcastle upon Tyne NE12 8LT","description":"Library/Community Space","hours":{"_text":"Monday: 09:00 - 16:00, Tuesday: 09:00 - 16:00, Wednesday: 09:00 - 16:00, Thursday: 09:00 - 16:00, Friday: 09:00 - 16:00, Saturday: 09:00 - 12:30","opening":"Mo 09:00-16:00; Tu 09:00-16:00; We 09:00-16:00; Th 09:00-16:00; Fr 09:00-16:00; Sa 09:00-12:30"},"title":"Oxford Centre"},"type":"Feature"},
		{"geometry":{"coordinates":[-1.58879,55.00171],"type":"Point"},"properties":{"_source":"warm_welcome","address":"Church Hall, Newcastle upon 'Tyne, Newcastle upon 'Tyne NE7 7QH NE7 7QH","description":"A welcoming space for everyone and anyone offering a tea, coffee, biscuits and easy conversation. We also have occasional talks from our guests on various topics.","hours":{"_text":"Wednesday: 14:00 - 16:00","opening":"We 14:00-16:00"},"title":"Places of Welcome"},"type":"Feature"},
		{"geometry":{"coordinates":[-1.45388,55.04677],"type":"Point"},"properties":{"_source":"warm_welcome","address":"St John's Methodist Church - Minor Hall, Tyne and Wear NE26 3ND","description":"Friday Cuppa","hours":{"_text":"Friday: 09:00 - 13:00","opening":"Fr 09:00-13:00"},"title":"St Johns Methodist Church"},"type":"Feature"},
		{"geometry":{"coordinates":[-1.60657,54.99242],"type":"Point"},"properties":{"_source":"warm_welcome","address":"Starbucks Coffee Co (UK) Ltd, Newcastle upon Tyne, Tyne and Wear NE2 2SX","description":"The space is open to all","hours":{"_text":"Tuesday: 10:00 - 13:00","opening":"Tu 10:00-13:00"},"title":"Starbucks Jesmond"},"type":"Feature"},
		{"geometry":{"coordinates":[-1.60082,55.13018],"type":"Point"},"properties":{"_source":"warm_welcome","address":"The Salvation Army, Hartford Road West, Bedlington NE22 6HU","description":"Wednesday morning we offer tea and biscuits Thankful Friday is a drop in for tea/coffee and toasted tea cakes All free","hours":{"_text":"Wednesday: 09:00 - 11:30, Friday: 10:00 - 12:00","opening":"We 09:00-11:30; Fr 10:00-12:00"},"title":"The Salvation Army"},"type":"Feature"},
		{"geometry":{"coordinates":[-1.62082,55.00547],"type":"Point"},"properties":{"_source":"warm_welcome","address":"Trinity Church and Centre, Gosforth, Newcastle upon Tyne NE3 4AG","description":"A hot drink, friendly conversation, and a warm welcome","hours":{"_text":"Friday: 10:00 - 11:30","opening":"Fr 10:00-11:30"},"title":"Trinity Church Gosforth"},"type":"Feature"},
		{"geometry":{"coordinates":[-1.53497,54.99142],"type":"Point"},"properties":{"_source":"warm_welcome","address":"Wallsend Customer First Centre, Wallsend, Tyne and Wear NE28 8JR","description":"All welcome Services include books, magazines, newspapers, games and toys, free use of PCs and wifi, high chairs and bottle warmers. Free hot drinks available Wed 10 am – 4 pm and Saturday 10 am - 12.30 pm. Step inside Wallsend Customer First Centre and take the elevator, lift or stairs to the first floor.","hours":{"_text":"Monday: 09:00 - 17:30, Tuesday: 09:00 - 17:30, Wednesday: 09:00 - 17:30, Thursday: 09:00 - 17:30, Friday: 09:00 - 17:30, Saturday: 09:00 - 13:00","opening":"Mo 09:00-17:30; Tu 09:00-17:30; We 09:00-17:30; Th 09:00-17:30; Fr 09:00-17:30; Sa 09:00-13:00"},"title":"Wallsend Library"},"type":"Feature"},
		{"geometry":{"coordinates":[-1.47190,54.98066],"type":"Point"},"properties":{"_source":"warm_welcome","address":"St. Paul's Church, Jarrow, Tyne and Wear NE32 3DZ","description":"Everyone is welcome at St. Paul's There has been a welcome at St. Paul's for over 1300 years and we look forward to meeting people of all ages. We offer somewhere to chat and free refreshments.","hours":{"_text":"Monday: 11:00 - 15:00, Wednesday: 11:00 - 15:00, Saturday: 11:00 - 15:00","opening":"Mo 11:00-15:00; We 11:00-15:00; Sa 11:00-15:00"},"title":"Welcoming Place at St. Paul's Church, Jarrow, NE32 3DZ"},"type":"Feature"},
		{"geometry":{"coordinates":[-1.69856,55.00165],"type":"Point"},"properties":{"_source":"warm_welcome","address":"Stamfordham Road, Westerhope, Newcastle upon Tyne ne5 5ha","description":"Open from 09-01-2023.","hours":{"_text":"Monday: 10:00 - 11:45","opening":"Mo 10:00-11:45"},"title":"Westerhope Methodist Church"},"type":"Feature"},
		{"geometry":{"coordinates":[-1.56516,55.03594],"type":"Point"},"properties":{"_source":"warm_welcome","address":"White Swan Customer First Centre, North Tyneside NE12 6SS","description":"Library","hours":{"_text":"Tuesday: 14:00 - 17:00, Thursday: 14:00 - 17:00, Saturday: 09:30 - 12:30","opening":"Tu 14:00-17:00; Th 14:00-17:00; Sa 09:30-12:30"},"title":"White Swan Customer First Centre"},"type":"Feature"},
		{"geometry":{"coordinates":[-1.44524,55.04296],"type":"Point"},"properties":{"_source":"warm_welcome","address":"Whitley Bay Hub / Library, Whitley Bay, Tyne and Wear NE26 1AB","description":"All welcome, services include books, magazines, newspapers, jigsaws, games & toys, free use of PCs & Wi Fi, highchairs & bottle warmers. Free hot drinks available Mon 2:30pm-5:00pm & Fri 9:30am-12:30pm","hours":{"_text":"Monday: 09:00 - 17:30, Tuesday: 09:00 - 17:30, Wednesday: 09:00 - 17:30, Thursday: 09:00 - 17:30, Friday: 09:00 - 17:30, Saturday: 09:00 - 13:00","opening":"Mo 09:00-17:30; Tu 09:00-17:30; We 09:00-17:30; Th 09:00-17:30; Fr 09:00-17:30; Sa 09:00-13:00"},"title":"Whitley Bay Library, North Tyneside Libraries"},"type":"Feature"},
		{"geometry":{"coordinates":[-1.62882,55.04614],"type":"Point"},"properties":{"_source":"warm_welcome","address":"North Tyneside Council, Tyne and Wear NE13 6JJ","description":"All welcome Services include books, magazines, newspapers, games and toys, free use of PCs and WiFi. Free hot drinks available Tuesday and Thursdays 9 am - 12 noon and then 2 pm - 4 pm, as well as Saturdays 9 am - 12 noon.","hours":{"_text":"Tuesday: 09:00 - 13:00 / 14:00 - 17:30, Thursday: 09:00 - 13:00 / 14:00 - 17:30, Saturday: 09:00 - 13:00","opening":"Tu 09:00-13:00,14:00-17:30; Th 09:00-13:00,14:00-17:30; Sa 09:00-13:00"},"title":"Wideopen Library"},"type":"Feature"},
		{"geometry":{"coordinates":[-1.42667,54.99650],"type":"Point"},"properties":{"_source":"south_tyneside_council","address":"29 Beach Road, South Shields, NE33 2QUDrop-in:Monday: 9am to 4pmTuesday to Thursday: 9am to 4pmFriday: 1pm to 4pmSaturday: 9.30am to 12.30pmNearest metro: South Shields","description":"Nearest bus: Fowler Street, South Shields","loc_pcd":true,"title":"Age Concern Tyneside South (ACTS)"},"type":"Feature"},
		{"geometry":{"coordinates":[-1.42694,54.99975],"type":"Point"},"properties":{"_source":"south_tyneside_council","address":"124-126 Ocean Road, South Shields, NE33 2JFDrop-in:Monday to Thursday: 9.30am to 3pmNearest metro: South Shields","description":"Nearest bus: Ocean Road or South Shields Interchange","loc_pcd":true,"title":"Apna Ghar (Women only)"},"type":"Feature"},
		{"geometry":{"coordinates":[-1.48647,54.98097],"type":"Point"},"properties":{"_source":"south_tyneside_council","address":"Cambrian Street, Jarrow, NE32 3QNDrop-in plus activities: Tuesday and Wednesday: 10am to 11.30amDigital support on Wednesday: 10am to 11.30amNearest metro: Jarrow","description":"Nearest bus: Jarrow Bus Station","loc_pcd":true,"title":"Big Local Jarrow"},"type":"Feature"},
		{"geometry":{"coordinates":[-1.43103,54.99888],"type":"Point"},"properties":{"_source":"south_tyneside_council","address":"Ocean Road, South Shields, NE33 2HZDrop-in:Monday to Friday, 10am to 3pmNearest metro: South Shields","description":"Nearest bus: Ocean Road or South Shields Interchange","loc_pcd":true,"title":"Criterion Pub"},"type":"Feature"},
		{"geometry":{"coordinates":[-1.42500,55.00017],"type":"Point"},"properties":{"_source":"south_tyneside_council","address":"220 Ocean Road, South Shields, NE33 2JQDrop-in: Monday, Wednesday, Thursday and Friday: 2pm to 6pm (Hot drinks for £1 and free soup)Thursday night free food and music: 5pm to 8pmNearest metro: South Shields","description":"Nearest bus: Ocean Road or South Shields Interchange","loc_pcd":true,"title":"Fisherman's Catch"},"type":"Feature"},
		{"geometry":{"coordinates":[-1.43128,54.99843],"type":"Point"},"properties":{"_source":"south_tyneside_council","address":"20, Denmark Centre, South Shields, NE33 2LRDrop-in: Monday, Wednesday and Friday: 11am to 3pmNearest metro: South Shields","description":"Nearest bus: South Shields Interchange","loc_pcd":true,"title":"Grace Place"},"type":"Feature"},
		{"geometry":{"coordinates":[-1.49271,54.98137],"type":"Point"},"properties":{"_source":"south_tyneside_council","address":"Grange Road West, Jarrow, NE32 3JADrop-in: Monday: 1pm to 3pmFriday: 10am to 12pmSunday: 1pm to 3pmNearest metro: Jarrow","description":"Nearest bus: Jarrow Bus Station","loc_pcd":true,"title":"Grange Road Baptist Church"},"type":"Feature"},
		{"geometry":{"coordinates":[-1.44522,54.98553],"type":"Point"},"properties":{"_source":"south_tyneside_council","address":"St. Jude's Terrace, Laygate, South Shields, NE33 5BPDrop-in: Thursday: 12pm to 4pmNearest metro: Chichester","description":"Nearest bus: Laygate Place or Laygate","loc_pcd":true,"title":"Living Waters Church"},"type":"Feature"},
		{"geometry":{"coordinates":[-1.43974,54.98144],"type":"Point"},"properties":{"_source":"south_tyneside_council","address":"Dean Road, South Shields, NE33 5LPDrop-in:Tuesday to Thursday: 10am to 4pmNearest metro: Tyne Dock","description":"Nearest bus: Dean Road / Marshall Wallis Road","loc_pcd":true,"title":"Lucie's Laundry"},"type":"Feature"},
		{"geometry":{"coordinates":[-1.42936,54.99957],"type":"Point"},"properties":{"_source":"south_tyneside_council","address":"Ocean Road, South Shields, NE33 2DWDrop-in:Monday to Friday, 9am to 6pm (Affordable meals and snacks available)Nearest metro: South Shields","description":"Nearest bus: Ocean Road or South Shields Interchange","loc_pcd":true,"title":"Ocean Road Community Association"},"type":"Feature"},
		{"geometry":{"coordinates":[-1.42827,54.99259],"type":"Point"},"properties":{"_source":"south_tyneside_council","address":"Radio Shields, 59 Westoe Road, South Shields, NE33 4LUDrop-in:Tuesday and Thursday, 10am to 2pmAccess to:TeaCoffeeHot ChocolateWifiVolunteers for a friendly chatFeel good musicNearest metro: South Shields Metro Station","description":"Nearest bus: South Shields interchange","loc_pcd":true,"title":"Radio Shields"},"type":"Feature"},
		{"geometry":{"coordinates":[-1.47189,54.98066],"type":"Point"},"properties":{"_source":"south_tyneside_council","address":"Church Bank, Jarrow, NE32 3DZDrop in:Monday, Wednesday and Saturday - 11am to 3pm (Free warm food and drink)Nearest metro: Bede (not walking distance)","description":"Nearest bus: Church bank, Jarrow","loc_pcd":true,"title":"St Paul's Church"},"type":"Feature"},
		{"geometry":{"coordinates":[-1.42299,54.99175],"type":"Point"},"properties":{"_source":"south_tyneside_council","address":"Mile End Road, South Shields, NE33 3DWDrop-in:Saturday coffee morning, 10am to 11.30amNearest metro: South Shields","description":"Nearest bus: South Shields Interchange","loc_pcd":true,"title":"St. Stephen's Church"},"type":"Feature"},
		{"geometry":{"coordinates":[-1.42463,54.98664],"type":"Point"},"properties":{"_source":"south_tyneside_council","address":"42 - 44 Dean Road, Westoe, South Shields, NE33 4DZDrop-in: Wednesday, 12pm to 2pm (free soup and bun is available)Nearest metro: Chichester","description":"Nearest bus: Dean Road / Sunderland Road","loc_pcd":true,"title":"Café Westoe"},"type":"Feature"},
		{"geometry":{"coordinates":[-1.43406,54.99966],"type":"Point"},"properties":{"_source":"south_tyneside_council","address":"33 Mile End Road, South Shields, NE33 1TADrop-in and activities (Women only): Monday to Thursday: 10am to 2pmNearest metro: South Shields","description":"Nearest bus: South Shields Interchange, Ocean Road","loc_pcd":true,"title":"WHiST"},"type":"Feature"},
		{"geometry":{"coordinates":[-1.43534,54.97784],"type":"Point"},"properties":{"_source":"south_tyneside_council","address":"Whitehall Street, South Shields, NE33 4SUDrop-in for parents under 4s:Thursday: 9am to 12pmNearest metro: Tyne Dock","description":"Nearest bus: Stanhope Road, South Shields","loc_pcd":true,"title":"All Saints Family Hub"},"type":"Feature"},
		{"geometry":{"coordinates":[-1.42774,54.99889],"type":"Point"},"properties":{"_source":"south_tyneside_council","address":"Flagg Court, South Shields, NE33 2LS","description":"Activity: Please contact Marine Park Family Hub for information; Nearest metro: South Shields; Nearest bus: Ocean Road / South Shields Interchange","loc_pcd":true,"title":"Marine Park Family Hub"},"type":"Feature"},
		{"geometry":{"coordinates":[-1.43162,54.98418],"type":"Point"},"properties":{"_source":"south_tyneside_council","address":"Garrick Street, South Shields, NE33 4JTDrop-in for parents with children under 4: Wednesdays, 1pm to 4pmNearest metro: Chichester","description":"Nearest bus: Stanhope Road","loc_pcd":true,"title":"Riverside Family Hub"},"type":"Feature"},
		{"geometry":{"coordinates":[-1.48542,54.98137],"type":"Point"},"properties":{"_source":"south_tyneside_council","title":"Jarrow Focus","url":"https://www.southtyneside.gov.uk/article/14899#jarrow-focus"},"type":"Feature"},
		{"geometry":{"coordinates":[-1.43843,54.99711],"type":"Point"},"properties":{"_source":"south_tyneside_council","title":"The Word","url":"https://www.southtyneside.gov.uk/article/14899#the-word"},"type":"Feature"}
	]
}
