{
	"type": "FeatureCollection",
	"features": [
		{"geometry":{"coordinates":[-1.42994,52.89741],"type":"Point"},"properties":{"_source":"warm_welcome","address":"252-1254 London Road, Alvaston , Derby DE24 8QP","description":"Free hot drinks are available until 2.30pm during opening hours. For updates on opening hours during the Christmas period please check our website www.inderby.org","hours":{"_text":"Monday: 13:00 - 17:00, Tuesday: 9:30 - 17:00, Thursday: 9:30 - 19:00, Friday: 9:30 - 17:00, Saturday: 9:30 - 13:00","opening":"Mo 13:00-17:00; Tu 09:30-17:00; Th 09:30-19:00; Fr 09:30-17:00; Sa 09:30-13:00"},"title":"Alvaston Library"},"type":"Feature"},
		{"geometry":{"coordinates":[-1.41891,52.89537],"type":"Point"},"properties":{"_source":"warm_welcome","address":"Church street, alvaston, derby DE24 0PR","description":"Open from Special Holiday opening times 25th Dec 10-11:00, 26th - 29th DEC CLOSED , 1st Jan only 10:00 til 12. Everyone is welcome 1st 3rd & 5th Friday is table top games night. Gamers also welcome on Wednesday's","hours":{"_text":"Tuesday: 13:00 - 14:00, Wednesday: 10:00 - 16:00, Friday: 19:00 - 22:00 / - Fortnightly, Sunday: 09:00 - 12:00","opening":"Tu 13:00-14:00; We 10:00-16:00; Fr 19:00-22:00; Su 09:00-12:00"},"title":"Alvaston Parish Church"},"type":"Feature"},
		{"geometry":{"coordinates":[-1.62760,52.80300],"type":"Point"},"properties":{"_source":"warm_welcome","address":"Riverside, High Street, Burton Upon Trent, Staffordshire DE14 1AH","description":"We provide hot drinks on Tuesdays 9:30-16:00","hours":{"_text":"Monday: 9:00 - 18:00, Tuesday: 9:00 - 17:00, Wednesday: 9:00 - 17:00, Thursday: 9:00 - 19:00, Friday: 9:00 - 17:00, Saturday: 8:30 - 16:30","opening":"Mo 09:00-18:00; Tu 09:00-17:00; We 09:00-17:00; Th 09:00-19:00; Fr 09:00-17:00; Sa 08:30-16:30"},"title":"Burton Library"},"type":"Feature"},
		{"geometry":{"coordinates":[-1.59366,52.80124],"type":"Point"},"properties":{"_source":"warm_welcome","address":"107 Ashby Road , Burton on Trent , Staffordshire DE15 0NX","description":"Open from 01122022. We’re open to all Address is Church Street Swadlincote DE11 8LF","hours":{"_text":"Monday: 11:00 - 15:00, Tuesday: 11:00 - 15:00, Wednesday: 11:00 - 15:00, Thursday: 11:00 - 15:00, Friday: 11:00 - 15:00","opening":"Mo 11:00-15:00; Tu 11:00-15:00; We 11:00-15:00; Th 11:00-15:00; Fr 11:00-15:00"},"title":"Churches Together in Swadlincote"},"type":"Feature"},
		{"geometry":{"coordinates":[-1.53367,52.77039],"type":"Point"},"properties":{"_source":"warm_welcome","address":"1 Hartshorne Road, Swadlincote, Derbyshire DE117JB","description":"Wednesday nights are CircularityPLAY. Every Second Saturday of the month is our Repair Cafe. Our community managed library is open on Mondays, Fridays, and Saturday mornings.","hours":{"_text":"Monday: 14:00 - 19:00, Wednesday: 19:00 - 21:00, Friday: 14:00 - 19:00, Saturday: 10:00 - 13:00","opening":"Mo 14:00-19:00; We 19:00-21:00; Fr 14:00-19:00; Sa 10:00-13:00"},"title":"Circularity.org"},"type":"Feature"},
		{"geometry":{"coordinates":[-1.54185,52.87038],"type":"Point"},"properties":{"_source":"warm_welcome","address":"Lower Green, Findern, Derby DE65 6AD","hours":{"_text":"Wednesday: 10:00 - 12:00","opening":"We 10:00-12:00"},"title":"Findern Methodist Chapel"},"type":"Feature"},
		{"geometry":{"coordinates":[-1.48964,52.90166],"type":"Point"},"properties":{"_source":"warm_welcome","address":"Normanton Park Warwick Avenue , Derby, Derbyshire DE23 8DA","description":"Open from 08/01/23. Everyone is welcome We offer a friendly and warm space, food and hot drinks available, based on Normanton Park so within easy access to local amenities, small book share, craft activities available, games and other activities available or bring your own activity","hours":{"_text":"Wednesday: 10:00 - 14:30, Sunday: 11:00 - 14:00","opening":"We 10:00-14:30; Su 11:00-14:00"},"title":"Green Thyme Hub"},"type":"Feature"},
		{"geometry":{"coordinates":[-1.59553,52.80691],"type":"Point"},"properties":{"_source":"warm_welcome","address":"181 Hawfield Lane, Burton on Trent, Staffordshire DE15 0BY","description":"Open from 15/11/2022. We offer a warm welcome with Tea and Coffee and Toast or Cake.","hours":{"_text":"Tuesday: 09:00 - 11:00","opening":"Tu 09:00-11:00"},"title":"HugAMug by Burton Family Church"},"type":"Feature"},
		{"geometry":{"coordinates":[-1.50920,52.70462],"type":"Point"},"properties":{"_source":"warm_welcome","address":"Measham, Swadlincote, Derbyshire De12 7hr","description":"Everyone welcome These hours are over 4 different places in Measham. Age Uk. Library. Leisure Centre and Baptist Church","hours":{"_text":"Monday: 10:00 - 17:30, Tuesday: 10:00 - 19:00, Wednesday: 10:00 - 17:30, Thursday: 10:00 - 17:30, Friday: 09:00 - 17:00, Saturday: 11:00 - 14:00, Sunday: 11:00 - 13:00 / - Monthly","opening":"Mo 10:00-17:30; Tu 10:00-19:00; We 10:00-17:30; Th 10:00-17:30; Fr 09:00-17:00; Sa 11:00-14:00; Su 11:00-13:00"},"title":"Measham Warm Places"},"type":"Feature"},
		{"geometry":{"coordinates":[-1.54539,52.90486],"type":"Point"},"properties":{"_source":"warm_welcome","address":"Mickleover Library, Holly End Road, Derby DE3 0GA","description":"Free hot drinks are available until 2.30pm during opening hours. For updates on opening hours during the Christmas period please check our website www.inderby.org","hours":{"_text":"Monday: 13:00 - 17:00, Tuesday: 10:00 - 17:00, Thursday: 10:00 - 19:00, Friday: 10:00 - 17:00, Saturday: 10:00 - 13:00","opening":"Mo 13:00-17:00; Tu 10:00-17:00; Th 10:00-19:00; Fr 10:00-17:00; Sa 10:00-13:00"},"title":"Mickleover Library"},"type":"Feature"},
		{"geometry":{"coordinates":[-1.45947,52.89226],"type":"Point"},"properties":{"_source":"warm_welcome","address":"Moor Lane, Allenton, Derby DE24 9HY","description":"Open from Wednesday 14th December. During the day there is a small soft play area that is free to access for Under 5's. 16.30-18.00 Families can access our larger soft play free of charge for chidlren up to the age of 12.","hours":{"_text":"Wednesday: 10:30 - 14:30 / 16:30 - 18:00","opening":"We 10:30-14:30,16:30-18:00"},"title":"Moorways Sports Village and Water Park - Everyone Active"},"type":"Feature"},
		{"geometry":{"coordinates":[-1.50991,52.89533],"type":"Point"},"properties":{"_source":"warm_welcome","address":"Blagreaves Lane, Littleover, Derby DE23 1PS","description":"Open from 25-10-2022. The Warm Welcome Cafe will be closed on Tuesday December 27th. Advice available from the Derby Area Coordinator for Blagreaves","hours":{"_text":"Tuesday: 09:00 - 13:00","opening":"Tu 09:00-13:00"},"title":"Newmount Methodist Church"},"type":"Feature"},
		{"geometry":{"coordinates":[-1.48532,52.90496],"type":"Point"},"properties":{"_source":"warm_welcome","address":"Almond Street, Derby, Derbyshire DE23 6LX","description":"Open from Monday 28 November. Free hot drinks are available until 2.30pm during opening hours. For updates on opening hours during the Christmas period, please check our website www.inderby.org.uk.","hours":{"_text":"Monday: 09:30 - 17:00, Wednesday: 09:30 - 19:00, Thursday: 13:00 - 17:00, Friday: 09:30 - 17:00, Saturday: 09:30 - 13:00","opening":"Mo 09:30-17:00; We 09:30-19:00; Th 13:00-17:00; Fr 09:30-17:00; Sa 09:30-13:00"},"title":"Normanton Library"},"type":"Feature"},
		{"geometry":{"coordinates":[-1.43412,52.86468],"type":"Point"},"properties":{"_source":"warm_welcome","address":"Filbert Walk Community Room, Chellaston, Derby DE73 6UG","description":"Open from January 2023.","hours":{"_text":"Saturday: 10:30 - 14:00","opening":"Sa 10:30-14:00"},"title":"Nosh and Natter"},"type":"Feature"},
		{"geometry":{"coordinates":[-1.47530,52.74642],"type":"Point"},"properties":{"_source":"warm_welcome","address":"Kilwardby Street , Ashby de la Zouch , Leicestershire LE65 2FR","description":"Everyone no age matters We do have other agencies that will help anyone in need","hours":{"_text":"Thursday: 10:00 - 12:00","opening":"Th 10:00-12:00"},"title":"Pathways community cafe"},"type":"Feature"},
		{"geometry":{"coordinates":[-1.62759,52.80540],"type":"Point"},"properties":{"_source":"warm_welcome","address":"Riverside Church, High Street, Burton on Trent, Staffordshire DE14 1LD","description":"Open from 1st November 2022. The Tuesday session is open to anyone; other sessions are for specific groups of people. We have other sessions which combine a warm welcome with existing activities (which are mostly free): playgroup, ESOL, Craft Club, Art Class, Lunch Club for those 60+, Youth Club & Indoor Skatepark. Please contact us for details of these.","hours":{"_text":"Tuesday: 11:00 - 13:00","opening":"Tu 11:00-13:00"},"title":"Riverside Church, Burton"},"type":"Feature"},
		{"geometry":{"coordinates":[-1.49275,52.87795],"type":"Point"},"properties":{"_source":"warm_welcome","address":"Arleston Lane, Sinfin Moor, Derby DE24 3DH","description":"Open from Monday 2nd January 2023. We are developing some Dementia friendly activities We can refer people direct for the Housing Support Fund and an Energy Grant. Basic food essentials available","hours":{"_text":"Monday: 10:30 - 14:30","opening":"Mo 10:30-14:30"},"title":"Sinfin Moor Church, YMCA, Derby Food 4 Thought Alliance, Osmaston and Sinfin Neighbourhood Board"},"type":"Feature"},
		{"geometry":{"coordinates":[-1.48275,52.90542],"type":"Point"},"properties":{"_source":"warm_welcome","address":"St Augustine's Church, Upper dale Road, Derby DE23 8BP","description":"Everyone is welcome. If you are struggling with Debt problems, an advisor from Derby City Mission is here each week and can help you (no appointment necessary) Gathering Place Cafe is open every Wednesday in Term time at St Augustine's Church. we serve hot drinks, toast, cereal, biscuits and cake.","hours":{"_text":"Wednesday: 10:00 - 12:00","opening":"We 10:00-12:00"},"title":"St Augustine's Church"},"type":"Feature"},
		{"geometry":{"coordinates":[-1.62443,52.83515],"type":"Point"},"properties":{"_source":"warm_welcome","address":"St Mary's Parish Office, Church Road, Stretton, Burton-on-trent, GB DE13 0HD","hours":{"_text":"Thursday: 13:00 - 16:00","opening":"Th 13:00-16:00"},"title":"St Mary's Church"},"type":"Feature"},
		{"geometry":{"coordinates":[-1.50758,52.90422],"type":"Point"},"properties":{"_source":"warm_welcome","address":"St Peter's Church, Church St, Littleover, Derby DE23 6GF","description":"One space is set up for adults and there is a carers and tots space in our other warm area.","hours":{"_text":"Monday: 09:30 - 15:30","opening":"Mo 09:30-15:30"},"title":"St Peter's Church, Littleover, Derby"},"type":"Feature"},
		{"geometry":{"coordinates":[-1.62010,52.79307],"type":"Point"},"properties":{"_source":"warm_welcome","address":"Parish Office, Glebe School, Stapenhill Burton-on-Trent, Staffordshire DE15 9RW","description":"Open from 18-12-2022. All ages","hours":{"_text":"Friday: 11:30 - 1:30","opening":"Fr 11:30-01:30"},"title":"St Peter’s Church, Stapenhill"},"type":"Feature"},
		{"geometry":{"coordinates":[-1.62010,52.79307],"type":"Point"},"properties":{"_source":"warm_welcome","address":"The Glebe (St Peters) Stanton Road , Stapenhill, Burton-on-Trent DE15 9RW","description":"Open from 18-11-2022.","hours":{"_text":"Friday: 11:30 - 13:30","opening":"Fr 11:30-13:30"},"title":"St. Peters, Stapenhill"},"type":"Feature"},
		{"geometry":{"coordinates":[-1.62403,52.79266],"type":"Point"},"properties":{"_source":"warm_welcome","address":"1 Ferry Street, Stapenhill, Burton on Trent DE15 9EU","description":"No 1 Ferry Street will be open for Cake & Coffee on Wednesday afternoons and Heat & Eat on Thursdays evenings. Everything is free and both events are held at our Community Hub, No 1 Ferry Street, Stapenhill, DE15 9EU rather than at the church.","hours":{"_text":"Wednesday: 14:00 - 16:00, Thursday: 18:00 - 21:00","opening":"We 14:00-16:00; Th 18:00-21:00"},"title":"The Community Church Burton and District"},"type":"Feature"},
		{"geometry":{"coordinates":[-1.55798,52.76664],"type":"Point"},"properties":{"_source":"warm_welcome","address":"181 Wilmot Road, Swadlincote, Derbyshire DE11 9BN","description":"Open from 14-11-2022.","hours":{"_text":"Monday: 13:00 - 17:00","opening":"Mo 13:00-17:00"},"title":"The Salvation Army"},"type":"Feature"},
		{"geometry":{"coordinates":[-1.45361,52.89022],"type":"Point"},"properties":{"_source":"warm_spaces","address":"6 Flint Street, Derby, England, DE24 9BH, United Kingdom","description":"Free Food/Drink, Free Wi-Fi, Device Charging, Advice, People to chat to, Space to work, Food/Drink for sale, Wheelchair Accessible, Toilets, Accessible Toilet, Parking, Child Friendly","hours":{"_text":"Thursday 9:30am-6pm","opening":"Th 09:30-18:00"},"title":"St Martin's 'Heating &amp; Eating'","url":"https://www.facebook.com/AllentonBigBuild"},"type":"Feature"},
		{"geometry":{"coordinates":[-1.73144,52.72794],"type":"Point"},"properties":{"_source":"warm_spaces","address":"Croxall Road, Burton-on-Trent, England, DE13 7AR, United Kingdom","description":"Free Wi-Fi, People to chat to, Space to work, Food/Drink for sale, Wheelchair Accessible, Toilets, Accessible Toilet, Parking, Child Friendly, Please note parking charges usually apply, but anyone wanting to visit as part of this initiative, will not need to pay for parking - please just mention you're here to visit a warm space.","hours":{"_text":"10am - 4pm (except Christmas and New Years Eve, close is 3pm. We are open every day except Christmas Day)"},"title":"National Memorial Arboretum: Remembrance Centre","url":"thenma.org.uk"},"type":"Feature"},
		{"geometry":{"coordinates":[-1.62363,52.83384],"type":"Point"},"properties":{"_source":"warm_spaces","address":"Hillfield Lane, Burton-on-Trent, England, DE13 0BW, United Kingdom","description":"People to chat to, Food/Drink for sale, Wheelchair Accessible, Toilets, Accessible Toilet, Parking, Child Friendly","hours":{"_text":"Thursday 1pm-4pm","opening":"Th 13:00-16:00"},"title":"St Mary's Hall","url":"https://www.stchadstmary.org.uk"},"type":"Feature"},
		{"geometry":{"coordinates":[-1.59836,52.80661],"type":"Point"},"properties":{"_source":"east_staffordshire_council","address":"Winshill Neighbourhood Resource Centre, Canterbury Road, Burton DE15 0HD","hours":{"_text":"every Wednesday 12 to 2:30pm and every Friday 9am to 11am","opening":"We 12:00-14:30; Fr 09:00-11:00"},"loc_pcd":true,"title":"Winshill Neighbourhood Resource Centre"},"type":"Feature"},
		{"geometry":{"coordinates":[-1.63983,52.80057],"type":"Point"},"properties":{"_source":"east_staffordshire_council","address":"Burton Caribbean Association, Uxbridge Street, Burton DE14 3JS","hours":{"_text":"every Monday and Tuesday 9am to 11am (starting 14th November)","opening":"Mo 09:00-11:00; Tu 09:00-11:00"},"loc_pcd":true,"title":"Burton Caribbean Association"},"type":"Feature"},
		{"geometry":{"coordinates":[-1.64243,52.79737],"type":"Point"},"properties":{"_source":"east_staffordshire_council","address":"Queen Street Community Centre, Burton DE14 3LW","hours":{"_text":"every Wednesday 9am to 12pm and ever Friday 10am to 12pm","opening":"We 09:00-12:00; Fr 10:00-12:00"},"loc_pcd":true,"title":"Queen Street Community Centre"},"type":"Feature"},
		{"geometry":{"coordinates":[-1.64253,52.81016],"type":"Point"},"properties":{"_source":"east_staffordshire_council","address":"Princess Street Training, Education & Enterprise Centre, Princess Street, Burton DE14 2NW","hours":{"_text":"Mondays & Tuesdays 11am to 3pm and the 3rd Wednesday of every month from 12pm to 2pm","opening":"Mo 11:00-15:00; Tu 11:00-15:00; We[3] 12:00-14:00"},"loc_pcd":true,"title":"Princess Street Training"},"type":"Feature"},
		{"geometry":{"coordinates":[-1.61994,52.79324],"type":"Point"},"properties":{"_source":"east_staffordshire_council","address":"Warm ‘n’ Welcome, The Glebe, Stanton Road, Burton DE15 9RW","hours":{"_text":"Fridays 11.30am to 1:30pm","opening":"Fr 11:30-13:30"},"loc_pcd":true,"title":"Warm ‘n’ Welcome"},"type":"Feature"},
		{"geometry":{"coordinates":[-1.66415,52.79124],"type":"Point"},"properties":{"_source":"east_staffordshire_council","address":"Branston Sports Pavilion, Clays Lane, Branston DE14 3HU","hours":{"_text":"Wednesdays 10:30 am to 1pm","opening":"We 10:30-13:00"},"loc_pcd":true,"title":"Branston Sports Pavilion"},"type":"Feature"},
		{"geometry":{"coordinates":[-1.62400,52.79264],"type":"Point"},"properties":{"_source":"east_staffordshire_council","address":"The Community Church, No. 1 Ferry Street, Burton DE15 9EU","hours":{"_text":"Wednesdays 2pm to 4pm and Thursdays 6pm to 9pm","opening":"We 14:00-16:00; Th 18:00-21:00"},"loc_pcd":true,"title":"The Community Church"},"type":"Feature"},
		{"geometry":{"coordinates":[-1.63060,52.78687],"type":"Point"},"properties":{"_source":"east_staffordshire_council","address":"Short Street Community Café, Stapenhill DE15 9LT. Starting w/c 21st November","hours":{"_text":"Tuesday 10am to 12pm, Thursday 4pm to 6pm and Fridays 12pm to 2pm","opening":"Tu 10:00-12:00; Th 16:00-18:00; Fr 12:00-14:00"},"loc_pcd":true,"title":"Short Street Community Café"},"type":"Feature"},
		{"geometry":{"coordinates":[-1.59472,52.80685],"type":"Point"},"properties":{"_source":"east_staffordshire_council","address":"Community Hub at 181 Hawfield Lane, Winshill DE15 0BY. Starting w/c 21st November","hours":{"_text":"Monday 9am to 12:30pm and 4pm to 6pm; Tuesday 9am to 11am; and Thursday 4pm to 6pm","opening":"Mo 09:00-12:30,16:00-18:00; Tu 09:00-11:00; Th 16:00-18:00"},"loc_pcd":true,"title":"Community Hub at 181 Hawfield Lane"},"type":"Feature"},
		{"geometry":{"coordinates":[-1.62743,52.80560],"type":"Point"},"properties":{"_source":"east_staffordshire_council","address":"Riverside Church, High Street, Burton DE14 1LD","hours":{"_text":"Tuesday 11am to 1pm","opening":"Tu 11:00-13:00"},"loc_pcd":true,"title":"Riverside Church"},"type":"Feature"},
		{"geometry":{"coordinates":[-1.63554,52.81799],"type":"Point"},"properties":{"_source":"east_staffordshire_council","address":"St Chads Community Centre, Hunter Street, Burton, DE14 2SS","hours":{"_text":"Thursdays 10am to 12pm","opening":"Th 10:00-12:00"},"loc_pcd":true,"title":"St Chads Community Centre"},"type":"Feature"},
		{"geometry":{"coordinates":[-1.64305,52.79207],"type":"Point"},"properties":{"_source":"east_staffordshire_council","address":"All Saints Church, Branston Road DE14 3DD. Starting from 31st December 2022, running Saturdays from 10am to 12pm","loc_pcd":true,"title":"All Saints Church"},"type":"Feature"},
		{"geometry":{"coordinates":[-1.64087,52.83212],"type":"Point"},"properties":{"_source":"east_staffordshire_council","address":"The Coffee Bean at Stretton Bowls Club, Bitham Lane DE13 0HB running Tuesday, Wednesday and Thursday from 10am to 2pm","loc_pcd":true,"title":"The Coffee Bean at Stretton Bowls Club"},"type":"Feature"},
		{"geometry":{"coordinates":[-1.64253,52.82293],"type":"Point"},"properties":{"_source":"east_staffordshire_council","address":"Red Lion House, Horninglow Road North, Burton, DE13 0ST","hours":{"_text":"on the 1st Wednesday of each month from 12pm to 2pm.","opening":"We[1] 12:00-14:00"},"loc_pcd":true,"title":"Red Lion House"},"type":"Feature"},
		{"geometry":{"coordinates":[-1.64243,52.79737],"type":"Point"},"properties":{"_source":"east_staffordshire_council","address":"Muddy Books/Broadway Social Enterprise, Branston Road, Burton, DE14 3LW","hours":{"_text":"Thursdays from 10am to 12pm.","opening":"Th 10:00-12:00"},"loc_pcd":true,"title":"Muddy Books/Broadway Social Enterprise"},"type":"Feature"},
		{"geometry":{"coordinates":[-1.64040,52.80230],"type":"Point"},"properties":{"_source":"staffordshire_fire_and_rescue","address":"Moor Street, Burton upon Trent, DE14 3SU","hours":{"_text":"Every Friday, 1:30pm-3pm","opening":"Fr 13:30-15:00"},"title":"Burton Community Fire Station","url":"https://www.staffordshirefire.gov.uk/fire-stations/burton/"},"type":"Feature"}
	]
}
