{
	"type": "FeatureCollection",
	"features": [
		{"geometry":{"coordinates":[-1.44938,52.88906],"type":"Point"},"properties":{"_source":"warm_welcome","address":"Derby City Council, Derbyshire DE24 9DA","description":"Derby Libraries will be providing warm spaces with extra seating and free hot drinks to support communities with the cost of living this winter. The spaces will be available to all to relax and connect in a safe, warm, welcoming space. Library staff will be on hand to support people who want to join the library and borrow books as well as sign post people to support and trusted information on the cost of living. There will also be opportunities for people to access a busy regular programme of free activities in the libraries from family rhymetimes to adult book groups. To protect the planet and reduce the use of plastic people are encouraged to bring their own cups into libraries. Everyone is welcome to unlimited refills of tea and coffee. Hot drinks will be available Wednesday 11am- 2pm","hours":{"_text":"Monday: 10:00 - 15:00, Wednesday: 10:00 - 15:00","opening":"Mo 10:00-15:00; We 10:00-15:00"},"title":"Allenton Library"},"type":"Feature"},
		{"geometry":{"coordinates":[-1.42998,52.89716],"type":"Point"},"properties":{"_source":"warm_welcome","address":"252-1254 London Road, Alvaston, Derbyshire DE24 8QP","description":"Derby Libraries will be providing warm spaces with extra seating and free hot drinks to support communities with the cost of living this winter. The spaces will be available to all to relax and connect in a safe, warm, welcoming space. Library staff will be on hand to support people who want to join the library and borrow books as well as sign post people to support and trusted information on the cost of living. There will also be opportunities for people to access a busy regular programme of free activities in the libraries from family rhymetimes to adult book groups. To protect the planet and reduce the use of plastic people are encouraged to bring their own cups into libraries. Everyone is welcome to unlimited refills of tea and coffee. Hot drinks will be available Tuesdays 10am – 12 and Fridays 10am -12","hours":{"_text":"Monday: 13:00 - 17:00, Tuesday: 09:30 - 17:00, Thursday: 09:30 - 19:00, Friday: 09:30 - 17:00, Saturday: 09:30 - 13:00","opening":"Mo 13:00-17:00; Tu 09:30-17:00; Th 09:30-19:00; Fr 09:30-17:00; Sa 09:30-13:00"},"title":"Alvaston Library"},"type":"Feature"},
		{"geometry":{"coordinates":[-1.47564,52.74678],"type":"Point"},"properties":{"_source":"warm_welcome","address":"Ashby Methodist Church, Ashby-de-La-Zouch, Leicestershire LE65 2LF","description":"Modern church hall open to all.","hours":{"_text":"Tuesday: 10:00 - 12:00","opening":"Tu 10:00-12:00"},"title":"Ashby Methodist Church"},"type":"Feature"},
		{"geometry":{"coordinates":[-1.43668,52.86832],"type":"Point"},"properties":{"_source":"warm_welcome","address":"Chellaston Community Library, Derbyshire DE73 6TU","description":"SPACE OPENING ON 13th November 2023** Derby Libraries will be providing warm spaces with extra seating and free hot drinks to support communities with the cost of living this winter. The spaces will be available to all to relax and connect in a safe, warm, welcoming space. Library staff will be on hand to support people who want to join the library and borrow books as well as sign post people to support and trusted information on the cost of living. There will also be opportunities for people to access a busy regular programme of free activities in the libraries from family rhymetimes to adult book groups. To protect the planet and reduce the use of plastic people are encouraged to bring their own cups into libraries. Everyone is welcome to unlimited refills of tea and coffee. Hot drinks will be available Tuesdays 10am – 1pm","hours":{"_text":"Tuesday: 10:00 - 16:30, Thursday: 10:00 - 16:30","opening":"Tu 10:00-16:30; Th 10:00-16:30"},"title":"Chellaston Community Library"},"type":"Feature"},
		{"geometry":{"coordinates":[-1.56386,52.76512],"type":"Point"},"properties":{"_source":"warm_welcome","address":"Church Gresley Methodist Church, Swadlincote, South Derbyshire DE11 9QQ","description":"Connections is a drop in for a chat and support of one another, open to all","hours":{"_text":"Wednesday: 13:00 - 15:00","opening":"We 13:00-15:00"},"title":"Church Gresley Methodist Church Connections"},"type":"Feature"},
		{"geometry":{"coordinates":[-1.53351,52.77031],"type":"Point"},"properties":{"_source":"warm_welcome","address":"1 Hartshorne Road, Derbyshire, Derbyshire DE11 7JB","description":"Friday nights are CircularityPLAY. Every Second Saturday of the month is our Repair Cafe. Our community managed library is open on Mondays, Fridays, and Saturday mornings.","hours":{"_text":"Monday: 14:00 - 19:00, Friday: 14:00 - 21:00, Saturday: 10:00 - 13:00","opening":"Mo 14:00-19:00; Fr 14:00-21:00; Sa 10:00-13:00"},"title":"Circularity.org"},"type":"Feature"},
		{"geometry":{"coordinates":[-1.48399,52.89870],"type":"Point"},"properties":{"_source":"warm_welcome","address":"165 Village Street, Derby, Derbyshire DE23 8DF","description":"We offer a warm space where families and individuals can come and enjoy a hot meal, conversation, activities, access free Wi-Fi and access to computers to support the with their digital skills.","hours":{"_text":"Friday: 14:00 - 18:00 Fortnightly","opening":"Fr 14:00-18:00"},"title":"Derby COGOP"},"type":"Feature"},
		{"geometry":{"coordinates":[-1.45124,52.88841],"type":"Point"},"properties":{"_source":"warm_welcome","address":"24, Derbyshire DE24 9AE","description":"The space is open to all on Wednesdays from 10am - 1.30pm. Hot drinks and cakes are provided free of charge all morning and a free warm lunch is provided after 12 noon. Games and puzzles are available to use and phones can be charged. People will need to bring their own charging cables though. Coats, and scarves will be available for people to take as they need them. On the last Thursday of each month, there is a 2-course community meal, again open to anyone, at 6pm. Spaces for this will need to be booked via derby.south@salvationarmy.org.uk or 01332 705588. We can signpost people to additional support regarding energy support schemes.","hours":{"_text":"Wednesday: 10:00 - 13:30, Thursday: 18:00 - 20:00 Monthly","opening":"We 10:00-13:30; Th 18:00-20:00"},"title":"Derby South Salvation Army (Allenton)"},"type":"Feature"},
		{"geometry":{"coordinates":[-1.54185,52.87038],"type":"Point"},"properties":{"_source":"warm_welcome","address":"Lower Green, Findern, Derby DE65 6AD","description":"Warm welcome space to meet and enjoy a chat with coffee tea and various refreshments.","hours":{"_text":"Wednesday: 10:00 - 12:00","opening":"We 10:00-12:00"},"title":"Findern Methodist Chapel"},"type":"Feature"},
		{"geometry":{"coordinates":[-1.54554,52.87079],"type":"Point"},"properties":{"_source":"warm_welcome","address":"Findern Village Hall, Derby, Derbyshire DE65 6AL","description":"Everyone is welcome at Findern Warm Space. Please come and join us for a hot meal, cake and a hot drink.","hours":{"_text":"Tuesday: 12:00 - 14:30","opening":"Tu 12:00-14:30"},"title":"Findern Village Hall"},"type":"Feature"},
		{"geometry":{"coordinates":[-1.63432,52.87193],"type":"Point"},"properties":{"_source":"warm_welcome","address":"Hilton Village Hall, Derbyshire DE65 5GH","description":"The coffee morning is free for all to use and offers a couple of hours for people to make new friends and catch up with old friends.","hours":{"_text":"Tuesday: 10:00 - 12:00","opening":"Tu 10:00-12:00"},"title":"Hilton Village Hall Coffee Morning"},"type":"Feature"},
		{"geometry":{"coordinates":[-1.48823,52.90570],"type":"Point"},"properties":{"_source":"warm_welcome","address":"ikhlas community centre, Derby, Derbyshire DE23 6LS","description":"SPACE OPENING ON 18th November 2024** Community centre With access to warm space Tea/Coffee Snacks/ Refreshments Welcome and Chat","hours":{"_text":"Monday: 12:00 - 14:00","opening":"Mo 12:00-14:00"},"title":"Ikhlas Education Centre"},"type":"Feature"},
		{"geometry":{"coordinates":[-1.55788,52.85098],"type":"Point"},"properties":{"_source":"warm_welcome","address":"St Michaels Church, Willington, DE65 6DR","description":"Space is open to all, hot drinks and biscuits are available. Along side tabletop games and friendly conversation.","hours":{"_text":"Wednesday: 10:00 - 12:00","opening":"We 10:00-12:00"},"title":"Meet and Make Friends"},"type":"Feature"},
		{"geometry":{"coordinates":[-1.54440,52.90455],"type":"Point"},"properties":{"_source":"warm_welcome","address":"Old School Tearooms, Derby, Derbyshire DE3 0DA","description":"Warm space with soup and drinks Space open as part of our community cafe. Free soup available, order at the counter. Further info in the warm space room!","hours":{"_text":"Monday: Closed / 12:30 - 14:00, Thursday: 10:00 - 14:00","opening":"Th 10:00-14:00"},"title":"Mickleover community centre"},"type":"Feature"},
		{"geometry":{"coordinates":[-1.47157,52.74735],"type":"Point"},"properties":{"_source":"warm_welcome","address":"unit 5 Pass courtyard, Ashby de la zouch, Leicestershire Le65 1ag","description":"SPACE OPENING ON 6th November 2023** A small family run cafe located down a small courtyard. Welcoming people to share our warm space and a friendly chat.","hours":{"_text":"Monday: 08:30 - 16:00, Tuesday: 08:30 - 16:00, Wednesday: 08:30 - 16:00, Thursday: 08:30 - 16:00, Friday: 08:30 - 16:00, Saturday: 08:30 - 16:00, Sunday: 09:30 - 15:00","opening":"Mo 08:30-16:00; Tu 08:30-16:00; We 08:30-16:00; Th 08:30-16:00; Fr 08:30-16:00; Sa 08:30-16:00; Su 09:30-15:00"},"title":"Moment in Thyme"},"type":"Feature"},
		{"geometry":{"coordinates":[-1.50991,52.89533],"type":"Point"},"properties":{"_source":"warm_welcome","address":"Blagreaves Lane, Littleover, Derby DE23 1PS","description":"The Warm Welcome Cafe is open every Tuesday from 9am - 1pm for toast and hot drinks. The Derby Area Coordinator for Blagreaves is often available for advice. Not open 26th December 2023.","hours":{"_text":"Tuesday: 09:00 - 13:00","opening":"Tu 09:00-13:00"},"title":"Newmount Methodist Church"},"type":"Feature"},
		{"geometry":{"coordinates":[-1.48548,52.90518],"type":"Point"},"properties":{"_source":"warm_welcome","address":"Normanton Library, Derby, Derbyshire DE23 6LX","description":"Derby Libraries will be providing warm spaces with extra seating and free hot drinks to support communities with the cost of living this winter. The spaces will be available to all to relax and connect in a safe, warm, welcoming space. Library staff will be on hand to support people who want to join the library and borrow books as well as sign post people to support and trusted information on the cost of living. There will also be opportunities for people to access a busy regular programme of free activities in the libraries from family rhymetimes to adult book groups. To protect the planet and reduce the use of plastic people are encouraged to bring their own cups into libraries. Everyone is welcome to unlimited refills of tea and coffee. Hot drinks will be available Monday 10am - 12 and Friday 10am 12","hours":{"_text":"Monday: 09:30 - 17:00, Wednesday: 09:30 - 19:00, Thursday: 13:00 - 17:00, Friday: 09:30 - 17:00, Saturday: 09:30 - 13:00","opening":"Mo 09:30-17:00; We 09:30-19:00; Th 13:00-17:00; Fr 09:30-17:00; Sa 09:30-13:00"},"title":"Normanton Library"},"type":"Feature"},
		{"geometry":{"coordinates":[-1.43403,52.86471],"type":"Point"},"properties":{"_source":"warm_welcome","address":"Filbert Walk community room., Derbyshire DE73 6UG","description":"The space is open to all","hours":{"_text":"Saturday: 10:30 - 14:00","opening":"Sa 10:30-14:00"},"title":"Nosh and Natter"},"type":"Feature"},
		{"geometry":{"coordinates":[-1.55065,52.77457],"type":"Point"},"properties":{"_source":"warm_welcome","address":"SWADLINCOTE, DERBYSHIRE DE11 8ND","description":"OUR WARM SPACE IS OPEN TO ALL","hours":{"_text":"Monday: 09:00 - 21:00, Tuesday: 09:00 - 21:00, Wednesday: 09:00 - 21:00, Thursday: 09:00 - 21:00, Friday: 09:00 - 21:00, Saturday: 09:00 - 21:00, Sunday: 09:00 - 21:00","opening":"Mo 09:00-21:00; Tu 09:00-21:00; We 09:00-21:00; Th 09:00-21:00; Fr 09:00-21:00; Sa 09:00-21:00; Su 09:00-21:00"},"title":"OAKLAND VILLAGE , HALL FARM ROAD , SWADLINCOTE , DERBYSHIRE, DE11 8ND"},"type":"Feature"},
		{"geometry":{"coordinates":[-1.54705,52.78075],"type":"Point"},"properties":{"_source":"warm_welcome","address":"Rowland Memorial Methodist Church, Swadlincote, Derbyshire DE11 7NE","description":"A warm welcome to all. Refreshments, Board Games, Newspapers, Benefits Signposting, Conversation.","hours":{"_text":"Thursday: 10:00 - 15:30","opening":"Th 10:00-15:30"},"title":"Open Space"},"type":"Feature"},
		{"geometry":{"coordinates":[-1.55250,52.77193],"type":"Point"},"properties":{"_source":"warm_welcome","address":"12 Hill Street, Swadlincote, Derbyshire DE11 8HL","description":"Come to our friendly hub for hot food and drinks, to meet people and socialise.","hours":{"_text":"Tuesday: 10:00 - 12:00","opening":"Tu 10:00-12:00"},"title":"P3 Swadlincote Hub"},"type":"Feature"},
		{"geometry":{"coordinates":[-1.47548,52.74625],"type":"Point"},"properties":{"_source":"warm_welcome","address":"Holy Trinity Church, Ashby de la Zouch, Leicestershire LE65 2FR","description":"It’s has a family warm welcoming environment. All refreshments are free. We do some crafts on a monthly basis. Also we offer a son group every third Thursday. Other agencies come in for a drop in sessions too. Like CAB, CAP, the links coordinator and Housing matters that all can help with your issues. Everyone no age matters We do have other agencies that will help anyone in need","hours":{"_text":"Thursday: 10:00 - 12:00","opening":"Th 10:00-12:00"},"title":"Pathways community cafe"},"type":"Feature"},
		{"geometry":{"coordinates":[-1.49204,52.87737],"type":"Point"},"properties":{"_source":"warm_welcome","address":"Sinfin Moor Ecumenical Church, Derbyshire DE24 3DH","description":"Everyone is welcome. This is an accessible place where refreshments and hot meals are freely available. (Meals are available monthly from September to December and Weekly from January to March.) We can also assist with the Cost of Living Crisis financial challenges and emergency food parcels.","hours":{"_text":"Monday: 10:00 - 14:00","opening":"Mo 10:00-14:00"},"title":"Sinfin Moor Church Centre - Connect and Community Meals"},"type":"Feature"},
		{"geometry":{"coordinates":[-1.60179,52.88532],"type":"Point"},"properties":{"_source":"warm_welcome","address":"St Helen's Church, Derbyshire DE65 6LW","description":"A warm community hub open every Wednesday between 2 - 4 for refreshments, companionship and some crafting sessions.","hours":{"_text":"Wednesday: 14:00 - 16:00","opening":"We 14:00-16:00"},"title":"St Helen's Church Etwall, Derbyshire"},"type":"Feature"},
		{"geometry":{"coordinates":[-1.45331,52.88975],"type":"Point"},"properties":{"_source":"warm_welcome","address":"Flint Street, Derby, Derbyshire DE24 9BH","description":"Open from 9.30am to 1.30pm We are open from 9.30am serving free simple breakfasts and then at 12.30pm a free lunch is served. Whether you just need a change of scenery or need to charge your phone, simply chat to someone or need a meal you will be very welcome. We also provide advice regarding accessing support with the cost of living.","hours":{"_text":"Thursday: 09:30 - 13:30","opening":"Th 09:30-13:30"},"title":"St Martin's Church and Community Centre"},"type":"Feature"},
		{"geometry":{"coordinates":[-1.62400,52.79264],"type":"Point"},"properties":{"_source":"warm_welcome","address":"1 Ferry Street, Burton on Trent, Burton on Trent DE15 9EU","description":"No 1 Ferry Street will be open for Afternoon Tea on Wednesday and Hot meals at Heat & Eat on Thursdays evenings. Everything is free and both events are held at our Community Hub, No 1 Ferry Street, Stapenhill, DE15 9EU rather than at the church. We are also open for Cuppa and a Chat on Tuesday mornings from 10am - 12pm","hours":{"_text":"Tuesday: 10:00 - 12:00, Wednesday: 14:00 - 16:00, Thursday: 15:30 - 20:00","opening":"Tu 10:00-12:00; We 14:00-16:00; Th 15:30-20:00"},"title":"The Community Church Burton and District"},"type":"Feature"},
		{"geometry":{"coordinates":[-1.61995,52.79325],"type":"Point"},"properties":{"_source":"warm_welcome","address":"The Glebe School, Staffordshire DE15 9RW","description":"SPACE OPENING ON 24th November 2023** Small Hall or lounge","hours":{"_text":"Friday: 12:30 - 01:30","opening":"Fr 12:30-01:30"},"title":"The Glebe"},"type":"Feature"},
		{"geometry":{"coordinates":[-1.62010,52.79307],"type":"Point"},"properties":{"_source":"warm_welcome","address":"Parish Office, Glebe School, Stapenhill Burton-on-Trent, Staffordshire DE15 9RW","description":"Open from 24-11-2023 All ages","hours":{"_text":"Friday: 12:00 - 13:30","opening":"Fr 12:00-13:30"},"title":"Warm ‘n’ Welcome"},"type":"Feature"},
		{"geometry":{"coordinates":[-1.41909,52.89561],"type":"Point"},"properties":{"_source":"community_action_derby","address":"8 Church St, Alvaston, Derby DE24 0PR","hours":{"_text":"Wednesday, 10am-2pm","opening":"We 10:00-14:00"},"loc_pcd":true,"title":"Alvaston Parish Church"},"type":"Feature"},
		{"geometry":{"coordinates":[-1.44121,52.90213],"type":"Point"},"properties":{"_source":"community_action_derby","address":"54 Commerce Street, Alvaston, Derby DE24 8TQ","hours":{"_text":"Friday, 11am-4pm","opening":"Fr 11:00-16:00"},"loc_pcd":true,"title":"Commerce Street Community Centre"},"type":"Feature"},
		{"geometry":{"coordinates":[-1.45124,52.88840],"type":"Point"},"properties":{"_source":"community_action_derby","address":"24 Chellaston Rd, Allenton, Derby DE24 9AE","hours":{"_text":"Thursday 26 Sept 6pm-8pm"},"loc_pcd":true,"title":"Derby South Salvation Army (Allenton)"},"type":"Feature"},
		{"geometry":{"coordinates":[-1.50110,52.88850],"type":"Point"},"properties":{"_source":"community_action_derby","address":"268 Blagreaves Lane, Littleover, Derby DE23 1PS","hours":{"_text":"Tuesday, 9am-1pm","opening":"Tu 09:00-13:00"},"loc_pcd":true,"title":"Newmount Methodist Church"},"type":"Feature"},
		{"geometry":{"coordinates":[-1.50817,52.90500],"type":"Point"},"properties":{"_source":"community_action_derby","address":"Thornhill Road, Littleover, Derby DE23 6FZ","hours":{"_text":"Wednesday, 10am-1:30pm","opening":"We 10:00-13:30"},"loc_pcd":true,"title":"Littleover Baptist Church"},"type":"Feature"},
		{"geometry":{"coordinates":[-1.48398,52.89870],"type":"Point"},"properties":{"_source":"community_action_derby","address":"165 Village Street, Derby DE23 8DF","hours":{"_text":"2pm-6pm"},"loc_pcd":true,"title":"Church of God of Prophecy"},"type":"Feature"},
		{"geometry":{"coordinates":[-1.47413,52.90165],"type":"Point"},"properties":{"_source":"community_action_derby","address":"Pakistan Community Centre, 103 Harrington Street, Derby DE23 8PB","hours":{"_text":": 10am-2pm, Tuesday (women only) and Wednesday (men only)","opening":"Tu 10:00-14:00"},"loc_pcd":true,"title":"Community One"},"type":"Feature"},
		{"geometry":{"coordinates":[-1.47768,52.90675],"type":"Point"},"properties":{"_source":"community_action_derby","address":"97-102 Pear Tree Road, Derby DE23 6QB","hours":{"_text":"Tuesday, 11am-1pm","opening":"Tu 11:00-13:00"},"loc_pcd":true,"title":"Hindu Welfare and Cultural Centre"},"type":"Feature"},
		{"geometry":{"coordinates":[-1.48880,52.89147],"type":"Point"},"properties":{"_source":"community_action_derby","address":"Sunnyhill Community Centre, Coleridge St, Sunny Hill, Derby DE23 8AF","hours":{"_text":"Saturday, 2pm-4pm.","opening":"Sa 14:00-16:00"},"loc_pcd":true,"title":"Influence &amp; Inspire CIC"},"type":"Feature"},
		{"geometry":{"coordinates":[-1.48107,52.90331],"type":"Point"},"properties":{"_source":"community_action_derby","address":"C/O ANFC, Walbrook Road, Normanton, Derby DE23 8RY","hours":{"_text":"12pm-2pm"},"loc_pcd":true,"title":"Open Doors Forum c/o All Nations for Christ Church (ANFC)"},"type":"Feature"},
		{"geometry":{"coordinates":[-1.48691,52.89908],"type":"Point"},"properties":{"_source":"community_action_derby","address":"Village Street, Sunny Hill, Derby DE23 8DE","hours":{"_text":"Wed - 25th Sept 3.30pm-5pm","opening":"We 00:00-00:00"},"loc_pcd":true,"title":"St Giles’ Church"},"type":"Feature"},
		{"geometry":{"coordinates":[-1.49814,52.88197],"type":"Point"},"properties":{"_source":"community_action_derby","address":"50 Swallowdale Road, Sinfin, Derby DE24 9NT","hours":{"_text":"Tuesday, 10am-1pm","opening":"Tu 10:00-13:00"},"loc_pcd":true,"title":"Sinfin Community Centre"},"type":"Feature"},
		{"geometry":{"coordinates":[-1.49203,52.87737],"type":"Point"},"properties":{"_source":"community_action_derby","address":"Arlestone Lane, Sinfin, Derby DE24 3DH","hours":{"_text":"Monday, 10am-1pm.","opening":"Mo 10:00-13:00"},"loc_pcd":true,"title":"Sinfin Moor Church"},"type":"Feature"},
		{"geometry":{"coordinates":[-1.64298,52.79757],"type":"Point"},"properties":{"_source":"east_staffordshire_council","address":"Queen Street Community Centre, Burton DE14 3LW","hours":{"_text":"Tuesdays 9.30am to 11.30am - starting 5th December","opening":"Tu 09:30-11:30"},"loc_pcd":true,"title":"Queen Street Community Centre"},"type":"Feature"},
		{"geometry":{"coordinates":[-1.64298,52.79757],"type":"Point"},"properties":{"_source":"east_staffordshire_council","address":"Humanity Unites @ Queen Street Community Centre, DE14 3LW","hours":{"_text":"Sundays 11am to 1pm","opening":"Su 11:00-13:00"},"loc_pcd":true,"title":"Humanity Unites @ Queen Street Community Centre"},"type":"Feature"},
		{"geometry":{"coordinates":[-1.69810,52.79513],"type":"Point"},"properties":{"_source":"east_staffordshire_council","address":"Tatenhill Memorial &amp; Thanksgiving Hall, Main Street, Tatenhill DE13 9SD","hours":{"_text":"Thursdays 9am to 1pm (starting in early January 2025)","opening":"Th 09:00-13:00"},"loc_pcd":true,"title":"Tatenhill Memorial &amp; Thanksgiving Hall"},"type":"Feature"},
		{"geometry":{"coordinates":[-1.63983,52.80057],"type":"Point"},"properties":{"_source":"east_staffordshire_council","address":"Burton Caribbean Association, 346 Uxbridge Street DE14 3JS","hours":{"_text":"Wednesday from 11am until 1pm; Thursdays 10am until 12 midday","opening":"We 11:00-13:00; Th 10:00-12:00"},"loc_pcd":true,"title":"Burton Caribbean Association"},"type":"Feature"},
		{"geometry":{"coordinates":[-1.62743,52.80560],"type":"Point"},"properties":{"_source":"east_staffordshire_council","address":"Riverside Church, High Street, Burton DE14 1LD","hours":{"_text":"Playgroup for children under school age and their carers (Tuesdays 9.30-11.30 am); Children aged 7-11 years (Wednesdays 4.00-5.15 pm); Youth aged 11-16 years (Wednesdays 5.45-7.15 pm); Adults who enjoy crafts - (monthly on Thursdays 10.00 am to 12 noon); Adults over the age of 60 years (monthly on Fridays from 12 noon to 2pm - booking is required); Youth aged 11 to 17 (Fridays 6.30-8.00 pm); Anyone who has something they need repairing – or not, but want company, warmth and warm drinks with biscuits (monthly on Saturdays 9 am to 12 noon)"},"loc_pcd":true,"title":"Riverside Church"},"type":"Feature"},
		{"geometry":{"coordinates":[-1.64253,52.81016],"type":"Point"},"properties":{"_source":"east_staffordshire_council","address":"Princess Street Training, Education &amp; Enterprise Centre, Burton DE14 2NW","hours":{"_text":"Monday to Wednesday 1pm to 4pm","opening":"Mo-We 13:00-16:00"},"loc_pcd":true,"title":"Princess Street Training"},"type":"Feature"},
		{"geometry":{"coordinates":[-1.64579,52.80828],"type":"Point"},"properties":{"_source":"east_staffordshire_council","address":"Burton Soup Kitchen, Rangemore Street DE14 2ED","hours":{"_text":"Monday, Wednesday and Friday 12pm to 2pm","opening":"Mo 12:00-14:00; We 12:00-14:00; Fr 12:00-14:00"},"loc_pcd":true,"title":"Burton Soup Kitchen"},"type":"Feature"},
		{"geometry":{"coordinates":[-1.62400,52.79264],"type":"Point"},"properties":{"_source":"east_staffordshire_council","address":"The Community Church, Number One Ferry Street, Stapenhill DE15 9EU","hours":{"_text":"Monday 10am to 12pm (food bank); Wednesday 2pm to 4pm (over 18s only); Thursday 3.30pm to 8.30pm (under 16s must be accompanied by an adult); Friday 3pm to 4.30pm (youth drop in)","opening":"Mo 10:00-12:00; We 14:00-16:00; Th 15:30-20:30; Fr 15:00-16:30"},"loc_pcd":true,"title":"The Community Church"},"type":"Feature"},
		{"geometry":{"coordinates":[-1.63060,52.78687],"type":"Point"},"properties":{"_source":"east_staffordshire_council","address":"Short Street Community Café, Stapenhill DE15 9LT","hours":{"_text":"Monday to Friday 9am to 11am; Tuesday 10am to 12 midday; Wednesday 9am to 11am; Thursday 9am to 11am, 12 midday to 2pm, 4pm to 6pm; Friday 9am to 11am, 12 midday to 2pm","opening":"Mo-Fr 09:00-11:00; Tu 10:00-12:00; We 09:00-11:00; Th 09:00-11:00,12:00-14:00,16:00-18:00; Fr 09:00-11:00,12:00-14:00"},"loc_pcd":true,"title":"Short Street Community Café"},"type":"Feature"},
		{"geometry":{"coordinates":[-1.61994,52.79324],"type":"Point"},"properties":{"_source":"east_staffordshire_council","address":"Warm &amp; Welcome at The Glebe School, Stanton Road, Burton DE15 9RW","hours":{"_text":"Fridays 11.30am to 2.00pm","opening":"Fr 11:30-14:00"},"loc_pcd":true,"title":"Warm &amp; Welcome at The Glebe School"},"type":"Feature"},
		{"geometry":{"coordinates":[-1.64087,52.83212],"type":"Point"},"properties":{"_source":"east_staffordshire_council","address":"The Coffee Bean Café, Stretton Bowls Club, Bitham Lane, Stretton, Burton, DE13 0HB","hours":{"_text":"Tuesday to Thursday 10am to 1pm","opening":"Tu-Th 10:00-13:00"},"loc_pcd":true,"title":"The Coffee Bean Café"},"type":"Feature"},
		{"geometry":{"coordinates":[-1.59472,52.80685],"type":"Point"},"properties":{"_source":"east_staffordshire_council","address":"181 Hawfield Lane DE15 0BY","hours":{"_text":"Monday 9:30 to 2pm, 4pm to 6pm; Tuesday 9am to 11am; Wednesday 12 midday to 2pm; Thursday 9am to 12 midday, 4pm to 6pm; Friday 12 midday to 2pm","opening":"Mo 09:30-14:00,16:00-18:00; Tu 09:00-11:00; We 12:00-14:00; Th 09:00-12:00,16:00-18:00; Fr 12:00-14:00"},"loc_pcd":true},"type":"Feature"},
		{"geometry":{"coordinates":[-1.59836,52.80661],"type":"Point"},"properties":{"_source":"east_staffordshire_council","address":"Winshill Neighbourhood Resource Centre, Canterbury Road, Burton DE15 0HD","hours":{"_text":"Wednesday 12pm to 3pm; Friday 9am to 11am","opening":"We 12:00-15:00; Fr 09:00-11:00"},"loc_pcd":true,"title":"Winshill Neighbourhood Resource Centre"},"type":"Feature"}
	]
}
