{
	"type": "FeatureCollection",
	"features": [
		{"geometry":{"coordinates":[-1.42994,52.89741],"type":"Point"},"properties":{"_source":"warm_welcome","address":"252-1254 London Road, Alvaston , Derby DE24 8QP","description":"Free hot drinks are available until 2.30pm during opening hours. For updates on opening hours during the Christmas period please check our website www.inderby.org","hours":{"_text":"Monday: 13:00 - 17:00, Tuesday: 9:30 - 17:00, Thursday: 9:30 - 19:00, Friday: 9:30 - 17:00, Saturday: 9:30 - 13:00","opening":"Mo 13:00-17:00; Tu 09:30-17:00; Th 09:30-19:00; Fr 09:30-17:00; Sa 09:30-13:00"},"title":"Alvaston Library"},"type":"Feature"},
		{"geometry":{"coordinates":[-1.59366,52.80124],"type":"Point"},"properties":{"_source":"warm_welcome","address":"107 Ashby Road , Burton on Trent , Staffordshire DE15 0NX","description":"Open from 01122022. We’re open to all Address is Church Street Swadlincote DE11 8LF","hours":{"_text":"Monday: 11:00 - 15:00, Tuesday: 11:00 - 15:00, Wednesday: 11:00 - 15:00, Thursday: 11:00 - 15:00, Friday: 11:00 - 15:00","opening":"Mo 11:00-15:00; Tu 11:00-15:00; We 11:00-15:00; Th 11:00-15:00; Fr 11:00-15:00"},"title":"Churches Together in Swadlincote"},"type":"Feature"},
		{"geometry":{"coordinates":[-1.59553,52.80691],"type":"Point"},"properties":{"_source":"warm_welcome","address":"181 Hawfield Lane, Burton on Trent, Staffordshire DE15 0BY","description":"Open from 15/11/2022. We offer a warm welcome with Tea and Coffee and Toast or Cake.","hours":{"_text":"Tuesday: 09:00 - 11:00","opening":"Tu 09:00-11:00"},"title":"HugAMug by Burton Family Church"},"type":"Feature"},
		{"geometry":{"coordinates":[-1.54539,52.90486],"type":"Point"},"properties":{"_source":"warm_welcome","address":"Mickleover Library, Holly End Road, Derby DE3 0GA","description":"Free hot drinks are available until 2.30pm during opening hours. For updates on opening hours during the Christmas period please check our website www.inderby.org","hours":{"_text":"Monday: 13:00 - 17:00, Tuesday: 10:00 - 17:00, Thursday: 10:00 - 19:00, Friday: 10:00 - 17:00, Saturday: 10:00 - 13:00","opening":"Mo 13:00-17:00; Tu 10:00-17:00; Th 10:00-19:00; Fr 10:00-17:00; Sa 10:00-13:00"},"title":"Mickleover Library"},"type":"Feature"},
		{"geometry":{"coordinates":[-1.50991,52.89533],"type":"Point"},"properties":{"_source":"warm_welcome","address":"Blagreaves Lane, Littleover, Derby DE23 1PS","description":"Open from 25-10-2022. Advice available from the Derby Area Coordinator for Blagreaves","hours":{"_text":"Tuesday: 09:00 - 13:00","opening":"Tu 09:00-13:00"},"title":"Newmount Methodist Church"},"type":"Feature"},
		{"geometry":{"coordinates":[-1.48532,52.90496],"type":"Point"},"properties":{"_source":"warm_welcome","address":"Almond Street, Derby, Derbyshire DE23 6LX","description":"Open from Monday 28 November. Free hot drinks are available until 2.30pm during opening hours. For updates on opening hours during the Christmas period, please check our website www.inderby.org.uk.","hours":{"_text":"Monday: 09:30 - 17:00, Wednesday: 09:30 - 19:00, Thursday: 13:00 - 17:00, Friday: 09:30 - 17:00, Saturday: 09:30 - 13:00","opening":"Mo 09:30-17:00; We 09:30-19:00; Th 13:00-17:00; Fr 09:30-17:00; Sa 09:30-13:00"},"title":"Normanton Library"},"type":"Feature"},
		{"geometry":{"coordinates":[-1.62759,52.80540],"type":"Point"},"properties":{"_source":"warm_welcome","address":"Riverside Church, High Street, Burton on Trent, Staffordshire DE14 1LD","description":"Open from 1st November 2022. The Tuesday session is open to anyone; other sessions are for specific groups of people. We have other sessions which combine a warm welcome with existing activities (which are mostly free): playgroup, ESOL, Craft Club, Art Class, Lunch Club for those 60+, Youth Club & Indoor Skatepark. Please contact us for details of these.","hours":{"_text":"Tuesday: 11:00 - 13:00","opening":"Tu 11:00-13:00"},"title":"Riverside Church, Burton"},"type":"Feature"},
		{"geometry":{"coordinates":[-1.62010,52.79307],"type":"Point"},"properties":{"_source":"warm_welcome","address":"Parish Office, Glebe School, Stapenhill Burton-on-Trent, Staffordshire DE15 9RW","description":"Open from 18-12-2022. All ages","hours":{"_text":"Friday: 11:30 - 1:30","opening":"Fr 11:30-01:30"},"title":"St Peter’s Church, Stapenhill"},"type":"Feature"},
		{"geometry":{"coordinates":[-1.62010,52.79307],"type":"Point"},"properties":{"_source":"warm_welcome","address":"The Glebe (St Peters) Stanton Road , Stapenhill, Burton-on-Trent DE15 9RW","description":"Open from 18-11-2022.","hours":{"_text":"Friday: 11:30 - 13:30","opening":"Fr 11:30-13:30"},"title":"St. Peters, Stapenhill"},"type":"Feature"},
		{"geometry":{"coordinates":[-1.62403,52.79266],"type":"Point"},"properties":{"_source":"warm_welcome","address":"1 Ferry Street, Stapenhill, Burton on Trent DE15 9EU","description":"No 1 Ferry Street will be open for Cake & Coffee on Wednesday afternoons and Heat & Eat on Thursdays evenings. Everything is free and both events are held at our Community Hub, No 1 Ferry Street, Stapenhill, DE15 9EU rather than at the church.","hours":{"_text":"Wednesday: 14:00 - 16:00, Thursday: 18:00 - 21:00","opening":"We 14:00-16:00; Th 18:00-21:00"},"title":"The Community Church Burton and District"},"type":"Feature"},
		{"geometry":{"coordinates":[-1.55798,52.76664],"type":"Point"},"properties":{"_source":"warm_welcome","address":"181 Wilmot Road, Swadlincote, Derbyshire DE11 9BN","description":"Open from 14-11-2022.","hours":{"_text":"Monday: 13:00 - 17:00","opening":"Mo 13:00-17:00"},"title":"The Salvation Army"},"type":"Feature"},
		{"geometry":{"coordinates":[-1.62363,52.83384],"type":"Point"},"properties":{"_source":"warm_spaces","address":"Hillfield Lane, Burton-on-Trent, England, DE13 0BW","hours":{"_text":"Thursday 1pm-4pm","opening":"Th 13:00-16:00"},"title":"St Mary's Hall","url":"https://www.stchadstmary.org.uk"},"type":"Feature"}
	]
}
