{
	"type": "FeatureCollection",
	"features": [
		{"geometry":{"coordinates":[-1.58238,51.65964],"type":"Point"},"properties":{"_source":"warm_welcome","address":"Church Street, Faringdon, Oxon SN7 8AD","description":"Open from 05-01-2023.","hours":{"_text":"Thursday: 11:00 - 15:00","opening":"Th 11:00-15:00"},"title":"All Saints' church, Faringdon"},"type":"Feature"},
		{"geometry":{"coordinates":[-1.54797,51.72645],"type":"Point"},"properties":{"_source":"warm_welcome","address":"Old Grammar School, Bampton, Oxfordshire OX18 2NE","hours":{"_text":"Monday: 14:00 - 17:00, Wednesday: 10:00 - 12:30, Thursday: 14:00 - 17:00, Saturday: 10:00 - 12:30","opening":"Mo 14:00-17:00; We 10:00-12:30; Th 14:00-17:00; Sa 10:00-12:30"},"title":"Bampton Library"},"type":"Feature"},
		{"geometry":{"coordinates":[-1.63631,51.80916],"type":"Point"},"properties":{"_source":"warm_welcome","address":"86a High Street, Burford, Oxfordshire OX18 4QF","description":"Weekly coffee morning Fridays 10.30-12 for ages 50plus","hours":{"_text":"Tuesday: 13:00 - 18:00, Thursday: 10:00 - 13:00, Friday: 10:00 - 13:00 / 14:00 - 17:30, Saturday: 9:30 - 13:00","opening":"Tu 13:00-18:00; Th 10:00-13:00; Fr 10:00-13:00,14:00-17:30; Sa 09:30-13:00"},"title":"Burford Library"},"type":"Feature"},
		{"geometry":{"coordinates":[-1.59512,51.75848],"type":"Point"},"properties":{"_source":"warm_welcome","address":"6 Alvescot Road, Carterton, Oxfordshire OX18 3JH","description":"Free WiFi, hold childrens and adult activities.","hours":{"_text":"Monday: 9:30 - 17:00, Tuesday: 09:30 - 19:00, Thursday: 9:30 - 17:00, Friday: 10:00 - 19:00, Saturday: 9:30 - 13:00","opening":"Mo 09:30-17:00; Tu 09:30-19:00; Th 09:30-17:00; Fr 10:00-19:00; Sa 09:30-13:00"},"title":"Carterton Library"},"type":"Feature"},
		{"geometry":{"coordinates":[-1.49689,51.78840],"type":"Point"},"properties":{"_source":"warm_welcome","address":"Davenport Road, Witney OX28 6EJ","hours":{"_text":"Wednesday: 10:00 - 16:00","opening":"We 10:00-16:00"},"title":"Davenport Road Methodist Church"},"type":"Feature"},
		{"geometry":{"coordinates":[-1.48176,51.76492],"type":"Point"},"properties":{"_source":"warm_welcome","address":"Ducklington Village Hall, Ducklington, Oxfordshire OX29 7UX","description":"Open from 10/11/22.","hours":{"_text":"Thursday: 11:30 - 15:00","opening":"Th 11:30-15:00"},"title":"Ducklington Warm Space"},"type":"Feature"},
		{"geometry":{"coordinates":[-1.58624,51.65819],"type":"Point"},"properties":{"_source":"warm_welcome","address":"Gloucester Street, Faringdon, Oxfordshire SN7 7HY","hours":{"_text":"Monday: 14:00 - 17:30, Tuesday: 10:00 - 13:00 / 14:00 - 17:30, Wednesday: 14:00 - 17:30, Friday: 10:00 - 13:00 / 14:00 - 19:00, Saturday: 9:30 - 11:00","opening":"Mo 14:00-17:30; Tu 10:00-13:00,14:00-17:30; We 14:00-17:30; Fr 10:00-13:00,14:00-19:00; Sa 09:30-11:00"},"title":"Faringdon Library"},"type":"Feature"},
		{"geometry":{"coordinates":[-1.48458,51.78658],"type":"Point"},"properties":{"_source":"warm_welcome","address":"40 High Street, Witney, Witney OX28 6HG","description":"Open from 12-12-2022.","hours":{"_text":"Monday: 10:00 - 12:00, Tuesday: 10:00 - 12:00, Wednesday: 10:00 - 12:00, Thursday: 10:00 - 12:00, Friday: 10:00 - 12:00","opening":"Mo 10:00-12:00; Tu 10:00-12:00; We 10:00-12:00; Th 10:00-12:00; Fr 10:00-12:00"},"title":"High Street Methodist Church, Witney"},"type":"Feature"},
		{"geometry":{"coordinates":[-1.69099,51.69393],"type":"Point"},"properties":{"_source":"warm_welcome","address":"2 Market Place, Lechlade on Thames, Gloucestershire GL73AB","description":"We cater for any member of the community and have disabled access We can print for a charge. Free computer use. Loans of books and DVD' s to those registered with Gloucestershire libraries.","hours":{"_text":"Monday: 13:00 - 16:00, Tuesday: 10:00 - 13:00, Wednesday: 10:00 - 13:00, Thursday: 10:00 - 13:00, Friday: 13:00 - 16:00, Saturday: 10:00 - 13:00","opening":"Mo 13:00-16:00; Tu 10:00-13:00; We 10:00-13:00; Th 10:00-13:00; Fr 13:00-16:00; Sa 10:00-13:00"},"title":"Lechlade Community Library"},"type":"Feature"},
		{"geometry":{"coordinates":[-1.43689,51.81371],"type":"Point"},"properties":{"_source":"warm_welcome","address":"Memorial Hall, Park Road, North Leigh, Oxfordshire OX29 6SA","description":"Coffee morning with Age UK every third Monday 10-12pm","hours":{"_text":"Monday: 14:00 - 16:30, Wednesday: 15:00 - 19:00, Friday: 14:00 - 16:30, Saturday: 10:00 - 12:00","opening":"Mo 14:00-16:30; We 15:00-19:00; Fr 14:00-16:30; Sa 10:00-12:00"},"title":"North Leigh Library"},"type":"Feature"},
		{"geometry":{"coordinates":[-1.58552,51.65714],"type":"Point"},"properties":{"_source":"warm_welcome","address":"Blessed Hugh Church Hall, Faringdon, oxon SN77JE","description":"Open from 04-11-22.","hours":{"_text":"Friday: 10:00 - 16:00","opening":"Fr 10:00-16:00"},"title":"Open Kitchen Faringdon"},"type":"Feature"},
		{"geometry":{"coordinates":[-1.59446,51.75966],"type":"Point"},"properties":{"_source":"warm_welcome","address":"6 BURFORD ROAD, Carterton, , Oxfordshire, UK OX18 3AA","description":"Come in for a cuppa and a chat, we have free hot drinks and a free vegetarian soup lunch","hours":{"_text":"Wednesday: 10:30 - 13:30","opening":"We 10:30-13:30"},"title":"St John the Evangelist Church"},"type":"Feature"},
		{"geometry":{"coordinates":[-1.70999,51.63104],"type":"Point"},"properties":{"_source":"warm_welcome","address":"The Bridge, 8 Sheep Street, Highworth, Swindon SN6 7AA","description":"We welcome people of all ages and backgrounds. Offering foodbank, help with benefits and forms, debt advice through CAP, drop in, emotional support and prayer.","hours":{"_text":"Monday: 11:00 - 13:00, Tuesday: 11:00 - 13:00, Wednesday: 11:00 - 13:00, Thursday: 11:00 - 13:00, Friday: 11:00 - 13:00","opening":"Mo 11:00-13:00; Tu 11:00-13:00; We 11:00-13:00; Th 11:00-13:00; Fr 11:00-13:00"},"title":"The Bridge, Highworth Community Church"},"type":"Feature"},
		{"geometry":{"coordinates":[-1.58268,51.65857],"type":"Point"},"properties":{"_source":"warm_welcome","address":"The Old Theatre, Swan Lane, Faringdon, Oxfordshire SN77AF","description":"Open from 01-11-2022.","hours":{"_text":"Tuesday: 09:30 - 17:00","opening":"Tu 09:30-17:00"},"title":"The Pump House Project"},"type":"Feature"},
		{"geometry":{"coordinates":[-1.69309,51.69321],"type":"Point"},"properties":{"_source":"warm_welcome","address":"The Riverside, Park End Wharf, Lechlade, Gloucestershire GL73AQ","hours":{"_text":"Monday: 10:00 - 22:00, Tuesday: 10:00 - 22:00, Wednesday: 10:00 - 22:00, Thursday: 10:00 - 22:00, Friday: 09:00 - 22:00, Saturday: 09:00 - 22:00, Sunday: 09:00 - 18:00","opening":"Mo 10:00-22:00; Tu 10:00-22:00; We 10:00-22:00; Th 10:00-22:00; Fr 09:00-22:00; Sa 09:00-22:00; Su 09:00-18:00"},"title":"The Riverside"},"type":"Feature"},
		{"geometry":{"coordinates":[-1.58889,51.77955],"type":"Point"},"properties":{"_source":"warm_welcome","address":"Burford Road, Carterton, Oxfordshire OX18 3AG","description":"Open from 08-11-2022.","hours":{"_text":"Monday: 09:00 - 12:00, Tuesday: 09:00 - 17:00","opening":"Mo 09:00-12:00; Tu 09:00-17:00"},"title":"The Sanctuary, Carterton Methodist Church"},"type":"Feature"},
		{"geometry":{"coordinates":[-1.48464,51.78659],"type":"Point"},"properties":{"_source":"warm_welcome","address":"The Methodist Church, Witney, Oxfordshire OX28 6HG","hours":{"_text":"Monday: 10:00 - 12:00, Tuesday: 10:00 - 12:00, Wednesday: 10:00 - 12:00, Thursday: 10:00 - 12:00, Friday: 10:00 - 12:00","opening":"Mo 10:00-12:00; Tu 10:00-12:00; We 10:00-12:00; Th 10:00-12:00; Fr 10:00-12:00"},"title":"Town Chaplains"},"type":"Feature"},
		{"geometry":{"coordinates":[-1.49253,51.78664],"type":"Point"},"properties":{"_source":"warm_welcome","address":"Welch Way, Witney, Oxfordshire OX28 6JH","hours":{"_text":"Monday: 9:00 - 19:00, Tuesday: 09:00 - 13:00, Wednesday: 9:00 - 19:00, Thursday: 9:00 - 19:00, Friday: 9:00 - 19:00, Saturday: 9:00 - 16:30","opening":"Mo 09:00-19:00; Tu 09:00-13:00; We 09:00-19:00; Th 09:00-19:00; Fr 09:00-19:00; Sa 09:00-16:30"},"title":"Witney Library"},"type":"Feature"},
		{"geometry":{"coordinates":[-1.49709,51.78812],"type":"Point"},"properties":{"_source":"warm_spaces","address":"Davenport Road, Witney, England, OX28 6EL, United Kingdom","description":"Free Food/Drink, Free Wi-Fi, People to chat to, Space to work, Wheelchair Accessible, Toilets, Accessible Toilet, Parking, Child Friendly, Computer Access","hours":{"_text":"Wednesdays, 10am-4pm","opening":"We 10:00-16:00"},"title":"Davenport Road Methodist Church","url":"https://Www.Davroadchurch.co.uk"},"type":"Feature"},
		{"geometry":{"coordinates":[-1.48397,51.78626],"type":"Point"},"properties":{"_source":"warm_spaces","address":"40 High Street, Witney, England, OX28 6HG, United Kingdom","description":"Free Food/Drink, Free Wi-Fi, Device Charging, Wheelchair Accessible, Toilets, Accessible Toilet, Parking, Child Friendly","hours":{"_text":"Monday-Friday, 10am-12pm","opening":"Mo-Fr 10:00-12:00"},"title":"High Street Methodist Church","url":"https://www.highstmethodists.co.uk"},"type":"Feature"},
		{"geometry":{"coordinates":[-1.70956,51.62895],"type":"Point"},"properties":{"_source":"swindon_council","address":"Brewery Street (above the Co-op supermarket), Highworth, Swindon, SN6 7AJ","description":"Accessible toilets Baby changing facilities Computers available for use Free wifi Information and signposting Library services Weekly story time Study space","hours":{"_text":"Monday, 10.00am to 4.00pm Tuesday, 9.00am to 5.00pm Thursday, 10.00am to 4.00pm Friday, 12.00pm to 6.00pm Saturday, 10.00am to 1.00pm","opening":"Mo 10:00-16:00; Tu 09:00-17:00; Th 10:00-16:00; Fr 12:00-18:00; Sa 10:00-13:00"},"loc_pcd":true,"title":"Highworth Library","url":"https://www.swindon.gov.uk/directory_record/23722/highworth_library/category/264/all_spaces"},"type":"Feature"}
	]
}
