{
	"type": "FeatureCollection",
	"features": [
		{"geometry":{"coordinates":[-1.54797,51.72645],"type":"Point"},"properties":{"_source":"warm_welcome","address":"Old Grammar School, Bampton, Oxfordshire OX18 2NE","description":"","hours":{"_text":"Monday: 14:00 - 17:00, Wednesday: 10:00 - 12:30, Thursday: 14:00 - 17:00, Saturday: 10:00 - 12:30","opening":"Mo 14:00-17:00; We 10:00-12:30; Th 14:00-17:00; Sa 10:00-12:30"},"title":"Bampton Library"},"type":"Feature"},
		{"geometry":{"coordinates":[-1.63631,51.80916],"type":"Point"},"properties":{"_source":"warm_welcome","address":"86a High Street, Burford, Oxfordshire OX18 4QF","description":"","hours":{"_text":"Tuesday: 13:00 - 18:00, Thursday: 10:00 - 13:00, Friday: 10:00 - 13:00 / 14:00 - 17:30, Saturday: 9:30 - 13:00","opening":"Tu 13:00-18:00; Th 10:00-13:00; Fr 10:00-13:00,14:00-17:30; Sa 09:30-13:00"},"title":"Burford Library"},"type":"Feature"},
		{"geometry":{"coordinates":[-1.59512,51.75848],"type":"Point"},"properties":{"_source":"warm_welcome","address":"6 Alvescot Road, Carterton, Oxfordshire OX18 3JH","description":" Free WiFi, hold childrens and adult activities.","hours":{"_text":"Monday: 9:30 - 17:00, Tuesday: 09:30 - 19:00, Thursday: 9:30 - 17:00, Friday: 10:00 - 19:00, Saturday: 9:30 - 13:00","opening":"Mo 09:30-17:00; Tu 09:30-19:00; Th 09:30-17:00; Fr 10:00-19:00; Sa 09:30-13:00"},"title":"Carterton Library"},"type":"Feature"},
		{"geometry":{"coordinates":[-1.49689,51.78840],"type":"Point"},"properties":{"_source":"warm_welcome","address":"Davenport Road, Witney OX28 6EJ","description":"","hours":{"_text":"Wednesday: 10:00 - 16:00","opening":"We 10:00-16:00"},"title":"Davenport Road Methodist Church"},"type":"Feature"},
		{"geometry":{"coordinates":[-1.48414,51.76671],"type":"Point"},"properties":{"_source":"warm_welcome","address":"The Rectory, 6 Standlake Rd, Ducklington, Witney OX29 7XG","description":"Open from 10/11/22.","hours":{"_text":"Thursday: 11:30 - 15:00","opening":"Th 11:30-15:00"},"title":"Ducklington Warm Space"},"type":"Feature"},
		{"geometry":{"coordinates":[-1.58624,51.65819],"type":"Point"},"properties":{"_source":"warm_welcome","address":"Gloucester Street, Faringdon, Oxfordshire SN7 7HY","description":"","hours":{"_text":"Monday: 14:00 - 17:30, Tuesday: 10:00 - 13:00 / 14:00 - 17:30, Wednesday: 14:00 - 17:30, Friday: 10:00 - 13:00 / 14:00 - 19:00, Saturday: 9:30 - 11:00","opening":"Mo 14:00-17:30; Tu 10:00-13:00,14:00-17:30; We 14:00-17:30; Fr 10:00-13:00,14:00-19:00; Sa 09:30-11:00"},"title":"Faringdon Library"},"type":"Feature"},
		{"geometry":{"coordinates":[-1.69099,51.69393],"type":"Point"},"properties":{"_source":"warm_welcome","address":"2 Market Place, Lechlade on Thames, Gloucestershire GL73AB","description":"We cater for any member of the community and have disabled access We can print for a charge. Free computer use. Loans of books and DVD' s to those registered with Gloucestershire libraries.","hours":{"_text":"Monday: 13:00 - 16:00, Tuesday: 10:00 - 13:00, Wednesday: 10:00 - 13:00, Thursday: 10:00 - 13:00, Friday: 13:00 - 16:00, Saturday: 10:00 - 13:00","opening":"Mo 13:00-16:00; Tu 10:00-13:00; We 10:00-13:00; Th 10:00-13:00; Fr 13:00-16:00; Sa 10:00-13:00"},"title":"Lechlade Community Library"},"type":"Feature"},
		{"geometry":{"coordinates":[-1.43689,51.81371],"type":"Point"},"properties":{"_source":"warm_welcome","address":"Memorial Hall, Park Road, North Leigh, Oxfordshire OX29 6SA","description":"","hours":{"_text":"Monday: 14:00 - 16:30, Wednesday: 15:00 - 19:00, Friday: 14:00 - 16:30, Saturday: 10:00 - 12:00","opening":"Mo 14:00-16:30; We 15:00-19:00; Fr 14:00-16:30; Sa 10:00-12:00"},"title":"North Leigh Library"},"type":"Feature"},
		{"geometry":{"coordinates":[-1.58552,51.65714],"type":"Point"},"properties":{"_source":"warm_welcome","address":"Blessed Hugh Church Hall, Faringdon, oxon SN77JE","description":"Open from 04-11-22.","hours":{"_text":"Friday: 10:00 - 16:00","opening":"Fr 10:00-16:00"},"title":"Open Kitchen Faringdon"},"type":"Feature"},
		{"geometry":{"coordinates":[-1.70999,51.63104],"type":"Point"},"properties":{"_source":"warm_welcome","address":"The Bridge, 8 Sheep Street, Highworth, Swindon SN6 7AA","description":" We welcome people of all ages and backgrounds. Offering foodbank, help with benefits and forms, debt advice through CAP, drop in, emotional support and prayer.","hours":{"_text":"Monday: 11:00 - 13:00, Tuesday: 11:00 - 13:00, Wednesday: 11:00 - 13:00, Thursday: 11:00 - 13:00, Friday: 11:00 - 13:00","opening":"Mo 11:00-13:00; Tu 11:00-13:00; We 11:00-13:00; Th 11:00-13:00; Fr 11:00-13:00"},"title":"The Bridge, Highworth Community Church"},"type":"Feature"},
		{"geometry":{"coordinates":[-1.58268,51.65857],"type":"Point"},"properties":{"_source":"warm_welcome","address":"The Old Theatre, Swan Lane, Faringdon, Oxfordshire SN77AF","description":"Open from 01-11-2022.","hours":{"_text":"Tuesday: 09:30 - 17:00","opening":"Tu 09:30-17:00"},"title":"The Pump House Project"},"type":"Feature"},
		{"geometry":{"coordinates":[-1.58889,51.77955],"type":"Point"},"properties":{"_source":"warm_welcome","address":"Burford Road, Carterton, Oxfordshire OX18 3AG","description":"Open from 08-11-2022.","hours":{"_text":"Monday: 09:00 - 12:00, Tuesday: 09:00 - 17:00","opening":"Mo 09:00-12:00; Tu 09:00-17:00"},"title":"The Sanctuary, Carterton Methodist Church"},"type":"Feature"},
		{"geometry":{"coordinates":[-1.49253,51.78664],"type":"Point"},"properties":{"_source":"warm_welcome","address":"Welch Way, Witney, Oxfordshire OX28 6JH","description":"","hours":{"_text":"Monday: 9:00 - 19:00, Tuesday: 09:00 - 13:00, Wednesday: 9:00 - 19:00, Thursday: 9:00 - 19:00, Friday: 9:00 - 19:00, Saturday: 9:00 - 16:30","opening":"Mo 09:00-19:00; Tu 09:00-13:00; We 09:00-19:00; Th 09:00-19:00; Fr 09:00-19:00; Sa 09:00-16:30"},"title":"Witney Library"},"type":"Feature"}
	]
}
