{
	"type": "FeatureCollection",
	"features": [
		{"geometry":{"coordinates":[-1.48812,51.21230],"type":"Point"},"properties":{"_source":"warm_welcome","address":"Andover Baptist Church, Charlton Road, Andover, Hampshire SP10 3JH","description":"Open from 17-11-2022.","hours":{"_text":"Thursday: 15:00 - 17:00","opening":"Th 15:00-17:00"},"title":"Andover Baptist Church"},"type":"Feature"},
		{"geometry":{"coordinates":[-1.48016,51.20977],"type":"Point"},"properties":{"_source":"warm_welcome","address":"Andover Library, Chantry Centre, Andover SP10 1LT","hours":{"_text":"Monday: 09:30 - 17:00 / -, Tuesday: 09:30 - 13:30 / -, Wednesday: 09:30 - 17:00 / -, Thursday: 09:30 - 17:00 / -, Friday: 09:30 - 17:00 / -, Saturday: 09:30 - 17:00 / -","opening":"Mo 09:30-17:00; Tu 09:30-13:30; We 09:30-17:00; Th 09:30-17:00; Fr 09:30-17:00; Sa 09:30-17:00"},"title":"Andover Library- Hampshire Libraries"},"type":"Feature"},
		{"geometry":{"coordinates":[-1.48069,51.22446],"type":"Point"},"properties":{"_source":"warm_welcome","address":"King Arthurs Way Community Association, King Arthurs Hall, King Arthurs Way, Andover, Hampshire SP10 4BS","description":"Open from 18-01-2022.","hours":{"_text":"Wednesday: 09:00 - 12:00, Friday: 09:30 - 12:00 / - Monthly","opening":"We 09:00-12:00; Fr 09:30-12:00"},"title":"King Arthurs Hall"},"type":"Feature"},
		{"geometry":{"coordinates":[-1.48165,51.19789],"type":"Point"},"properties":{"_source":"warm_welcome","address":"WINCHESTER ROAD, ANDOVER, Hampshire SP10 2EG","description":"we cater for all with in the community We can signpost to food parcel services","hours":{"_text":"Monday: 9:00 - 17:00, Tuesday: 9:00 - 17:00, Wednesday: 9:00 - 17:00, Thursday: 9:00 - 17:00, Friday: 9:00 - 17:00","opening":"Mo 09:00-17:00; Tu 09:00-17:00; We 09:00-17:00; Th 09:00-17:00; Fr 09:00-17:00"},"title":"Purple Oak Support"},"type":"Feature"},
		{"geometry":{"coordinates":[-1.47970,51.20631],"type":"Point"},"properties":{"_source":"warm_welcome","address":"31-33 Bridge Street, Andover, Hants SP10 1BE","description":"Open from Thursday 1st December. everyone is welcome We have a pay-it-forward scheme and a sensory playroom","hours":{"_text":"Monday: 09:30 - 14:00, Tuesday: 09:30 - 14:00, Wednesday: 09:30 - 14:00, Thursday: 09:30 - 14:00, Friday: 09:30 - 14:00","opening":"Mo 09:30-14:00; Tu 09:30-14:00; We 09:30-14:00; Th 09:30-14:00; Fr 09:30-14:00"},"title":"the Bridge"},"type":"Feature"},
		{"geometry":{"coordinates":[-1.65978,51.23638],"type":"Point"},"properties":{"_source":"warm_spaces","address":"Tidworth Library, Nadder Road, Tidworth, England, SP9 7QA, United Kingdom","description":"Free Wi-Fi, Device Charging, Advice, Space to work, Wheelchair Accessible, Toilets, Parking, Child Friendly, Computer Access","hours":{"_text":"Mon,Weds &amp; Fri 10am-8:30pm, Tues 1pm-8:30pm, Sat 10am-3:30pm","opening":"Mo 10:00-20:30; We 10:00-20:30; Fr 10:00-20:30; Tu 13:00-20:30; Sa 10:00-15:30"},"title":"Tidworth Library","url":"https://wiltshire.gov.uk/libraries"},"type":"Feature"},
		{"geometry":{"coordinates":[-1.48130,51.20720],"type":"Point"},"properties":{"_source":"warm_spaces","address":"Bridge Street, Andover, England, SP10 1BL, United Kingdom","description":"Free Food/Drink, Device Charging, People to chat to, Pay It Forward Scheme, Food/Drink for sale, Wheelchair Accessible, Toilets, Accessible Toilet, Child Friendly","hours":{"_text":"Wednesday 10am-12pm and Saturday 10am-12pm","opening":"We 10:00-12:00; Sa 10:00-12:00"},"title":"Andover Methodist Church","url":"https://Andovermethodist.org.uk"},"type":"Feature"},
		{"geometry":{"coordinates":[-1.48061,51.20612],"type":"Point"},"properties":{"_source":"warm_spaces","address":"31-33 Bridge Street, Andover, England, SP10 1BE, United Kingdom","description":"Free Wi-Fi, Device Charging, People to chat to, Pay It Forward Scheme, Food/Drink for sale, Wheelchair Accessible, Toilets, Accessible Toilet, Child Friendly","hours":{"_text":"Weekdays 9.30am-2pm","opening":"Mo-Fr 09:30-14:00"},"title":"The Bridge","url":"https://thevalleychurch.co.uk"},"type":"Feature"},
		{"geometry":{"coordinates":[-1.48646,51.21244],"type":"Point"},"properties":{"_source":"warm_spaces","address":"Charlton Road, Andover, England, SP10 3JH, United Kingdom","description":"Free Food/Drink, Free Wi-Fi, Device Charging, People to chat to, Space to work, Wheelchair Accessible, Toilets, Accessible Toilet, Parking, Child Friendly","hours":{"_text":"Mon-Fri 9am-3pm; Sundays 9am-1pm","opening":"Mo-Fr 09:00-15:00; Su 09:00-13:00"},"title":"Andover Baptist Church","url":"https://www.andoverbaptist.org.uk"},"type":"Feature"},
		{"geometry":{"coordinates":[-1.60199,51.37833],"type":"Point"},"properties":{"_source":"wiltshire_council","description":"A chance to meet, eat and chat just Pop into St. Mary&#39;s Church Great Bedwyn","title":"Thursday Friendship Club - Great Bedwyn -12 - 3pm","url":"https://directory.hertfordshire.gov.uk/Services/2113"},"type":"Feature"}
	]
}
