{
	"type": "FeatureCollection",
	"features": [
		{"geometry":{"coordinates":[-4.33217,55.50295],"type":"Point"},"properties":{"_source":"warm_spaces","address":"The Old Library Room, AM Brown Institute, Institute Avenue, Mauchline, Scotland, KA5 6RT","hours":{"_text":"Mon &amp; Fri, 4.30pm-7pm (from November 2022 )","opening":"Mo 16:30-19:00; Fr 16:30-19:00"},"title":"Mama’s Nest"},"type":"Feature"},
		{"geometry":{"coordinates":[-4.38027,55.51971],"type":"Point"},"properties":{"_source":"east_ayrshire_council","address":"16 Ellisland Court, Mauchline KA5 6EB","description":"Daily -Lunch club.Additional activities 4 days a week. Tuesday and Thurdsay - Breakfast club.","hours":{"_text":"Daily - Lunch club\nTuesday and Thursday - Breakfast club"},"loc_pcd":true,"title":"Ellisland Court, Mauchline"},"type":"Feature"},
		{"geometry":{"coordinates":[-4.38101,55.51539],"type":"Point"},"properties":{"_source":"east_ayrshire_council","address":"Mauchline Parish Church, Mauchline KA5 5BU","description":"Shoppers Lunch","hours":{"_text":"Every third Thursday 11.30am to 1.30pm","opening":"Th[3] 11:30-13:30"},"loc_pcd":true,"title":"Mauchline Parish Church"},"type":"Feature"},
		{"geometry":{"coordinates":[-4.29332,55.47109],"type":"Point"},"properties":{"_source":"east_ayrshire_council","address":"Boswell Centre, Well Road, Auchinleck, Cumnock KA18 2LA","description":"East Ayrshire Leisure will be complementing their existing services by offering spaces where local residents can access hot snacks and drinks, fresh fruit and more","hours":{"_text":"Find out more about opening times at https://eastayrshireleisure.com/across-the-trust/a-warm-welcome/"},"loc_pcd":true,"title":"Auchinleck Boswell Centre LIbrary"},"type":"Feature"},
		{"geometry":{"coordinates":[-4.33224,55.50266],"type":"Point"},"properties":{"_source":"east_ayrshire_council","address":"A M Brown Institute, Institute Avenue, Catrine, Mauchline KA5 6RT","description":"East Ayrshire Leisure will be complementing their existing services by offering spaces where local residents can access hot snacks and drinks, fresh fruit and more","hours":{"_text":"Find out more about opening times at https://eastayrshireleisure.com/across-the-trust/a-warm-welcome/"},"loc_pcd":true,"title":"AM Brown Institute, Catrine"},"type":"Feature"},
		{"geometry":{"coordinates":[-4.37983,55.51604],"type":"Point"},"properties":{"_source":"east_ayrshire_council","address":"Burns House Museum, Castle Street, Mauchline KA5 5BZ","description":"East Ayrshire Leisure will be complementing their existing services by offering spaces where local residents can access hot snacks and drinks, fresh fruit and more","hours":{"_text":"Find out more about opening times at https://eastayrshireleisure.com/across-the-trust/a-warm-welcome/"},"loc_pcd":true,"title":"Burns House Museum, Mauchline"},"type":"Feature"},
		{"geometry":{"coordinates":[-4.32625,55.49989],"type":"Point"},"properties":{"_source":"east_ayrshire_council","address":"Lodge St John 497 Social Clun, Sloan Street, Catrine, Mauchline KA5 6LT","description":"“12 O’clock Gang” - for a brew and blether, offering soup and sandwiches","hours":{"_text":"Tuesday 12noon to 2pm","opening":"Tu 12:00-14:00"},"loc_pcd":true,"title":"Catrine Community Action Plan Group"},"type":"Feature"},
		{"geometry":{"coordinates":[-4.23123,55.45854],"type":"Point"},"properties":{"_source":"east_ayrshire_council","address":"29 Paterson Avenue, Cumnock, United Kingdom, KA18 3HR","description":"Community Larder","hours":{"_text":"Thursday 10am to 12noon","opening":"Th 10:00-12:00"},"loc_pcd":true,"title":"Logan Day Centre"},"type":"Feature"},
		{"geometry":{"coordinates":[-4.29266,55.47232],"type":"Point"},"properties":{"_source":"east_ayrshire_council","address":"Auchinleck Indoor Bowling Club, Well Road, Auchinleck, Cumnock KA18 2JZ","description":"Warm space with hot drinks and activities.","hours":{"_text":"Tuesday and Thursday 12.30pm to 2.30pm","opening":"Tu 12:30-14:30; Th 12:30-14:30"},"loc_pcd":true,"title":"Auchinleck Indoor Bowling Club"},"type":"Feature"},
		{"geometry":{"coordinates":[-4.25011,55.44184],"type":"Point"},"properties":{"_source":"east_ayrshire_council","address":"Netherthird Community Centre, 65 Ryderston Drive, Cumnock KA18 3AR","description":"Free “Warm Welcome Club” offering tea, coffee and biscuits with entertainment and activities","hours":{"_text":"Monday 1.30pm to 3.30pm","opening":"Mo 13:30-15:30"},"loc_pcd":true,"title":"Netherthird Community Centre"},"type":"Feature"},
		{"geometry":{"coordinates":[-4.26214,55.45515],"type":"Point"},"properties":{"_source":"east_ayrshire_council","address":"Yipworld, 19 Barrhill Road, Cumnock KA18 1PG","description":"Free tea, coffee soup and rolls. All welcome to watch TV, shoot some pool, arts and crafts or just have a blether.","hours":{"_text":"Monday to Friday 10am to 2pm","opening":"Mo-Fr 10:00-14:00"},"loc_pcd":true,"title":"Yipworld"},"type":"Feature"},
		{"geometry":{"coordinates":[-4.36675,55.45997],"type":"Point"},"properties":{"_source":"east_ayrshire_council","address":"Ochiltree Community Hub, 45 Main Street, Ochiltree, Cumnock KA18 2PE","description":"Cafe open Free chair aerobics class on a Wednesday at 10am Free NHS exercise class for all abilities on a Tuesday at 10.15am (until 24 January 2023)","hours":{"_text":"Monday to Friday 10am to 4pm\n\nSaturday 10am to 2pm","opening":"Mo-Fr 10:00-16:00; Sa 10:00-14:00"},"loc_pcd":true,"title":"Ochiltree Hub"},"type":"Feature"},
		{"geometry":{"coordinates":[-4.26262,55.45413],"type":"Point"},"properties":{"_source":"east_ayrshire_council","address":"46 Townhead Street, Cumnock, Cumnock, Ayrshire, KA18 1LD","description":"Free hot soup, tea and coffee Keep warm and charge your phone and meet people","hours":{"_text":"Tuesday 12.30pm to 3.30pm","opening":"Tu 12:30-15:30"},"loc_pcd":true,"title":"Community living room at Community Routes (CVO)"},"type":"Feature"},
		{"geometry":{"coordinates":[-4.26100,55.45257],"type":"Point"},"properties":{"_source":"east_ayrshire_council","address":"Cumnock Library, 1 Greenholm Road, Cumnock KA18 1LH","description":"East Ayrshire Leisure will be complementing their existing services by offering spaces where local residents can access hot snacks and drinks, fresh fruit and more","hours":{"_text":"Find out more about opening times at https://eastayrshireleisure.com/across-the-trust/a-warm-welcome/"},"loc_pcd":true,"title":"Cumnock Library"},"type":"Feature"},
		{"geometry":{"coordinates":[-4.46218,55.43578],"type":"Point"},"properties":{"_source":"east_ayrshire_council","address":"Rowantree Court, Rowantree Court, Drongan, Ayr KA6 7AL","description":"Lunch club for older adults who are tenants or who live in the local community. Activities are also run 4 days a week","hours":{"_text":"Daily"},"loc_pcd":true,"title":"Rowantree Court"},"type":"Feature"},
		{"geometry":{"coordinates":[-4.46003,55.43164],"type":"Point"},"properties":{"_source":"east_ayrshire_council","address":"Drongan Community Centre, 2 Coronation Road, Drongan, Ayr KA6 7BZ","description":"East Ayrshire Leisure will be complementing their existing services by offering spaces where local residents can access hot snacks and drinks, fresh fruit and more","hours":{"_text":"Find out more about opening times at https://eastayrshireleisure.com/across-the-trust/a-warm-welcome/"},"loc_pcd":true,"title":"Drongan Community Centre"},"type":"Feature"}
	]
}
