{
	"type": "FeatureCollection",
	"features": [
		{"geometry":{"coordinates":[-4.56039,53.29316],"type":"Point"},"properties":{"_source":"warm_spaces","address":"Holyhead, Wales, LL65 3BS, United Kingdom","description":"Free Food/Drink, Free Wi-Fi, People to chat to, Toilets, Child Friendly","hours":{"_text":"Fri 12pm-2pm","opening":"Fr 12:00-14:00"},"title":"Tabor Hall"},"type":"Feature"},
		{"geometry":{"coordinates":[-4.27365,53.14154],"type":"Point"},"properties":{"_source":"cyngor_gwynedd","address":"Allt Pafiliwn, Caernarfon, Gwynedd. , LL55 1AS","contact":"Tel: 01286 679463; Email: LlCaernarfon@gwynedd.llyw.cymru","description":"Defnydd o stafell gynnes / The use of a warm room, WIFI, Gweithgareddau / Activities","hours":{"_text":"Llun/Mawrth - Mondayn/Tuesday - 9.30-6.30\nMercher/Iau/Gwener - Wednesday/Thursday/Friday - 9.30-5.00\nSadwrn/Saturday - 9.30-1.00","opening":"We 09:30-05:00; Th 09:30-05:00; Fr 09:30-05:00; Tu 09:30-06:30; Sa 09:30-01:00"},"name":"Llyfrgell Caernarfon Library"},"type":"Feature"},
		{"geometry":{"coordinates":[-4.27140,53.13835],"type":"Point"},"properties":{"_source":"cyngor_gwynedd","address":"22A Garnon Street, Caernarfon,Gwynedd, LL55 2RB","contact":"Tel: 07919567080; Email: magshug@gmail.com","description":"Defnydd o stafell gynnes / The use of a warm room, Paned / Warm Beverage, Bwyd / Food, Gweithgareddau / Activities, Arall / Other","hours":{"_text":"Prynhawn Dydd iau ar yr 1 af a 3ydd wythnos bob mis o 2-3:30 pm am banad a sgwrs / Thursday afternoon on the 1st and 3rd week of each month from 2pm-3.30pm for a chat and panad"},"name":"Capel Caersalem"},"type":"Feature"},
		{"geometry":{"coordinates":[-4.27081,53.13639],"type":"Point"},"properties":{"_source":"cyngor_gwynedd","address":"Ffordd Santes Helen, Caernarfon, LL55 2YD","contact":"Tel: 02286532222; Email: Desk.porthidre@outlook.com","description":"Defnydd o stafell gynnes / The use of a warm room, Paned / Warm Beverage, Bwyd / Food, WIFI, Gweithgareddau / Activities","hours":{"_text":"Llun - Gwener 9:30 - 4:30"},"name":"Tŷ Seiont"},"type":"Feature"},
		{"geometry":{"coordinates":[-4.27081,53.13639],"type":"Point"},"properties":{"_source":"cyngor_gwynedd","address":"Ffordd Santes Helen, Caernarfon , LL55 2YD","contact":"Tel: 01286532222; Email: Desk.porthidre@outlook.com","description":"Defnydd o stafell gynnes / The use of a warm room, Paned / Warm Beverage, Bwyd / Food, WIFI, Gweithgareddau / Activities, Arall / Other","hours":{"_text":"Llun i Gwener 9:30 - 16:30"},"name":"Tŷ Seiont"},"type":"Feature"},
		{"geometry":{"coordinates":[-4.27140,53.13835],"type":"Point"},"properties":{"_source":"cyngor_gwynedd","address":"GArnon St Caernarfon, LL552RB","contact":"Tel: 07919567080; Email: magshug@gmail.com","description":"Defnydd o stafell gynnes / The use of a warm room, Paned / Warm Beverage, Bwyd / Food, Gweithgareddau / Activities, Arall / Other","hours":{"_text":"Pob Dydd iau 11am -2pm"},"name":"Capel Caersalem"},"type":"Feature"},
		{"geometry":{"coordinates":[-4.26400,53.27028],"type":"Point"},"properties":{"_source":"cyngor_gwynedd","address":"Tai Lon Goch, Talwrn, Llangefni , LL77 7SU","contact":"Tel: 01248723477; Email: siop.bodeilio@gmail.com","description":"Defnydd o stafell gynnes / The use of a warm room, Paned / Warm Beverage, Bwyd / Food, WIFI, Gweithgareddau / Activities, Arall / Other","hours":{"_text":"9am to 11am bob dydd heblaw am Diwrnod Dolig // every day except Christmas Day."},"name":"Siop Bodeilio"},"type":"Feature"},
		{"geometry":{"coordinates":[-4.31800,53.25615],"type":"Point"},"properties":{"_source":"cyngor_gwynedd","address":"Glanhwfa Rd, Llangefni , LL77 7QX","contact":"Tel: 07925737938; Email:","description":"Defnydd o stafell gynnes / The use of a warm room, Paned / Warm Beverage, WIFI","hours":{"_text":"Dydd Mawrth // Tuesday 2pm - 4pm","opening":"Tu 14:00-16:00"},"name":"Canolfan Glanhwfa Hwb Cymunedol"},"type":"Feature"},
		{"geometry":{"coordinates":[-4.33147,53.18812],"type":"Point"},"properties":{"_source":"cyngor_gwynedd","address":"Neuadd Llangaffo, LL60 6LU","contact":"Tel: 07860797094; Email:","description":"Defnydd o stafell gynnes / The use of a warm room, Paned / Warm Beverage, WIFI, Gweithgareddau / Activities","hours":{"_text":"Dydd Mercher 10.00 - 12.00pm"},"name":"Neuadd Llangaffo"},"type":"Feature"}
	]
}
