{
	"type": "FeatureCollection",
	"features": [
		{"geometry":{"coordinates":[-4.36365,52.21281],"type":"Point"},"properties":{"_source":"ceredigion_council","address":"New Quay Memorial Hall, Towyn Road, SA45 9QQ","contact":"John Barrett: development@nqch.org.uk / 01545 909585","description":"Warm Hub refreshments, chat and advice Monday, Tuesday, Wednesday 1pm – 3pm Friendship Group Thursday 12-2pm Friday Indoor market 9-12 Clonc Wednesday 10-11:30","loc_pcd":true,"title":"New Quay Memorial Hall"},"type":"Feature"},
		{"geometry":{"coordinates":[-4.26123,52.24151],"type":"Point"},"properties":{"_source":"ceredigion_council","address":"Holy Trinity Church Hall,\nAberaeron,\nCeredigion,\nSA46 0AY","contact":"Mrs Lee Oldale: leeoldale56@gmail.com","description":"A warm and welcoming place for all to enjoy chat, warmth, games and advice. Free hot drinks, soup and cakes will be available. We also have information about our 5K+ Foodbank. Everyone is welcome.","loc_pcd":true,"title":"Holy Trinity Church Hall"},"type":"Feature"},
		{"geometry":{"coordinates":[-4.54290,52.13283],"type":"Point"},"properties":{"_source":"ceredigion_council","address":"Canolfan Dyffryn, Aberporth, SA43 2EU, UK","contact":"Sue Lewis: avhprojectofficer@gmail.comhomestartaberaeron@gmail.com","description":"A range of community events, detailed in the opening times. Co-ordinator Nic is also at the village hall Mon-Thur 8.30-2.30- there is a room available at the village hall if anyone wants to pop in for a brew! Homestart Pre School Group. We offer families, warm space, hot refreshments and food for the children. Thursday 09:30 - 11:00","title":"Canolfan Dyffryn"},"type":"Feature"},
		{"geometry":{"coordinates":[-4.54110,52.13205],"type":"Point"},"properties":{"_source":"ceredigion_council","address":"Aberporth Village Hall, Aberporth, Cardigan SA43 2EN","contact":"Sue Lewis: avhprojectofficer@ceredigion.gov.uk","description":"Lunches and a coffee morning.","loc_pcd":true,"title":"Aberporth Village Hall"},"type":"Feature"},
		{"geometry":{"coordinates":[-4.30837,52.19601],"type":"Point"},"properties":{"_source":"ceredigion_council","address":"Llanarth Church Hall,\nLlanarth,\nSA47 0NH","contact":"Beth Davies:","description":"Tea, coffee and cake plus activities including crafts and cookery for all ages.","loc_pcd":true,"title":"Llanarth church hall"},"type":"Feature"},
		{"geometry":{"coordinates":[-4.37846,52.17757],"type":"Point"},"properties":{"_source":"ceredigion_council","address":"Caerwedros Memorial Hall, Caerwedros, Llandysul, Ceredigion, SA44 6BL","contact":"Gareth Ioan:","description":"Cuppa and a chat every last Monday of the month, ten meetings in a year.","title":"Paned a Chlonc"},"type":"Feature"}
	]
}
