{
	"type": "FeatureCollection",
	"features": [
		{"geometry":{"coordinates":[-0.53614,53.22328],"type":"Point"},"properties":{"_source":"warm_welcome","address":"Bridge Central, Portland Street, Lincoln LN5 7NN","description":"","hours":"Mo 10:00-14:00, Tu 10:00-14:00, We 10:00-14:00, Th 10:00-14:00","title":"Bridge Church Lincoln"},"type":"Feature"},
		{"geometry":{"coordinates":[-0.54880,53.20962],"type":"Point"},"properties":{"_source":"warm_welcome","address":"72a Newark Road, Lincoln , Lincoln LN5 8PY","description":"","hours":"Mo 10:00-14:00, Tu 10:00-14:00, We 10:00-14:00, Th 10:00-14:00","title":"Bridge church Lincoln "},"type":"Feature"},
		{"geometry":{"coordinates":[-0.54910,53.20945],"type":"Point"},"properties":{"_source":"warm_welcome","address":"Bridge Community Hub, 107-115 Newark Road, Lincoln LN5 8NQ","description":" Library, food bank, CAB advisor","hours":"Mo 10:00-12:00, Tu 15:30-17:30, We 10:00-12:00, Fr 10:00-12:00","title":"Bridge Community Hub"},"type":"Feature"},
		{"geometry":{"coordinates":[-0.53554,53.19407],"type":"Point"},"properties":{"_source":"warm_welcome","address":"Bracebridge Heath Methodist Church, Grantham Road, Bracebridge Heath, Lincoln LN4 2LE","description":" We are a friendly Community Drop-in that has been running since Feb. 2022. We started because we wanted to bring the community together and the opportunity to offer a warm welcome to those in need this Winter is exactly what we are here for.","hours":"We 09:00-11:30","title":"Community Drop-in (The Heath Christian Partnership)"},"type":"Feature"}