{
	"type": "FeatureCollection",
	"features": [
		{"geometry":{"coordinates":[-1.91283,53.70882],"type":"Point"},"properties":{"_source":"warm_welcome","address":"Sowerby Bridge Library, Hollins Mill Lane , Sowerby Bridge HX6 2QG","description":" Calderdale Libraries will be closed for the Christmas period from 1pm on Sat24th Dec and reopen on Tues 3rd Jan. s","hours":"Mo 10:00-17:00, Tu 10:00-18:00, Th 10:00-17:00, Fr 10:00-17:00, Sa 10:00-16:00","title":"Calderdale MBC"},"type":"Feature"},
		{"geometry":{"coordinates":[-1.88415,53.74703],"type":"Point"},"properties":{"_source":"warm_welcome","address":"Beechwood Road Library, Beechwood Road, Illingworth., Halifax HX2 9BU","description":"Everyone is welcome. We have a local history display of North Halifax. We have a display of local events. We offer free children's crafts and a very warm welcome.","hours":"Mo 10:00-17:00, Th 10:00-17:00, Fr 10:00-17:00, Sa 10:00-13:00","title":"Calderdale MBC"},"type":"Feature"},
		{"geometry":{"coordinates":[-1.85542,53.72221],"type":"Point"},"properties":{"_source":"warm_welcome","address":"Halifax Central Library and Archives, Halifax HX1 1QG","description":"Board Games available","hours":"Mo 10:00-18:30, Tu 10:00-17:30, We 10:00-17:30, Th 10:00-18:30, Fr 10:00-17:30, Sa 10:00-16:00","title":"Calderdale MBC"},"type":"Feature"},
		{"geometry":{"coordinates":[-1.88045,53.71487],"type":"Point"},"properties":{"_source":"warm_welcome","address":"King Cross Library Library, 151 Haugh Shaw Road , Halifax HX1 3BG","hours":"Mo 10:00-17:00, Tu 10:00-18:30, Th 10:00-18:30, Fr 10:00-17:00, Sa 10:00-16:00","title":"Calderdale MBC"},"type":"Feature"},
		{"geometry":{"coordinates":[-1.85521,53.72189],"type":"Point"},"properties":{"_source":"warm_welcome","address":"Square Road , Halifax, West Yorkshire HX1 1QG","description":"","hours":"Mo 10:00-18:30, Tu 10:00-17:30, We 10:00-17:30, Th 10:00-18:30, Fr 10:00-17:30, Sa 10:00-16:00","title":"Central Library and Archives"},"type":"Feature"}