{
	"type": "FeatureCollection",
	"features": [
		{"geometry":{"coordinates":[-5.28550,50.22040],"type":"Point"},"properties":{"_source":"warm_welcome","address":"All Saints Community Centre, 75 Church View Road, Camborne, Cornwall TR148RQ","description":"Open from We are open Monday to Friday all year except for bank holidays and two weeks around Christmas. Everyone is welcome We have a community larder, a cafe for hot food, a computer room, a sensory room for people needing relaxation or a quiet environment, community laundrette, advocacy support, benefit support, and much more besides","hours":"Mo 09:00-17:00, Tu 09:00-17:00, We 09:00-17:00, Th 09:00-12:00, Fr 09:00-17:00","title":"All Saints Church Community Centre"},"type":"Feature"},
		{"geometry":{"coordinates":[-5.28235,50.19349],"type":"Point"},"properties":{"_source":"warm_welcome","address":"Troon Church Hall, Camborne, Cornwall TR14 9EJ","description":"","hours":"Fr 09:30-11:30","title":"Camborne Cluster"},"type":"Feature"},
		{"geometry":{"coordinates":[-5.30219,50.21365],"type":"Point"},"properties":{"_source":"warm_welcome","address":"Church Street, Camborne, Cornwall TR14 7DF","description":"","hours":"Tu 15:00-17:00, Th 13:00-18:00, Sa 10:00-13:00, Su 09:00-12:00","title":"Camborne Parish Church"},"type":"Feature"},
		{"geometry":{"coordinates":[-5.30285,50.22119],"type":"Point"},"properties":{"_source":"warm_welcome","address":"Chapel Street, Camborne, Cornwall TR14 0AA","description":"Open from 7/11/2022. All are welcome Town centre location. Free hot drinks. Meals, sandwiches, soup etc available at modest prices","hours":"Mo 10:00-14:00, Tu 10:00-14:00, We 10:00-14:00, Th 10:00-14:00, Fr 10:00-14:00","title":"Camborne Wesley Methodist Church"},"type":"Feature"}