{
	"type": "FeatureCollection",
	"features": [
		{"geometry":{"coordinates":[-5.95031,54.57826],"type":"Point"},"properties":{"_source":"warm_welcome","address":"Belfast South Methodist Church at Agape Centre, Belfast BT9 6FW","description":"","hours":"Th 10:00-12:00; Fr 18:00-19:00","title":"Agape Centre, and Belfast South Methodist Church"},"type":"Feature"},
		{"geometry":{"coordinates":[-5.89466,54.59904],"type":"Point"},"properties":{"_source":"warm_welcome","address":"Block C, 310 Newtownards Road, Belfast, Antrim BT4 1HE","description":"Open from 16-11-2022. Our focus is on elderly people for the Warm Welcome offering Bodega Bagels is offering 20% off to pensioners ","hours":"We 09:00-15:00","title":"Banana Block / Bodega Bagels"},"type":"Feature"},
		{"geometry":{"coordinates":[-5.66609,54.66468],"type":"Point"},"properties":{"_source":"warm_welcome","address":"Crosby Street , Bangor, County Down BT20 5EE","description":"","hours":"Mo 10:30-12:30","title":"Bangor Salvation Army "},"type":"Feature"},
		{"geometry":{"coordinates":[-5.89861,54.58480],"type":"Point"},"properties":{"_source":"warm_welcome","address":"28-30 Cregagh Road, BELFAST BT6 9EQ","description":"Open from 12/11/2022.","hours":"Mo 10:30-13:00","title":"Cregagh Methodist Church"},"type":"Feature"},
		{"geometry":{"coordinates":[-5.79296,54.65408],"type":"Point"},"properties":{"_source":"warm_welcome","address":"7 Bangor Road , Holywood, Down BT18 ONU","description":"","hours":"Th 10:00-16:00","title":"First Holywood Presbyterian Church"},"type":"Feature"},
		{"geometry":{"coordinates":[-5.66867,54.66050],"type":"Point"},"properties":{"_source":"warm_welcome","address":"100 Main Street, Bangor, Down BT20 4AG","hours":"Mo 09:00-16:00; Tu 09:00-16:00; We 09:00-16:00; Th 09:00-16:00; Fr 09:00-16:00","title":"First Presbyterian Church Bangor"},"type":"Feature"},
		{"geometry":{"coordinates":[-5.84657,54.63311],"type":"Point"},"properties":{"_source":"warm_welcome","address":"67 Belfast Road, Holywood , Down Bt18","description":"Open from 10-11-202.","hours":"Th 11:00-14:00","title":"Holywood Baptist Church"},"type":"Feature"},
		{"geometry":{"coordinates":[-5.85600,54.59197],"type":"Point"},"properties":{"_source":"warm_welcome","address":"53 Kings Road, Belfast, Antirm BT5 6JH","description":"Open from 29/11/2022.","hours":"Tu 10:00-16:00","title":"Knock Presbyterian Church"},"type":"Feature"},
		{"geometry":{"coordinates":[-5.89696,54.58077],"type":"Point"},"properties":{"_source":"warm_welcome","address":"110 Cregagh Road, Belfast, Antrim BT6 9ES","description":"Open from We are open already!. We want to offer a space that is Warm and Welcoming to anyone. We have games and puzzles for all ages as well as toys for younger children. Bottomless teas and coffees with optional light snacks. We have busier shared areas or quieter spaces if you prefer.","hours":"We 10:00-13:00","title":"Salvation Army Belfast Temple"},"type":"Feature"},
		{"geometry":{"coordinates":[-5.78964,54.59244],"type":"Point"},"properties":{"_source":"warm_welcome","address":"Craigleith Drive, Dundonald, Belfast BT16 2RY","description":"On Mondays we cater only for Seniors, and this includes a hot meal. On Sundays all are welcome to our service during which there is a children's ministry and a creche room. After the service hot drinks and light refreshments are served.","hours":"Mo 10:00-12:30; Su 10:30-12:30","title":"St. Mary's Ballybeen"},"type":"Feature"},
		{"geometry":{"coordinates":[-5.69906,54.59485],"type":"Point"},"properties":{"_source":"warm_welcome","address":"West Street, Newtownards, County Down BT23 4EN","description":"","hours":"Th 14:00-16:00","title":"Strean Presbyterian Church"},"type":"Feature"},
		{"geometry":{"coordinates":[-5.87342,54.60769],"type":"Point"},"properties":{"_source":"warm_welcome","address":"13 Station Mews, Sydenham, Belfast BT4 1TL","description":"Open from 2 November. All are welcome - activity and lunch aimed at elderly but we have also a room for toddlers (with parent supervision). We have a comfortable lounge with newspapers and can provide hot and cold drinks throughout the day. At 11am there is an optional activity eg, quiz or craft and at 12.30pm there is a hot two course lunch (optional).","hours":"We 10:00-16:00","title":"Sydenham Salvation Army"},"type":"Feature"},
		{"geometry":{"coordinates":[-5.66646,54.59497],"type":"Point"},"properties":{"_source":"warm_welcome","address":"58 Movilla Road, Newtownards, Co Down BT23 8RG","description":"We cater for all ages and have a designated children's corner with toys. We provide a warm welcoming space to come to with plenty of comfortable chairs and free refreshments. We also have a table tennis table and snooker table along with board games available. There is plenty of safe parking in our car park. ","hours":"Tu 10:00-12:00; Sa 10:00-12:00","title":"The Beacon "},"type":"Feature"},
		{"geometry":{"coordinates":[-5.69882,54.59427],"type":"Point"},"properties":{"_source":"warm_welcome","address":"19 Regent Street, Newtownards, Down BT237FN","description":" We provide food and drinks, and a warm welcoming space for people to come together.","hours":"Mo 09:30-14:00; We 09:30-14:00; Fr 09:30-14:00","title":"The Salvation Army"},"type":"Feature"},
		{"geometry":{"coordinates":[-5.69857,54.65029],"type":"Point"},"properties":{"_source":"warm_welcome","address":"Drumhirk Drive, Bangor, Co. Down BT19 1FP","description":"Open from 10-11-2022. Warm Welcome in West Church Kilcooley is open to the whole community We have board games, table tennis, newspapers, knit & knatter, book club, signposting to support agencies and an opportunity to chat together or confidentially. ","hours":"Th 13:00-15:00","title":"West Church Kilcooley"},"type":"Feature"},
		{"geometry":{"coordinates":[-5.70241,54.66046],"type":"Point"},"properties":{"_source":"warm_welcome","address":"West Presbyterian Church, Bangor, County Down BT191BG","description":"Open from 19-10-2022. Warm Welcome in West is open to everyone in our Community. We have games, newspapers & puzzles to enjoy as well as toys for younger children. There is also the opportunity to chat confidentially with one of the staff team, chat with volunteers, enjoy the company of others or quiet time on your own if preferred. ","hours":"We 10:00-13:00","title":"West Presbyterian Church"},"type":"Feature"},
		{"geometry":{"coordinates":[-5.82606,54.58990],"type":"Point"},"properties":{"_source":"warm_spaces","address":"Tullycarnet Community Centre, Kinross Avenue, Belfast, Northern Ireland, BT5 7RW","title":"Eastpoint Church","url":"https://Www.Eastpointchurch.co.uk"},"type":"Feature"},
		{"geometry":{"coordinates":[-5.83017,54.64277],"type":"Point"},"properties":{"_source":"warm_spaces","address":"7 Bangor Road, Holywood, Northern Ireland, BT18 0NU","title":"First Holywood Presbyterian Church","url":"https://www.firstholywood.co.uk"},"type":"Feature"},
		{"geometry":{"coordinates":[-5.92455,54.61680],"type":"Point"},"properties":{"_source":"warm_spaces","address":"80 York Road, Belfast, Northern Ireland, BT15 3HF","title":"The Wee Cafe (Alexandra Presbyterian Church)","url":"https://www.facebook.com/alexandrapresbyterianchurch"},"type":"Feature"}
	]
}
