{
	"type": "FeatureCollection",
	"features": [
		{"geometry":{"coordinates":[-0.19876,53.74014],"type":"Point"},"properties":{"_source":"warm_welcome","address":"The Hedon Centre, East Riding of Yorkshire HU12 8EX","description":"East Riding libraries offer warm welcoming places, with comfy seating, books, games and jigsaws. Please check our website for service updates and any changes to our usual opening hours.","hours":{"_text":"Monday: 09:30 - 13:30, Tuesday: 09:30 - 18:30, Wednesday: 09:30 - 01:30, Thursday: 09:30 - 16:30, Saturday: 09:30 - 12:30","opening":"Mo 09:30-13:30; Tu 09:30-18:30; We 09:30-01:30; Th 09:30-16:30; Sa 09:30-12:30"},"title":"Hedon Centre"},"type":"Feature"},
		{"geometry":{"coordinates":[-0.05243,53.57009],"type":"Point"},"properties":{"_source":"warm_welcome","address":"Capacity Buildings, Cleethorpes, North East Lincolnshire DN35 7DP","description":"Warm Welcome Space, shed backyard garden for Cleethorpes residents to enjoy","hours":{"_text":"Monday: 09:00 - 16:00, Tuesday: 09:00 - 16:00, Wednesday: 09:00 - 16:00, Thursday: 09:00 - 16:00","opening":"Mo 09:00-16:00; Tu 09:00-16:00; We 09:00-16:00; Th 09:00-16:00"},"title":"Big Local North Cleethorpes Community Hub"},"type":"Feature"},
		{"geometry":{"coordinates":[-0.20064,53.74049],"type":"Point"},"properties":{"_source":"warm_welcome","address":"Church Lane, Hedon, East Riding of Yorkshire HU12 8EL","description":"All ages although Thursdays attracts over 50's Hedon Methodist Church Community Partnerships offers a Digital Hub, Coffee Lounge and other spaces every Tuesday. Thursdays is our Junction Community Coffee Lounge for drinks, cake, and crafts or just company.","hours":{"_text":"Tuesday: 10:00 - 12:00, Thursday: 14:00 - 16:00","opening":"Tu 10:00-12:00; Th 14:00-16:00"},"title":"Hedon Methodist Church"},"type":"Feature"},
		{"geometry":{"coordinates":[-0.19705,53.74357],"type":"Point"},"properties":{"_source":"warm_welcome","address":"Central Methodist Church, North Humberside HU12 8JY","description":"The space is open to all. Wifi available. Tea and Coffee","hours":{"_text":"Tuesday: 10:00 - 12:00, Thursday: 14:00 - 16:00, Friday: 12:15 - 16:30","opening":"Tu 10:00-12:00; Th 14:00-16:00; Fr 12:15-16:30"},"title":"Hedon Methodist Church / The Junction"},"type":"Feature"},
		{"geometry":{"coordinates":[-0.33489,53.74148],"type":"Point"},"properties":{"_source":"warm_welcome","address":"Hull Minster, South Church Side, East Yorkshire HU1 1RR","description":"Large civic church at the heart of Hull Old town. On Thursdays 10.30 - 3pm a Welcome Cafe operates. See website for details. The Minster is generally open Tuesday-Saturday 10am - 4pmThe Minster is closed from Boxing day until Tuesday 7th January 2025 apart from Sunday services.","hours":{"_text":"Tuesday: 10:00 - 16:00, Wednesday: 10:00 - 16:00, Thursday: 10:00 - 16:00, Friday: 10:00 - 16:00, Saturday: 10:00 - 16:00, Sunday: 09:00 - 13:00","opening":"Tu 10:00-16:00; We 10:00-16:00; Th 10:00-16:00; Fr 10:00-16:00; Sa 10:00-16:00; Su 09:00-13:00"},"title":"Hull Minster"},"type":"Feature"},
		{"geometry":{"coordinates":[-0.34149,53.74550],"type":"Point"},"properties":{"_source":"warm_welcome","address":"62 King Edward Street, Hull, Hull HU1 3SQ","description":"Free weekday activities happening Tuesday, Wednesday and Thursday. Drop in space available all day Wednesday.","hours":{"_text":"Wednesday: 09:00 - 15:30","opening":"We 09:00-15:30"},"title":"Jubilee Church Hull"},"type":"Feature"},
		{"geometry":{"coordinates":[-0.02265,53.55602],"type":"Point"},"properties":{"_source":"warm_welcome","address":"La Cuna, South Humberside DN35 8QU","description":"A community space for arts, crafts, meetings, workshops and coffee","hours":{"_text":"Wednesday: 10:30 - 04:00, Thursday: 10:30 - 04:00, Friday: 10:30 - 04:00, Saturday: 11:00 - 03:00","opening":"We 10:30-04:00; Th 10:30-04:00; Fr 10:30-04:00; Sa 11:00-03:00"},"title":"LaCuna"},"type":"Feature"},
		{"geometry":{"coordinates":[-0.08296,53.56532],"type":"Point"},"properties":{"_source":"warm_welcome","address":"Carers Support Service, Grimsby, South Humberside DN31 1HY","description":"SPACE OPENING ON 10th October 2025** The cosy space, welcomes anyone who would like to enjoy a cuppa and company. Read or loan one of our many books, or swap with other people, play a board game, or just enjoy some peace and quiet. Open on the second and last Friday of each month from 1pm - 4pm.","hours":{"_text":"Friday: 13:00 - 16:00","opening":"Fr 13:00-16:00"},"title":"The Cosy Space"},"type":"Feature"},
		{"geometry":{"coordinates":[-0.33747,53.74505],"type":"Point"},"properties":{"_source":"warm_welcome","address":"The Warren, Hull, North Humberside HU1 3DR","description":"We strive to create a warm and inclusive environment where individuals aged 16 to 25 can come together, socialise, and build meaningful connections with their peers. Our centre offers delicious, affordable meals and complimentary tea and coffee. In addition, we offer a wide range of exciting activities that cater to the interests of young adults, ensuring they have a fun and engaging time with us.","hours":{"_text":"Monday: 13:00 - 17:30, Tuesday: 10:00 - 16:30, Wednesday: 10:00 - 17:30, Thursday: 10:00 - 17:30, Friday: 10:00 - 16:30","opening":"Mo 13:00-17:30; Tu 10:00-16:30; We 10:00-17:30; Th 10:00-17:30; Fr 10:00-16:30"},"title":"The Warren"},"type":"Feature"},
		{"geometry":{"coordinates":[-0.35150,53.74059],"type":"Point"},"properties":{"_source":"hull_council","address":","},"type":"Feature"},
		{"geometry":{"coordinates":[-0.34112,53.74561],"type":"Point"},"properties":{"_source":"hull_council","address":","},"type":"Feature"},
		{"geometry":{"coordinates":[-0.34423,53.74757],"type":"Point"},"properties":{"_source":"hull_council","address":","},"type":"Feature"},
		{"geometry":{"coordinates":[-0.35150,53.74059],"type":"Point"},"properties":{"_source":"hull_council","address":","},"type":"Feature"}
	]
}
