{
	"type": "FeatureCollection",
	"features": [
		{"geometry":{"coordinates":[-0.20046,53.73972],"type":"Point"},"properties":{"_source":"warm_spaces","address":"5 Church Lane, Hull, England, HU12 8EL, United Kingdom","description":"Free Food/Drink, Free Wi-Fi, Device Charging, Advice, People to chat to, Space to work, Food/Drink for sale, Wheelchair Accessible, Toilets, Accessible Toilet, Parking, optional activities and entertainment","hours":{"_text":"Tuesday 10am-2pm, Thursday 2pm-4pm","opening":"Tu 10:00-14:00; Th 14:00-16:00"},"title":"Hedon Methodist Church","url":"https://www.facebook.com/hedonmethodistchurch"},"type":"Feature"},
		{"geometry":{"coordinates":[-0.07270,53.57382],"type":"Point"},"properties":{"_source":"warm_spaces","address":"21 Freeman Street, Grimsby, England, DN32 7AB, United Kingdom","description":"Free Food/Drink, Free Wi-Fi, People to chat to, Wheelchair Accessible, Toilets, Accessible Toilet, Parking, Child Friendly","hours":{"_text":"2pm - 4pm"},"title":"YMCA Humber","url":"https://www.ymca-humber.com"},"type":"Feature"},
		{"geometry":{"coordinates":[-0.05130,53.56624],"type":"Point"},"properties":{"_source":"warm_spaces","address":"183-207 Brereton Avenue, Cleethorpes, England, DN35 7RG, United Kingdom","description":"Free Food/Drink, Device Charging, Advice, People to chat to, Space to work, Toilets, Parking, Children Friendly","hours":{"_text":"8am-12pm"},"title":"Sidney Park Partnership @ Sidney Park JFC"},"type":"Feature"},
		{"geometry":{"coordinates":[-0.35150,53.74059],"type":"Point"},"properties":{"_source":"hull_council","address":", The Octagon Walker St, HU3 2RA","contact":"01482 587550","description":"Bingo, Craft Club, budgeting support, soup & social - all Free. Pantry £2 per visit membership for approx. £15 worth of food. CAB services - IAG, employment, debt, budgeting, welfare and wellbeing. No translation service, or BSL.","title":"Goodwin Development Trust"},"type":"Feature"},
		{"geometry":{"coordinates":[-0.34322,53.74681],"type":"Point"},"properties":{"_source":"hull_council","address":", Albion St, HU1 3TF","contact":"01482 210000","description":"All of our libraries are warm spaces for all of the hours they are open and all will be providing warm drinks. There are lots of free activities available so please call us or visit our website to find out more.","title":"Central Library"},"type":"Feature"},
		{"geometry":{"coordinates":[-0.33417,53.74178],"type":"Point"},"properties":{"_source":"hull_council","address":", South Church Side, HU1 1RR","contact":"01482 224460","description":"10.30 tea and coffee and biscuits are served and between 11.30 and 1.30pm homemade soup with a roll is available followed by a sweet. Then from 1.30 until 3.30 pm tea and coffee and biscuits are available. Advice and a friendly face to chat to.","title":"Hull Minster"},"type":"Feature"},
		{"geometry":{"coordinates":[-0.34655,53.74641],"type":"Point"},"properties":{"_source":"hull_council","address":", 50 Ferensway Hull, HU2 8LB","contact":"01482 323638","description":"Toilets, accessible Toilets, Tea & Coffee, Water","title":"Hull Truck Theatre"},"type":"Feature"}
	]
}
