{
	"type": "FeatureCollection",
	"features": [
		{"geometry":{"coordinates":[-0.29042,52.57692],"type":"Point"},"properties":{"_source":"warm_welcome","address":"Bretton Baptist Church, Cambridgeshire PE3 6YJ","description":"A community cafe open Tuesday and Thursday mornings,10-12pm. Free tea coffee and cake, and from 11am, soup and a roll.","hours":{"_text":"Tuesday: 10:00 - 12:00, Thursday: 10:00 - 12:00","opening":"Tu 10:00-12:00; Th 10:00-12:00"},"title":"Bretton Lounge"},"type":"Feature"},
		{"geometry":{"coordinates":[-0.26284,52.61045],"type":"Point"},"properties":{"_source":"warm_welcome","address":"40 Gunthorpe Road, Peterborough, Cambs PE4 7TG","description":"Open from 13 10 2023.","hours":{"_text":"Friday: 09:30 - 03:00","opening":"Fr 09:30-03:00"},"title":"Brookside Community Hub"},"type":"Feature"},
		{"geometry":{"coordinates":[-0.28369,52.58836],"type":"Point"},"properties":{"_source":"warm_welcome","address":"Rightwell East, Bretton,, Peterborough, Cambridgeshire","description":"Thursdays 11-1 Accessible with baby changing and accessible toilet. Free wifi","hours":{"_text":"Thursday: 11:00 - 13:00","opening":"Th 11:00-13:00"},"title":"Church of the Holy Spirit"},"type":"Feature"},
		{"geometry":{"coordinates":[-0.28865,52.54321],"type":"Point"},"properties":{"_source":"warm_welcome","address":"The Goldhay Centre, Peterborough, Cambs PE2 5QP","description":"Weekly Community Cafe open to members of the public. Every Wednesday 9.30am to 11.30am. Entrance is £1 for Adults, 50p for school aged children, and free for under 5s. For entrance fee, people can have as many drinks, toast, cereal and pastries as they wish. There may also be a chance to take vegetables or bread home as well, if we have them. There are often guests at the cafe who can discuss things and offer support, in areas of health, housing, and finance. We are a charity and community centre supporting families and Parent Carers with children ages 0-25 with SEND","hours":{"_text":"Wednesday: 09:30 - 11:30","opening":"We 09:30-11:30"},"title":"Family Voice Community cafe"},"type":"Feature"},
		{"geometry":{"coordinates":[-0.27208,52.59745],"type":"Point"},"properties":{"_source":"warm_welcome","address":"The Alpha Centre, Peterborough, Cambs PE3 8RA","description":"Community cafe in the heart of Bretton, Peterborough.","hours":{"_text":"Monday: 09:30 - 12:00, Tuesday: 09:30 - 12:00, Wednesday: 09:30 - 14:00, Thursday: 09:30 - 12:00","opening":"Mo 09:30-12:00; Tu 09:30-12:00; We 09:30-14:00; Th 09:30-12:00"},"title":"Wellspring Community Church Hub"},"type":"Feature"},
		{"geometry":{"coordinates":[-0.12918,52.55642],"type":"Point"},"properties":{"_source":"warm_welcome","address":"31 - 35 Market Street, Cambridgeshire PE7 1BA","description":"Public library featuring a wide selection of books for all ages. There is also a children's area with toys and a model train to keep young ones entertained.","hours":{"_text":"Monday: 09:00 - 17:00, Tuesday: 09:00 - 13:00, Wednesday: 09:00 - 12:00, Friday: 09:00 - 05:00, Saturday: 09:00 - 13:00","opening":"Mo 09:00-17:00; Tu 09:00-13:00; We 09:00-12:00; Fr 09:00-05:00; Sa 09:00-13:00"},"title":"Whittlesey Library and Community Hub"},"type":"Feature"},
		{"geometry":{"coordinates":[-0.25110,52.51687],"type":"Point"},"properties":{"_source":"warm_welcome","address":"Cambridgeshire County Council, Peterborough, Cambridgeshire PE7 3JL","description":"Public Library. We welcome you to browse and borrow our collection, access our PCs and WI-FI for free and use our space to study, meet, share or just relax.","hours":{"_text":"Monday: 15:00 - 19:00, Tuesday: 09:30 - 17:00, Thursday: 09:30 - 17:00, Friday: 09:30 - 13:00, Saturday: 09:30 - 13:00","opening":"Mo 15:00-19:00; Tu 09:30-17:00; Th 09:30-17:00; Fr 09:30-13:00; Sa 09:30-13:00"},"title":"Yaxley Library"},"type":"Feature"},
		{"geometry":{"coordinates":[-0.16876,52.67599],"type":"Point"},"properties":{"_source":"warm_spaces","address":"6 North Street, Peterborough, England, PE6 0EF, United Kingdom","description":"Free Wi-Fi, People to chat to, Pay It Forward Scheme, Space to work, Food/Drink for sale, Toilets, Parking, Child Friendly, Pet Friendly","hours":{"_text":"10am-4:30pm"},"title":"The Old Copper Kettle","url":"https://en-gb.facebook.com/oldcopperkettlecrowland/"},"type":"Feature"},
		{"geometry":{"coordinates":[-0.27206,52.59746],"type":"Point"},"properties":{"_source":"warm_spaces","address":"Adderley, Peterborough, England, PE3 8RA, United Kingdom","description":"Free Wi-Fi, Device Charging, Advice, People to chat to, Food/Drink for sale, Food and drink free for those who need help","hours":{"_text":"Monday - Thursday, 09:30am-12pm (More hours coming soon)","opening":"Mo-Th 09:30-12:00"},"title":"The Alpha Centre","url":"https://www.facebook.com/The-Alpha-Centre-480749702428780/about/?ref=page_internal"},"type":"Feature"},
		{"geometry":{"coordinates":[-0.02403,52.49276],"type":"Point"},"properties":{"_source":"cambridgeshire_acre","address":"Benwick Village Hall, High Street, Benwick, March, PE15 0XG.","description":"Part of the Cambridgeshire Community Hubs Network.","hours":{"_text":"Saturday, 9am - 1pm","opening":"Sa 09:00-13:00"},"loc_pcd":true,"title":"Benwick Community Living Room"},"type":"Feature"},
		{"geometry":{"coordinates":[-0.10643,52.48734],"type":"Point"},"properties":{"_source":"huntingdonshire_council","address":"Ramsey Mereside Village Hall, Drovers Close, PE26 2UH","description":"Facilities: Accessible toilets, Accessible access in and out of the building, Fully accessible access throughout the building, Changing facilities, Car park, Free wi-fi access, Available power sockets for people to use, Kitchen, Facilities to make hot food/drink (with kettle/microwave), Secure building, Screen or television, Access to free activities (board games, jigsaws, drawing and colouring resource).","loc_pcd":true},"type":"Feature"},
		{"geometry":{"coordinates":[-0.25110,52.51686],"type":"Point"},"properties":{"_source":"huntingdonshire_council","address":"Yaxley Library, Landsdowne Road, Yaxley PE7 3JL","description":"Facilities: Car park - the nearest car park is opposite the library, behind the shopping centre, Public transport - bus stop 100 yards away (Stagecoach 5) or one mile away on London Road, near Folly Close (Stagecoach 904 Peterborough to St Ives), Accessibility - main library is wheelchair-friendly. The mezzanine area is 8 steps up and not wheelchair accessible, Computers - available to book, Free WiFi - you don't need a library card to use this service","hours":{"_text":"Monday: 3pm – 7pm<br />Tuesday: 9.30am – 5pm<br />Wednesday: Closed<br />Thursday: 9.30am – 5pm<br />Friday: 9.30am – 1.30pm<br />Saturday: 9.30am – 1.30pm<br />Sunday: Closed","opening":"Mo 15:00-19:00; Tu 09:30-17:00; Th 09:30-17:00; Fr 09:30-13:30; Sa 09:30-13:30"},"loc_pcd":true},"type":"Feature"},
		{"geometry":{"coordinates":[-0.25720,52.51907],"type":"Point"},"properties":{"_source":"huntingdonshire_council","address":"Yaxley Parish Council, Queens Park Hall, Daimler Avenue, Yaxley, PE7 3LX","description":"Facilities: Accessible toilets, Accessible access in and out of the building, Fully accessible access throughout the building, Car park, Power sockets available for people to use, Kitchen, Facilities to make hot food and drink - kettle/microwave, Secure building","loc_pcd":true},"type":"Feature"},
		{"geometry":{"coordinates":[-0.23487,52.52441],"type":"Point"},"properties":{"_source":"huntingdonshire_council","address":"Yaxley Social Echo - Unit 6, Heron Court, Harrier Way, Eagle Business Park, Yaxley, PE7 3AT","description":"Facilities: Accessible toilets, Accessible access in and out of the building, Fully accessible access throughout the building (all public areas fully accessible), Car park (limited on-site parking), Free WiFi access, Available power sockets for people to use, Facilities to make hot food/drink (kettle/microwave), Secure building, Screen or television.","loc_pcd":true},"type":"Feature"},
		{"geometry":{"coordinates":[-0.23424,52.57705],"type":"Point"},"properties":{"_source":"peterborough_council","address":"Address: Millennium Centre, Dickens Street, Peterborough, PE1 5GD","loc_pcd":true,"title":"Afro Caribbean Group"},"type":"Feature"},
		{"geometry":{"coordinates":[-0.29041,52.57692],"type":"Point"},"properties":{"_source":"peterborough_council","address":"Address: Copeland, South Bretton, Peterborough, PE3 6YJ","contact":"Email: helenculy@brettonbaptist.org.uk","loc_pcd":true,"title":"Bretton Baptist Church Hub,"},"type":"Feature"},
		{"geometry":{"coordinates":[-0.26568,52.53846],"type":"Point"},"properties":{"_source":"peterborough_council","address":"Address: Silver Hill, PE7 8FF","contact":"Email: communitea@cskhampton.church","loc_pcd":true,"title":"Christ The Servant King (CSK) Church and Chimes Coffee Shop"},"type":"Feature"},
		{"geometry":{"coordinates":[-0.25366,52.58677],"type":"Point"},"properties":{"_source":"peterborough_council","address":"Address: Gladstone Park Community Centre, 927 Bourges Boulevard, Peterborough, PE1 2AN","contact":"Email: contact@compas.org.uk","loc_pcd":true,"title":"Compas Charity"},"type":"Feature"},
		{"geometry":{"coordinates":[-0.24871,52.58097],"type":"Point"},"properties":{"_source":"peterborough_council","address":"Address: 51 Cobden Street, Peterborough, PE1 2HA","contact":"Email: m_c_arif@hotmail.co.uk","loc_pcd":true,"title":"Faizan e Madina Mosque"},"type":"Feature"},
		{"geometry":{"coordinates":[-0.21646,52.59698],"type":"Point"},"properties":{"_source":"peterborough_council","address":"Address: The Charteris Centre, PE1 4XE","contact":"Email: sally.grieff@family-action.org.uk","loc_pcd":true,"title":"Family Action"},"type":"Feature"},
		{"geometry":{"coordinates":[-0.28864,52.54321],"type":"Point"},"properties":{"_source":"peterborough_council","address":"Address: The Goldhay Centre, 105 Paynels, PE2 5QP","contact":"Email: office@familyvoice.org","loc_pcd":true,"title":"Family Voice Peterborough"},"type":"Feature"},
		{"geometry":{"coordinates":[-0.24806,52.58325],"type":"Point"},"properties":{"_source":"peterborough_council","address":"Address: UKIM Masjid Khadijah, 311 Cromwell Road, Peterborough, PE1 2HP","contact":"Email: icare.pboro@ukim.org","loc_pcd":true,"title":"iCare Peterborough (closed until further notice),"},"type":"Feature"},
		{"geometry":{"coordinates":[-0.20835,52.59349],"type":"Point"},"properties":{"_source":"peterborough_council","address":"Address: Lime Academy Parnwell, Saltersgate, Parnwell, PE1 4YH","contact":"Email: info@lightprojectpeterborough.org.uk","loc_pcd":true,"title":"KingsGate Community Church"},"type":"Feature"},
		{"geometry":{"coordinates":[-0.27842,52.58881],"type":"Point"},"properties":{"_source":"peterborough_council","address":"Address: The Spinney, Hartwell Way, Peterborough, PE3 7LE","contact":"Email: admin@littlemiraclescharity.org.uk","loc_pcd":true,"title":"Little Miracles Charitable Incorporated Organisation"},"type":"Feature"},
		{"geometry":{"coordinates":[-0.21862,52.54887],"type":"Point"},"properties":{"_source":"peterborough_council","address":"Address: St Michaels Church, Mace Road, Peterborough, PE2 8RQ","contact":"Email: carol@maryschild.org.uk or heidi@maryschild.org.uk","loc_pcd":true,"title":"Mary's Child"},"type":"Feature"},
		{"geometry":{"coordinates":[-0.25017,52.58756],"type":"Point"},"properties":{"_source":"peterborough_council","address":"Address: Open Door Baptist Church Hall, Searjeant Street, Peterborough, PE1 2LY","contact":"Email: millfieldcommunityfridge@gmail.com","loc_pcd":true,"title":"Millfield Community Fridge"},"type":"Feature"},
		{"geometry":{"coordinates":[-0.23868,52.55913],"type":"Point"},"properties":{"_source":"peterborough_council","address":"Address: 139B Fletton Avenue, Peterborough, PE2 8BY","contact":"Email: info@naijacp.co.uk","hours":{"_text":"Tuesdays and Saturdays, 10am to 2pm.","opening":"Tu 10:00-14:00; Sa 10:00-14:00"},"loc_pcd":true,"title":"Nigerian Community in Peterborough (NCP) and Life Money at The Fletton Centre Hub,"},"type":"Feature"},
		{"geometry":{"coordinates":[-0.24280,52.57592],"type":"Point"},"properties":{"_source":"peterborough_council","address":"Address: Park Road, Peterborough, PE1 2TF","contact":"Email: office@parkroad.org.uk","loc_pcd":true,"title":"Park Road Baptist Church"},"type":"Feature"},
		{"geometry":{"coordinates":[-0.24381,52.60832],"type":"Point"},"properties":{"_source":"peterborough_council","address":"Address: Paston Farm Centre, Freston, Peterborough, PE4 7XB","contact":"Email: pastonfarm@gmail.com","loc_pcd":true,"title":"Paston Farm Community Foundation"},"type":"Feature"},
		{"geometry":{"coordinates":[-0.24061,52.58859],"type":"Point"},"properties":{"_source":"peterborough_council","address":"Address: Unit 8, Langford Buildings, Alexandra Road, Peterborough, PE1 3DA","contact":"Email: outreach@parcaltd.org","loc_pcd":true,"title":"Peterborough Asylum and Refugee Community Association (PARCA),"},"type":"Feature"},
		{"geometry":{"coordinates":[-0.24222,52.57609],"type":"Point"},"properties":{"_source":"peterborough_council","address":"Address: 36 - 38 Park Road, Peterborough, PE1 2TG","contact":"Email: paul.adewumi@dominionconnections.org","loc_pcd":true,"title":"RCCG Dominion Christian Connections"},"type":"Feature"},
		{"geometry":{"coordinates":[-0.24414,52.57235],"type":"Point"},"properties":{"_source":"peterborough_council","address":"Address: Cathedral Square, Peterborough, PE1 1XB","contact":"Email: olufemi.olasoko@stmarkspeterborough.org.uk","loc_pcd":true,"title":"St John's Church"},"type":"Feature"},
		{"geometry":{"coordinates":[-0.27207,52.59744],"type":"Point"},"properties":{"_source":"peterborough_council","address":"Address: The Alpha Centre, Adderley, Bretton, Peterborough, PE3 8RA","contact":"Email: info@wellspringchurch.org.uk","loc_pcd":true,"title":"Wellspring Community Church"},"type":"Feature"}
	]
}
