{
	"type": "FeatureCollection",
	"features": [
		{"geometry":{"coordinates":[-0.28770,52.57701],"type":"Point"},"properties":{"_source":"warm_welcome","address":"Copeland , Bretton , Peterborough PE36YJ","description":"Open from 10 November 2022.","hours":{"_text":"Tuesday: 10:00 - 12:00, Thursday: 10:00 - 12:00","opening":"Tu 10:00-12:00; Th 10:00-12:00"},"title":"Bretton Baptist Church"},"type":"Feature"},
		{"geometry":{"coordinates":[-0.13050,52.55661],"type":"Point"},"properties":{"_source":"warm_welcome","address":"31-35 Market Street, Whittlesey, Peterborough PE7 1BA","hours":{"_text":"Monday: 09:00 - 17:00, Tuesday: 09:00 - 13:00, Wednesday: 09:00 - 12:00, Friday: 09:00 - 17:00, Saturday: 09:00 - 13:00","opening":"Mo 09:00-17:00; Tu 09:00-13:00; We 09:00-12:00; Fr 09:00-17:00; Sa 09:00-13:00"},"title":"Cambridgeshire Libraries"},"type":"Feature"},
		{"geometry":{"coordinates":[-0.28331,52.58853],"type":"Point"},"properties":{"_source":"warm_welcome","address":"Rightwell East, Bretton,, Peterborough, Cambridgeshire PE3 8DX","description":"Baby changing, accessible toilets just outside","hours":{"_text":"Thursday: 11:00 - 14:00","opening":"Th 11:00-14:00"},"title":"Church of the Holy Spirit"},"type":"Feature"},
		{"geometry":{"coordinates":[-0.26550,52.53859],"type":"Point"},"properties":{"_source":"warm_welcome","address":"Silver Hill, Hampton, Peterborough PE7 8FF","description":"Hub open: Tues 11-2 & Wed 5-8. Our coffee shop is also open Wed-Sat 9.30-3.30, and has a Pay It Forward system so guests are also welcome at other times of the week, outside main Hub hours, and can sit in the church as a quiet, warm space.","hours":{"_text":"Tuesday: 11:00 - 14:00, Wednesday: 17:00 - 20:00","opening":"Tu 11:00-14:00; We 17:00-20:00"},"title":"CSK Church, Hampton"},"type":"Feature"},
		{"geometry":{"coordinates":[-0.31345,52.67467],"type":"Point"},"properties":{"_source":"warm_welcome","address":"The Park, High Street, Market Deeping, Lincs PE68ED","hours":{"_text":"Monday: 10:00 - 17:00, Tuesday: 10:00 - 17:00, Wednesday: 10:00 - 17:00, Friday: 10:00 - 17:00, Saturday: 10:00 - 15:00","opening":"Mo 10:00-17:00; Tu 10:00-17:00; We 10:00-17:00; Fr 10:00-17:00; Sa 10:00-15:00"},"title":"Deepings Community Library"},"type":"Feature"},
		{"geometry":{"coordinates":[-0.28891,52.54329],"type":"Point"},"properties":{"_source":"warm_welcome","address":"105 Paynells, Orton Goldhay , Peterborough PE2 5QP","description":"Open from 21/11/2022. We are a charity and community centre supporting families and Parent Carers with children ages 0-25 with SEND","hours":{"_text":"Monday: 16:00 - 19:00, Tuesday: 12:45 - 14:45, Wednesday: 09:30 - 11:30 / 16:00 - 19:00, Thursday: 14:00 - 15:30 / - Fortnightly, Saturday: 11:00 - 13:00","opening":"Mo 16:00-19:00; Tu 12:45-14:45; We 09:30-11:30,16:00-19:00; Th 14:00-15:30; Sa 11:00-13:00"},"title":"Family Voice Peterborough"},"type":"Feature"},
		{"geometry":{"coordinates":[-0.25511,52.59134],"type":"Point"},"properties":{"_source":"warm_welcome","address":"1203 Bourges Boulevard, Peterborough, Cambridgeshire PE1 2AU","description":"No pets please","hours":{"_text":"Monday: 09:00 - 15:00 / -, Tuesday: 09:00 - 15:00 / -, Wednesday: 09:00 - 15:00 / -, Thursday: 09:00 - 15:00 / -","opening":"Mo 09:00-15:00; Tu 09:00-15:00; We 09:00-15:00; Th 09:00-15:00"},"title":"Peterborough Salvation Army Citadel and Community Centre"},"type":"Feature"},
		{"geometry":{"coordinates":[-0.24237,52.57270],"type":"Point"},"properties":{"_source":"warm_welcome","address":"Cathedral Square , Peterborough , Cambridgeshire PE1 1XB","hours":{"_text":"Tuesday: 9:30 - 16:30, Friday: 12:00 - 14:00","opening":"Tu 09:30-16:30; Fr 12:00-14:00"},"title":"St John the Baptist Church Peterborough"},"type":"Feature"},
		{"geometry":{"coordinates":[-0.22087,52.55909],"type":"Point"},"properties":{"_source":"warm_welcome","address":"Wessex Close, Stanground, Peterborough, Cambs PE2 8HZ","description":"Open from 15/11/2022. We have toys available for children, tvs and dvd players, cd player, cakes, snacks and hot drinks available, can look at providing hot food too.","hours":{"_text":"Tuesday: 09:00 - 15:00, Wednesday: 09:00 - 15:00, Thursday: 09:00 - 15:00","opening":"Tu 09:00-15:00; We 09:00-15:00; Th 09:00-15:00"},"title":"The Hub Tenter Hill"},"type":"Feature"},
		{"geometry":{"coordinates":[-0.26913,52.61531],"type":"Point"},"properties":{"_source":"warm_welcome","address":"The Way Family Church, The Green, Werrington, Peterborough, Cambs PE4 6RT","hours":{"_text":"Tuesday: 10:00 - 12:30","opening":"Tu 10:00-12:30"},"title":"THE WAY CHURCH"},"type":"Feature"},
		{"geometry":{"coordinates":[-0.27170,52.59757],"type":"Point"},"properties":{"_source":"warm_welcome","address":"The Alpha Centre, Adderley, Bretton,, Peterborough, Cambs PE3 8RA","hours":{"_text":"Monday: 09:30 - 12:00, Tuesday: 09:30 - 12:00, Wednesday: 09:30 - 17:00, Thursday: 09:30 - 12:00","opening":"Mo 09:30-12:00; Tu 09:30-12:00; We 09:30-17:00; Th 09:30-12:00"},"title":"Wellspring Community Church"},"type":"Feature"},
		{"geometry":{"coordinates":[-0.25081,52.51708],"type":"Point"},"properties":{"_source":"warm_welcome","address":"Landsowne Road, Yaxley, Peterborough PE7 3JL","hours":{"_text":"Monday: 15:00 - 19:00, Tuesday: 09:30 - 17:00, Thursday: 09:30 - 17:00, Friday: 09:30 - 13:30, Saturday: 09:30 - 13:30","opening":"Mo 15:00-19:00; Tu 09:30-17:00; Th 09:30-17:00; Fr 09:30-13:30; Sa 09:30-13:30"},"title":"Yaxley Library"},"type":"Feature"}
	]
}
