{
	"type": "FeatureCollection",
	"features": [
		{"geometry":{"coordinates":[-0.24643,52.29255],"type":"Point"},"properties":{"_source":"warm_welcome","address":"Burberry Road, Buckden, Cambridgeshire PE19 5UY","description":"Open from 18/10/22.","hours":{"_text":"Tuesday: 10:00 - 13:00 / 14:00 - 17:00, Thursday: 14:00 - 17:00, Friday: 16:00 - 19:00, Saturday: 10:00 - 13:00","opening":"Tu 10:00-13:00,14:00-17:00; Th 14:00-17:00; Fr 16:00-19:00; Sa 10:00-13:00"},"title":"Buckden Library"},"type":"Feature"},
		{"geometry":{"coordinates":[-0.18397,52.32906],"type":"Point"},"properties":{"_source":"warm_welcome","address":"Princes Street, Huntingdon, Cambridgeshire PE29 3PA","hours":{"_text":"Monday: 09:30 - 17:00, Tuesday: 09:30 - 17:00, Wednesday: 09:30 - 19:00, Thursday: 09:30 - 13:30, Friday: 09:30 - 17:00, Saturday: 10:00 - 16:00","opening":"Mo 09:30-17:00; Tu 09:30-17:00; We 09:30-19:00; Th 09:30-13:30; Fr 09:30-17:00; Sa 10:00-16:00"},"title":"Huntingdon Library"},"type":"Feature"},
		{"geometry":{"coordinates":[-0.22181,52.32102],"type":"Point"},"properties":{"_source":"warm_welcome","address":"17 High Street, Huntingdon, CAMBS PE28 4UX","description":"Open from 04-11-2022. EVERYONE IS WELCOME AND EVERYTHING IS FREE","hours":{"_text":"Friday: 12:00 - 17:30","opening":"Fr 12:00-17:30"},"title":"HUNTINGDON METHODIST CHURCH"},"type":"Feature"},
		{"geometry":{"coordinates":[-0.18659,52.33230],"type":"Point"},"properties":{"_source":"warm_welcome","address":"83A High Street, HUNTINGDON, Huntingdonshire PE29 3DP","description":"Open from 10-11-2022.","hours":{"_text":"Thursday: 14:30 - 17:00","opening":"Th 14:30-17:00"},"title":"HUNTINGDONSHIRE65"},"type":"Feature"},
		{"geometry":{"coordinates":[-0.21904,52.32168],"type":"Point"},"properties":{"_source":"warm_welcome","address":"15 Church Road, Brampton, Cambridgeshire PE28 4PF","description":"Open from 01-12-2022.","hours":{"_text":"Thursday: 14:00 - 17:00","opening":"Th 14:00-17:00"},"title":"Parish of East Leightonstone, Brampton Parish Council"},"type":"Feature"},
		{"geometry":{"coordinates":[-0.10683,52.44936],"type":"Point"},"properties":{"_source":"warm_welcome","address":"25 Great Whyte, Ramsey, Cambridgeshire PE26 1HG","hours":{"_text":"Tuesday: 10:00 - 17:00, Wednesday: 16:00 - 19:00, Thursday: 10:00 - 17:00, Friday: 10:00 - 13:00, Saturday: 10:00 - 13:00","opening":"Tu 10:00-17:00; We 16:00-19:00; Th 10:00-17:00; Fr 10:00-13:00; Sa 10:00-13:00"},"title":"Ramsey Library"},"type":"Feature"},
		{"geometry":{"coordinates":[-0.27890,52.43317],"type":"Point"},"properties":{"_source":"warm_welcome","address":"Green End Road, Sawtry, Cambridgeshire PE28 5UX","hours":{"_text":"Tuesday: 15:00 - 19:00, Wednesday: 10:00 - 13:00 / 14:00 - 17:00, Friday: 15:00 - 17:00, Saturday: 09:30 - 12:30","opening":"Tu 15:00-19:00; We 10:00-13:00,14:00-17:00; Fr 15:00-17:00; Sa 09:30-12:30"},"title":"Sawtry Library"},"type":"Feature"},
		{"geometry":{"coordinates":[-0.06925,52.32216],"type":"Point"},"properties":{"_source":"warm_welcome","address":"4 Library Row, Station Road, St Ives, Cambridgeshire PE27 5BW","description":"The library is open via self service access outside of core library hours. Please see a member of staff for more details.","hours":{"_text":"Monday: 09:30 - 19:00, Tuesday: 09:30 - 17:00, Wednesday: 09:30 - 17:00, Thursday: 09:30 - 13:00, Friday: 09:30 - 17:00, Saturday: 09:30 - 16:00","opening":"Mo 09:30-19:00; Tu 09:30-17:00; We 09:30-17:00; Th 09:30-13:00; Fr 09:30-17:00; Sa 09:30-16:00"},"title":"St Ives Library"},"type":"Feature"},
		{"geometry":{"coordinates":[-0.08180,52.40334],"type":"Point"},"properties":{"_source":"warm_welcome","address":"High Street, Warboys, Cambridgeshire PE28 2TA","description":"We cater for all ages","hours":{"_text":"Monday: 14:00 - 17:00, Tuesday: 10:00 - 13:00, Thursday: 10:00 - 13:00 / 14:00 - 17:00, Saturday: 10:00 - 13:00","opening":"Mo 14:00-17:00; Tu 10:00-13:00; Th 10:00-13:00,14:00-17:00; Sa 10:00-13:00"},"title":"warboys"},"type":"Feature"}
	]
}
