{
	"type": "FeatureCollection",
	"features": [
		{"geometry":{"coordinates":[-0.06101,50.93473],"type":"Point"},"properties":{"_source":"warm_welcome","address":"Station Road, Plumpton Green, East Sussex BN7 3BU","description":"Annex adjacent to church.","hours":{"_text":"Tuesday: 12:30 - 13:30, Thursday: 10:30 - 13:00","opening":"Tu 12:30-13:30; Th 10:30-13:00"},"title":"All Saints Church Plumpton Green"},"type":"Feature"},
		{"geometry":{"coordinates":[-0.01670,50.94882],"type":"Point"},"properties":{"_source":"warm_welcome","address":"The Annex to All Saints Church, Lewes, East Sussux BN8 3BU","description":"large church hall","hours":{"_text":"Thursday: 10:30 - 13:00","opening":"Th 10:30-13:00"},"title":"Annex to All Saints church"},"type":"Feature"},
		{"geometry":{"coordinates":[-0.09510,50.84228],"type":"Point"},"properties":{"_source":"warm_welcome","address":"Leybourne Road, Bevendean, Brighton bn2 4lt","description":"Friendship Circle Lunch Club (1st & 3rd Tuesdays) @11am-2.30pm Open door (Tuesdays & Wednesdays) @11am-2.30pm Parent & Toddlers Thursdays @9am-11.30am Coffee Morning & Table sale 1st Saturday month @ 10am-12noon Sunday Worship 10.15am","hours":{"_text":"Tuesday: 11:00 - 14:30, Wednesday: 11:00 - 14:30, Thursday: 09:00 - 11:30, Saturday: 10:00 - 12:00 Monthly, Sunday: 10:00 - 12:00","opening":"Tu 11:00-14:30; We 11:00-14:30; Th 09:00-11:30; Sa 10:00-12:00; Su 10:00-12:00"},"title":"Brighton Bevendean Salvation Army Church"},"type":"Feature"},
		{"geometry":{"coordinates":[-0.13210,50.95602],"type":"Point"},"properties":{"_source":"warm_welcome","address":"Burgess Hill Library, West Sussex RH15 9NN","description":"We have free WIFI, study areas and places to sit and read. There is no charge to join the library.","hours":{"_text":"Monday: 09:30 - 17:30, Tuesday: 09:30 - 17:30, Wednesday: 09:30 - 17:30, Thursday: 09:30 - 17:30, Friday: 09:30 - 17:30, Saturday: 10:00 - 16:00","opening":"Mo 09:30-17:30; Tu 09:30-17:30; We 09:30-17:30; Th 09:30-17:30; Fr 09:30-17:30; Sa 10:00-16:00"},"title":"Burgess Hill Library"},"type":"Feature"},
		{"geometry":{"coordinates":[-0.11297,50.86338],"type":"Point"},"properties":{"_source":"warm_welcome","address":"East Sussex County Council, East Sussex BN1 9EW","description":"We are open to people of all ages. It is not necessary to be a library member to use our space and facilities. We offer books, newspapers, magazines and board games and puzzles for use in the library. We also have free wifi, public computers and free activities - please ask staff for details. If you want to use one of our pcs or borrow items to take home, you would need to become a library member. If the library is open but unstaffed - Libraries Extra, adults (16 years +) will need a Libraries Extra card to enter. To obtain your free Libraries Extra card visit the library on a staffed day with ID. Children can visit on Libraries Extra days if accompanied by an adult with a Libraries Extra card. https://www.brighton-hove.gov.uk/libraries-leisure-and-arts/libraries/directories/our-libraries-and-their-opening-times","hours":{"_text":"Wednesday: 09:00 - 17:00, Friday: 09:00 - 17:00","opening":"We 09:00-17:00; Fr 09:00-17:00"},"title":"Coldean Library"},"type":"Feature"},
		{"geometry":{"coordinates":[-0.19539,50.84502],"type":"Point"},"properties":{"_source":"warm_welcome","address":"Hangleton Library, East Sussex BN3 8LD","description":"We are open to people of all ages. It is not necessary to be a library member to use our space and facilities. We offer books, newspapers, magazines and board games and puzzles for use in the library. We also have free wifi, public computers and free activities - please ask staff for details. If you want to use one of our pcs or borrow items to take home, you would need to become a library member. If the library is open but unstaffed - Libraries Extra, adults (16 years +) will need a Libraries Extra card to enter. Please see Our libraries and their opening times (brighton-hove.gov.uk) for information on Libraries Extra days. To obtain your free Libraries Extra card visit the library on a staffed day with ID. Children can visit on Libraries Extra days if accompanied by an adult with a Libraries Extra card.","hours":{"_text":"Monday: 09:00 - 17:00, Tuesday: 09:00 - 19:00, Wednesday: 09:00 - 19:00, Thursday: 09:00 - 17:00, Friday: 09:00 - 17:00, Saturday: 09:30 - 17:00, Sunday: 11:00 - 17:00","opening":"Mo 09:00-17:00; Tu 09:00-19:00; We 09:00-19:00; Th 09:00-17:00; Fr 09:00-17:00; Sa 09:30-17:00; Su 11:00-17:00"},"title":"Hangleton Library"},"type":"Feature"},
		{"geometry":{"coordinates":[-0.13322,50.92309],"type":"Point"},"properties":{"_source":"warm_welcome","address":"West Sussex County Council, West Sussex BN6 8FJ","description":"Public library","hours":{"_text":"Monday: 09:00 - 13:00, Tuesday: 09:00 - 13:00, Wednesday: 09:00 - 13:00, Thursday: 13:00 - 17:00, Friday: 13:00 - 17:00, Saturday: 09:00 - 13:00","opening":"Mo 09:00-13:00; Tu 09:00-13:00; We 09:00-13:00; Th 13:00-17:00; Fr 13:00-17:00; Sa 09:00-13:00"},"title":"Hassocks Library"},"type":"Feature"},
		{"geometry":{"coordinates":[-0.27253,50.93165],"type":"Point"},"properties":{"_source":"warm_welcome","address":"West Sussex County Council, West Sussex BN5 9HN","hours":{"_text":"Monday: 10:00 - 17:00, Tuesday: 10:00 - 17:00, Wednesday: 10:00 - 17:00, Thursday: 10:00 - 17:00, Friday: 10:00 - 17:00, Saturday: 10:00 - 14:00","opening":"Mo 10:00-17:00; Tu 10:00-17:00; We 10:00-17:00; Th 10:00-17:00; Fr 10:00-17:00; Sa 10:00-14:00"},"title":"Henfield Library"},"type":"Feature"},
		{"geometry":{"coordinates":[-0.16392,50.82733],"type":"Point"},"properties":{"_source":"warm_welcome","address":"182 - 186 Church Road, East Sussex BN3 2GE","description":"We are open to people of all ages. It is not necessary to be a library member to use our space and facilities. We offer books, newspapers, magazines and board games and puzzles for use in the library. We also have free wifi, public computers and free activities - please ask staff for details. If you want to use one of our pcs or borrow items to take home, you would need to become a library member.","hours":{"_text":"Monday: 10:00 - 17:00, Tuesday: 10:00 - 17:00, Wednesday: 10:00 - 19:00, Thursday: 10:00 - 17:00, Friday: 10:00 - 17:00, Saturday: 10:00 - 17:00","opening":"Mo 10:00-17:00; Tu 10:00-17:00; We 10:00-19:00; Th 10:00-17:00; Fr 10:00-17:00; Sa 10:00-17:00"},"title":"Hove Library"},"type":"Feature"},
		{"geometry":{"coordinates":[-0.17450,50.93391],"type":"Point"},"properties":{"_source":"warm_welcome","address":"West Sussex County Council, West Sussex BN6 9UY","description":"Public Library","hours":{"_text":"Monday: 09:00 - 13:00, Tuesday: 09:00 - 13:00, Wednesday: 09:00 - 13:00, Thursday: 13:00 - 17:00, Friday: 13:00 - 17:00, Saturday: 09:00 - 13:00","opening":"Mo 09:00-13:00; Tu 09:00-13:00; We 09:00-13:00; Th 13:00-17:00; Fr 13:00-17:00; Sa 09:00-13:00"},"title":"Hurstpierpoint Library"},"type":"Feature"},
		{"geometry":{"coordinates":[-0.13881,50.82498],"type":"Point"},"properties":{"_source":"warm_welcome","address":"The Jubilee Library, Brighton, East Sussex BN1 1GE","description":"We are open to people of all ages. It is not necessary to be a library member to use our space and facilities. We offer books, newspapers, magazines and board games and puzzles for use in the library. We also have free wifi, public computers and a range of free activities - please ask staff for details. If you want to use one of our pcs or borrow items to take home, you would need to become a library member. There is a cafe onsite, but unfortunately the library is unable to provide free food or hot drinks.","hours":{"_text":"Monday: 10:00 - 19:00, Tuesday: 10:00 - 19:00, Wednesday: 10:00 - 17:00, Thursday: 10:00 - 19:00, Friday: 10:00 - 17:00, Saturday: 10:00 - 17:00, Sunday: 11:00 - 17:00","opening":"Mo 10:00-19:00; Tu 10:00-19:00; We 10:00-17:00; Th 10:00-19:00; Fr 10:00-17:00; Sa 10:00-17:00; Su 11:00-17:00"},"title":"Jubilee Library"},"type":"Feature"},
		{"geometry":{"coordinates":[-0.00350,50.79281],"type":"Point"},"properties":{"_source":"warm_welcome","address":"Kempton House, East Sussex BN10 7NJ","description":"Community hall in Peacehaven full disabled assess all welcome","hours":{"_text":"Monday: 09:00 - 02:00, Tuesday: 09:00 - 03:00, Wednesday: 09:00 - 02:00, Friday: 09:00 - 05:00, Saturday: 09:00 - 12:00","opening":"Mo 09:00-02:00; Tu 09:00-03:00; We 09:00-02:00; Fr 09:00-05:00; Sa 09:00-12:00"},"title":"Kempton house"},"type":"Feature"},
		{"geometry":{"coordinates":[-0.32391,50.82850],"type":"Point"},"properties":{"_source":"warm_welcome","address":"West Sussex County Council, Lancing, West Sussex BN15 9DL","description":"Public Library","hours":{"_text":"Monday: 10:00 - 18:00, Tuesday: 10:00 - 18:00, Wednesday: 10:00 - 18:00, Thursday: 10:00 - 18:00, Friday: 10:00 - 18:00, Saturday: 10:00 - 16:00","opening":"Mo 10:00-18:00; Tu 10:00-18:00; We 10:00-18:00; Th 10:00-18:00; Fr 10:00-18:00; Sa 10:00-16:00"},"title":"Lancing Library"},"type":"Feature"},
		{"geometry":{"coordinates":[-0.32396,50.82505],"type":"Point"},"properties":{"_source":"warm_welcome","address":"96 Chester Avenue, Lancing, West Sussex BN15 8PF","description":"Spacious upper hall with electric sockets available for Charging mobile phones. Basic hot drinks and toast are available.","hours":{"_text":"Friday: 10:00 - 12:30","opening":"Fr 10:00-12:30"},"title":"Lancing Methodist Church"},"type":"Feature"},
		{"geometry":{"coordinates":[-0.11070,50.84947],"type":"Point"},"properties":{"_source":"warm_welcome","address":"Brighton & Hove City Council, East Sussex BN2 4PA","description":"We are open to people of all ages. It is not necessary to be a library member to use our space and facilities. We offer books, newspapers, magazines and board games and puzzles for use in the library. We also have free wifi, public computers and free activities - please ask staff for details. If you want to use one of our pcs or borrow items to take home, you would need to become a library member. If the library is open but unstaffed - Libraries Extra, adults (16 years +) will need a Libraries Extra card to enter. Please see Our libraries and their opening times (brighton-hove.gov.uk) for information on Libraries Extra days. To obtain your free Libraries Extra card visit the library on a staffed day with ID. Children can visit on Libraries Extra days if accompanied by an adult with a Libraries Extra card.","hours":{"_text":"Monday: 09:00 - 13:00 / 14:00 - 17:00, Tuesday: 09:00 - 19:00, Wednesday: 09:00 - 13:00 / 14:00 - 17:00, Thursday: 09:00 - 19:00, Friday: 09:00 - 17:00, Saturday: 09:30 - 17:00, Sunday: 11:00 - 17:00","opening":"Mo 09:00-13:00,14:00-17:00; Tu 09:00-19:00; We 09:00-13:00,14:00-17:00; Th 09:00-19:00; Fr 09:00-17:00; Sa 09:30-17:00; Su 11:00-17:00"},"title":"Moulsecoomb Library"},"type":"Feature"},
		{"geometry":{"coordinates":[-0.12636,50.86444],"type":"Point"},"properties":{"_source":"warm_welcome","address":"Old Boat Corner Community Association Ltd, East Sussex BN1 8GN","description":"Old Boat Corner is a home away from home, a place where you can relax, play and make mess, seek help, eat and drink, and enjoy the variety of activities and facilities readily available to all ages and abilities. Our event spaces host a range of private and community-run classes and groups, from mother and baby, soft play and arts and craft, to coffee mornings for the older generation, charitable fundraisers and a variety of sports groups. There is something for everyone. Most importantly the centre is a warm and welcoming place, where you can get information, knowledge, and help within a caring community space.","hours":{"_text":"Monday: 09:00 - 17:00, Tuesday: 09:00 - 17:00, Wednesday: 09:00 - 17:00, Thursday: 09:00 - 17:00, Friday: 09:00 - 17:00, Saturday: 09:00 - 17:00, Sunday: 09:00 - 17:00","opening":"Mo 09:00-17:00; Tu 09:00-17:00; We 09:00-17:00; Th 09:00-17:00; Fr 09:00-17:00; Sa 09:00-17:00; Su 09:00-17:00"},"title":"Old Boat Corner Community Association"},"type":"Feature"},
		{"geometry":{"coordinates":[-0.14472,50.86401],"type":"Point"},"properties":{"_source":"warm_welcome","address":"Brighton & Hove City Council, East Sussex BN1 8TA","description":"We are open to people of all ages. It is not necessary to be a library member to use our space and facilities. We offer books, newspapers, magazines and board games and puzzles for use in the library. We also have free wifi, public computers and free activities - please ask staff for details. If you want to use one of our pcs or borrow items to take home, you would need to become a library member. If the library is open but unstaffed - Libraries Extra, adults (16 years +) will need a Libraries Extra card to enter. Please see our website for information on Libraries Extra days. To obtain your free Libraries Extra card visit the library on a staffed day with ID. Children can visit on Libraries Extra days if accompanied by an adult with a Libraries Extra card.","hours":{"_text":"Monday: 09:00 - 19:00, Tuesday: 09:00 - 17:00, Wednesday: 09:00 - 19:00, Thursday: 09:00 - 17:00, Friday: 09:00 - 17:00, Saturday: 09:30 - 17:00, Sunday: 11:00 - 17:00","opening":"Mo 09:00-19:00; Tu 09:00-17:00; We 09:00-19:00; Th 09:00-17:00; Fr 09:00-17:00; Sa 09:30-17:00; Su 11:00-17:00"},"title":"Patcham Library"},"type":"Feature"},
		{"geometry":{"coordinates":[-0.20136,50.83812],"type":"Point"},"properties":{"_source":"warm_welcome","address":"223 Old Shoreham Road, Portslade, Brighton","description":"We are open to people of all ages. It is not necessary to be a library member to use our space and facilities. We offer books, newspapers, magazines and board games and puzzles for use in the library. We also have free wifi, public computers and free activities - please ask staff for details. If you want to use one of our pcs or borrow items to take home, you would need to become a library member. If the library is open but unstaffed - Libraries Extra, adults (16 years +) will need a Libraries Extra card to enter. Please see Our libraries and their opening times (brighton-hove.gov.uk) for information on Libraries Extra days. To obtain your free Libraries Extra card visit the library on a staffed day with ID. Children can visit on Libraries Extra days if accompanied by an adult with a Libraries Extra card.","hours":{"_text":"Monday: 09:00 - 19:00, Tuesday: 09:00 - 17:00, Wednesday: 09:00 - 17:00, Thursday: 09:00 - 19:00, Friday: 09:00 - 17:00, Saturday: 09:30 - 17:00, Sunday: 11:00 - 05:00","opening":"Mo 09:00-19:00; Tu 09:00-17:00; We 09:00-17:00; Th 09:00-19:00; Fr 09:00-17:00; Sa 09:30-17:00; Su 11:00-05:00"},"title":"Portslade Library"},"type":"Feature"},
		{"geometry":{"coordinates":[-0.05867,50.80629],"type":"Point"},"properties":{"_source":"warm_welcome","address":"Rottingdean Library The Grange, East Sussex BN2 7HA","description":"We are open to people of all ages. It is not necessary to be a library member to use our space and facilities. We offer books, newspapers, magazines and board games and puzzles for use in the library. We also have free wifi, public computers and free activities - please ask staff for details. If you want to use one of our pcs or borrow items to take home, you would need to become a library member. If the library is open but unstaffed - Libraries Extra, adults (16 years +) will need a Libraries Extra card to enter. To obtain your free Libraries Extra card visit the library on a staffed day with ID. Children can visit on Libraries Extra days if accompanied by an adult with a Libraries Extra card. We are staffed Mondays and Wednesdays 9am-5pm. On staffed days we are Libraries Extra between 1pm-2pm.","hours":{"_text":"Monday: 09:00 - 17:00, Tuesday: 09:00 - 19:00, Wednesday: 09:00 - 17:00, Thursday: 09:00 - 19:00, Friday: 09:00 - 19:00, Saturday: 09:30 - 17:00, Sunday: 11:00 - 17:00","opening":"Mo 09:00-17:00; Tu 09:00-19:00; We 09:00-17:00; Th 09:00-19:00; Fr 09:00-19:00; Sa 09:30-17:00; Su 11:00-17:00"},"title":"Rottingdean Library"},"type":"Feature"},
		{"geometry":{"coordinates":[-0.27333,50.83325],"type":"Point"},"properties":{"_source":"warm_welcome","address":"West Sussex County Council, Shoreham-by-Sea, West Sussex BN43 5ZA","description":"Public Library","hours":{"_text":"Monday: 10:00 - 18:00, Tuesday: 10:00 - 18:00, Wednesday: 10:00 - 18:00, Thursday: 10:00 - 18:00, Friday: 10:00 - 18:00, Saturday: 10:00 - 16:00","opening":"Mo 10:00-18:00; Tu 10:00-18:00; We 10:00-18:00; Th 10:00-18:00; Fr 10:00-18:00; Sa 10:00-16:00"},"title":"Shoreham Library"},"type":"Feature"},
		{"geometry":{"coordinates":[-0.23605,50.83571],"type":"Point"},"properties":{"_source":"warm_welcome","address":"Southwick Library, Southwick, West Sussex BN42 4FT","description":"Public Library","hours":{"_text":"Monday: 10:00 - 17:00, Tuesday: 10:00 - 17:00, Wednesday: 10:00 - 17:00, Thursday: 10:00 - 17:00, Friday: 10:00 - 17:00, Saturday: 10:00 - 14:00","opening":"Mo 10:00-17:00; Tu 10:00-17:00; We 10:00-17:00; Th 10:00-17:00; Fr 10:00-17:00; Sa 10:00-14:00"},"title":"Southwick Library"},"type":"Feature"},
		{"geometry":{"coordinates":[-0.15000,50.84481],"type":"Point"},"properties":{"_source":"warm_welcome","address":"St. John The Evangelist, Brighton, East Sussex BN1 6RB","description":"Preston Coffee Pot is open from 10:45am on Wednesdays, following a weekday service of Holy Communion. On Sundays, there is a service of Holy Communion at 10am, followed by refreshments.","hours":{"_text":"Wednesday: 09:30 - 11:30, Sunday: 09:00 - 12:00","opening":"We 09:30-11:30; Su 09:00-12:00"},"title":"St John the Evangelist"},"type":"Feature"},
		{"geometry":{"coordinates":[-0.13001,50.82025],"type":"Point"},"properties":{"_source":"warm_welcome","address":"61 St James's Street, Brighton, East Sussex BN2 1PR","description":"A friendly warm and welcoming parish church. Tea and coffee available","hours":{"_text":"Monday: 09:30 - 13:00, Tuesday: 18:30 - 19:00, Wednesday: 09:30 - 17:00, Friday: 09:30 - 13:00, Sunday: 09:30 - 13:00","opening":"Mo 09:30-13:00; Tu 18:30-19:00; We 09:30-17:00; Fr 09:30-13:00; Su 09:30-13:00"},"title":"St Mary’s Church Kemp Town"},"type":"Feature"},
		{"geometry":{"coordinates":[-0.32366,50.82384],"type":"Point"},"properties":{"_source":"warm_welcome","address":"St Michael and All Angels Church BN15 8AJ","description":"The space is open to all every Tuesday 12-2pm serving hot soup. Also welcome 10-12 to join our craft club, bring along something to do","hours":{"_text":"Tuesday: 10:00 - 14:00","opening":"Tu 10:00-14:00"},"title":"St Michael and All Angels Church Hall"},"type":"Feature"},
		{"geometry":{"coordinates":[-0.13578,50.82865],"type":"Point"},"properties":{"_source":"warm_welcome","address":"St Peter's Church, Brighton, Brighton BN1 4GU","description":"We welcome anyone who is looking for a safe place. Our focus is to offer to those who are most in need of a warm space, friendly conversation and a meal. Safehaven drop-in session times are Wednesday 1-3pm - Men only drop-in Thursday 1.30-3pm - Women only drop-in Saturday 5-6.30pm - All welcome. Sunday services - 10.30am and 6.30pm","hours":{"_text":"Wednesday: 13:00 - 15:00, Thursday: 13:30 - 15:00, Saturday: 17:00 - 18:15, Sunday: 10:30 - 12:00","opening":"We 13:00-15:00; Th 13:30-15:00; Sa 17:00-18:15; Su 10:30-12:00"},"title":"St Peter's Church"},"type":"Feature"},
		{"geometry":{"coordinates":[-0.32732,50.88881],"type":"Point"},"properties":{"_source":"warm_welcome","address":"West Sussex County Council, West Sussex BN44 3YB","hours":{"_text":"Monday: 10:00 - 17:00, Tuesday: 10:00 - 17:00, Wednesday: 10:00 - 17:00, Thursday: 10:00 - 17:00, Friday: 10:00 - 17:00, Saturday: 10:00 - 14:00","opening":"Mo 10:00-17:00; Tu 10:00-17:00; We 10:00-17:00; Th 10:00-17:00; Fr 10:00-17:00; Sa 10:00-14:00"},"title":"Steyning Library"},"type":"Feature"},
		{"geometry":{"coordinates":[-0.17703,50.83526],"type":"Point"},"properties":{"_source":"warm_welcome","address":"The Salvation Army, 159 Sackville Road/Conway Place, Hove BN3 3HD","description":"A warm space offering refreshments (and a meal on Wednesdays), with board games, crafts, puzzles, chat and friendship. There is always a friendly face to meet and greet you.","hours":{"_text":"Tuesday: 10:00 - 12:30, Wednesday: 11:00 - 02:00, Friday: 10:00 - 12:30, Sunday: 09:30 - 12:00","opening":"Tu 10:00-12:30; We 11:00-02:00; Fr 10:00-12:30; Su 09:30-12:00"},"title":"The Salvation Army Hove"},"type":"Feature"},
		{"geometry":{"coordinates":[-0.27066,50.83394],"type":"Point"},"properties":{"_source":"warm_welcome","address":"Co-op Community Space, unit 2, Shoreham-by-Sea, West Sussex BN43 6PA","description":"We welcome any members of the local community to join us for a hot drink, chat, or just for a rest. Drinks and snacks are free. We have board games, cards, puzzles and crafts available.","hours":{"_text":"Monday: 13:00 - 16:00, Tuesday: 13:00 - 16:00, Wednesday: 13:00 - 16:00, Thursday: 13:00 - 16:00, Friday: 13:00 - 16:00, Saturday: 11:00 - 02:00","opening":"Mo 13:00-16:00; Tu 13:00-16:00; We 13:00-16:00; Th 13:00-16:00; Fr 13:00-16:00; Sa 11:00-02:00"},"title":"Warm Welcome at the Co-op Community Space"},"type":"Feature"},
		{"geometry":{"coordinates":[-0.20899,50.83273],"type":"Point"},"properties":{"_source":"warm_welcome","address":"Portslade United Reformed Church, Portslade, East Sussex BN41 1AB","description":"Open 10.30am to 12.30pm each week Friendship, knitting, puzzles, chat and time to be yourself","hours":{"_text":"Tuesday: 14:30 - 16:00 Fortnightly, Wednesday: 10:30 - 12:30, Sunday: 10:15 - 11:30","opening":"Tu 14:30-16:00; We 10:30-12:30; Su 10:15-11:30"},"title":"Wednesday Welcome"},"type":"Feature"},
		{"geometry":{"coordinates":[-0.16176,50.86004],"type":"Point"},"properties":{"_source":"warm_welcome","address":"Brighton & Hove City Council, East Sussex BN1 5GN","description":"We are open to people of all ages. It is not necessary to be a library member to use our space and facilities. We offer books, newspapers, magazines and board games and puzzles for use in the library. We also have free wifi, public computers and free activities - please ask staff for details. If you want to use one of our pcs or borrow items to take home, you would need to become a library member. If the library is open but unstaffed - Libraries Extra, adults (16 years +) will need a Libraries Extra card to enter. To obtain your free Libraries Extra card visit the library on a staffed day with ID. Children can visit on Libraries Extra days if accompanied by an adult with a Libraries Extra card. https://www.brighton-hove.gov.uk/libraries-leisure-and-arts/libraries/directories/our-libraries-and-their-opening-times","hours":{"_text":"Tuesday: 09:00 - 17:00","opening":"Tu 09:00-17:00"},"title":"Westdene Library"},"type":"Feature"},
		{"geometry":{"coordinates":[-0.10739,50.82545],"type":"Point"},"properties":{"_source":"warm_welcome","address":"Whitehawk Community Hub, East Sussex BN2 5FL","description":"We are open to people of all ages. It is not necessary to be a library member to use our space and facilities. We offer books, newspapers, magazines and board games and puzzles for use in the library. We also have free wifi, public computers and free activities - please ask staff for details. If you want to use one of our pcs or borrow items to take home, you would need to become a library member. If the library is open but unstaffed - Libraries Extra, adults (16 years +) will need a Libraries Extra card to enter. Please see Our libraries and their opening times (brighton-hove.gov.uk) for information on Libraries Extra days. To obtain your free Libraries Extra card visit the library on a staffed day with ID. Children can visit on Libraries Extra days if accompanied by an adult with a Libraries Extra card.","hours":{"_text":"Monday: 09:00 - 18:00, Tuesday: 09:00 - 13:00 / 14:00 - 17:00, Wednesday: 09:00 - 18:00, Thursday: 09:00 - 13:00 / 14:00 - 17:00, Friday: 09:00 - 17:00, Saturday: 09:30 - 13:00 / 14:00 - 16:00","opening":"Mo 09:00-18:00; Tu 09:00-13:00,14:00-17:00; We 09:00-18:00; Th 09:00-13:00,14:00-17:00; Fr 09:00-17:00; Sa 09:30-13:00,14:00-16:00"},"title":"Whitehawk Library"},"type":"Feature"},
		{"geometry":{"coordinates":[-0.07965,50.83593],"type":"Point"},"properties":{"_source":"warm_welcome","address":"Woodingdean Library, East Sussex BN2 6BA","description":"We are open to people of all ages. It is not necessary to be a library member to use our space and facilities. We offer books, newspapers, magazines and board games and puzzles for use in the library. We also have free wifi, public computers and free activities - please ask staff for details. If you want to use one of our pcs or borrow items to take home, you would need to become a library member. If the library is open but unstaffed - Libraries Extra, adults (16 years +) will need a Libraries Extra card to enter. To obtain your free Libraries Extra card visit the library on a staffed day with ID. Children can visit on Libraries Extra days if accompanied by an adult with a Libraries Extra card. We are staffed Mondays and Thursdays 9am-5pm. On staffed days we are Libraries Extra between 1pm-2pm.","hours":{"_text":"Monday: 09:00 - 17:00, Tuesday: 09:00 - 19:00, Wednesday: 09:00 - 19:00, Thursday: 09:00 - 17:00, Friday: 09:00 - 17:00, Saturday: 09:30 - 17:00, Sunday: 11:00 - 17:00","opening":"Mo 09:00-17:00; Tu 09:00-19:00; We 09:00-19:00; Th 09:00-17:00; Fr 09:00-17:00; Sa 09:30-17:00; Su 11:00-17:00"},"title":"Woodingdean Library"},"type":"Feature"},
		{"geometry":{"coordinates":[-0.32068,50.83862],"type":"Point"},"properties":{"_source":"warm_spaces","address":"Mill Road, Lancing, England, BN15 0PT, United Kingdom","description":"People to chat to, Space to work, Food/Drink for sale, Wheelchair Accessible, Toilets, Accessible Toilet, Child Friendly","hours":{"_text":"Every 2nd Thursday of the month 10am-12.30pm and every 4th Thursday 10am-4pm","opening":"Th[2] 10:00-12:30; Th[4] 10:00-16:00"},"title":"St James the Less Church Hall","url":"https://www.chalkspringchurches.org"},"type":"Feature"},
		{"geometry":{"coordinates":[-0.33897,50.82687],"type":"Point"},"properties":{"_source":"warm_spaces","address":"St. Peter the Apostle, Sompting, England, United Kingdom","description":"People to chat to, Space to work, Food/Drink for sale, Wheelchair Accessible, Toilets, Accessible Toilet, Parking, Child Friendly","hours":{"_text":"11 Jan, 1 Feb, 1 Mar and 5 April 1.30am-4.30pm"},"title":"St Peter's Church","url":"https://www.chalkspringchurches.org"},"type":"Feature"},
		{"geometry":{"coordinates":[-0.32333,50.82414],"type":"Point"},"properties":{"_source":"warm_spaces","address":"84 South St, England, BN15 8AJ, United Kingdom","description":"People to chat to, Food/Drink for sale, Wheelchair Accessible, Toilets, Accessible Toilet, Child Friendly","hours":{"_text":"Every Tuesday 10am-12.30pm,","opening":"Tu 10:00-12:30"},"title":"St Michael and All Angels Church Hall","url":"https://www.chalkspringchurches.org"},"type":"Feature"},
		{"geometry":{"coordinates":[-0.27626,50.93114],"type":"Point"},"properties":{"_source":"warm_spaces","address":"2 Red Oak Cottages, England, BN5 9PF, United Kingdom","description":"Free Food/Drink, People to chat to, Wheelchair Accessible, Toilets, Accessible Toilet, Parking, books and games to browse and play","hours":{"_text":"11am-4pm, Sundays 8th, 15th, 22nd and 29th January","opening":"Su 11:00-16:00"},"title":"Corpus Christi Parish Hall"},"type":"Feature"},
		{"geometry":{"coordinates":[-0.23411,50.83506],"type":"Point"},"properties":{"_source":"warm_spaces","address":"24 Southwick Street, Brighton, England, BN42 4TE, United Kingdom","description":"Free Food/Drink, Free Wi-Fi, People to chat to, Wheelchair Accessible, Toilets, Accessible Toilet, Parking","hours":{"_text":"Tuesday 2pm-4pm","opening":"Tu 14:00-16:00"},"title":"Southwick Community Centre","url":"https://www.southwickcommunitycentre.org.uk"},"type":"Feature"},
		{"geometry":{"coordinates":[-0.14340,50.82500],"type":"Point"},"properties":{"_source":"warm_spaces","address":"Church Street, Brighton, England, BN1 3LJ, United Kingdom","description":"Free Food/Drink, People to chat to, Wheelchair Accessible, Toilets, Child Friendly","hours":{"_text":"Tuesdays 10am-12noon, Wednesdays 4pm-5pm, Friday 9.30am-11.30am and 12.30pm-4pm, Saturday 12.30pm-4pm","opening":"Tu 10:00-12:00; We 16:00-17:00; Fr 09:30-11:30,12:30-16:00; Sa 12:30-16:00"},"title":"St. Nicholas of Myra Church","url":"https://www.stnicholasbrighton.org.uk"},"type":"Feature"},
		{"geometry":{"coordinates":[-0.13903,50.92255],"type":"Point"},"properties":{"_source":"warm_spaces","address":"Pauline Thaw Day Centre, Dale Avenue, Hassocks, England, BN6 8LW, United Kingdom","description":"Free Wi-Fi, Device Charging, People to chat to, Space to work, Food/Drink for sale, Wheelchair Accessible, Toilets, Accessible Toilet","hours":{"_text":"Weekdays 9am-4pm, Weekdays; Saturdays 9am-12pm","opening":"Mo-Fr 09:00-16:00; Sa 09:00-12:00"},"title":"Age Concern Hassocks &amp; District","url":"https://www.achassocks.co.uk"},"type":"Feature"},
		{"geometry":{"coordinates":[-0.30455,50.88269],"type":"Point"},"properties":{"_source":"warm_spaces","address":"The HUB, Upper Beeding, 19 Church Lane, Steyning, England, BN44 3HP, United Kingdom","description":"Free Wi-Fi, Device Charging, Advice, People to chat to, Pay It Forward Scheme, Space to work, Food/Drink for sale, Wheelchair Accessible, Toilets, Accesible Toilet, Parking, Child Friendly","hours":{"_text":"Mondays, Wednesdays, Fridays, 9-12noon, Tuesdays and Thursdays 9am-5pm","opening":"Mo 09:00-12:00; We 09:00-12:00; Fr 09:00-12:00; Tu 09:00-17:00; Th 09:00-17:00"},"title":"The Hub Beeding","url":"https://www.thehubbeeding.org/warmhub"},"type":"Feature"},
		{"geometry":{"coordinates":[-0.16704,50.83966],"type":"Point"},"properties":{"_source":"warm_spaces","address":"Hove Recreation Ground, Shirley Drive, , Hove, England, BN3 6NQ, United Kingdom","description":"Free Food/Drink, Free Wi-Fi, Device Charging, People to chat to, Space to work, Food/Drink for sale, Offering clubhouse as a warm space","hours":{"_text":"9am-1pm"},"title":"Hove Rugby Club","url":"https://www.hoverugby.club"},"type":"Feature"},
		{"geometry":{"coordinates":[-0.12971,50.82029],"type":"Point"},"properties":{"_source":"warm_spaces","address":"61 Saint James&#39;s Street, Brighton, England, BN2 1PR, United Kingdom","description":"Free Food/Drink, Free Wi-Fi, Device Charging, Advice, People to chat to, Space to work","hours":{"_text":"Monday, Wednesday and Friday 9am-1pm","opening":"Mo 09:00-13:00; We 09:00-13:00; Fr 09:00-13:00"},"title":"St Mary’s Kemp Town","url":"www.stmaryschurchbrighton.org.uk"},"type":"Feature"},
		{"geometry":{"coordinates":[-0.34520,50.83157],"type":"Point"},"properties":{"_source":"adur_and_worthing_council","description":"Open every Friday from 12-2 for free hot drinks and soup. Games and company","hours":{"_text":"Open every Friday from 12-2 for free hot drinks and soup. Games and company","opening":"Fr 12:00-02:00"},"title":"Avon Court, Sompting"},"type":"Feature"},
		{"geometry":{"coordinates":[-0.22376,50.83263],"type":"Point"},"properties":{"_source":"adur_and_worthing_council","description":"Open Monday, Wednesday and Friday 10.00 -12.00 and Friday 15.00-16:30","hours":{"_text":"Open Monday, Wednesday and Friday 10.00 -12.00 and Friday 15.00-16:30","opening":"Mo 10:00-12:00; We 10:00-12:00; Fr 10:00-12:00; Fr 15:00-16:30"},"title":"Eastbrook Manor Community Centre, Fishersgate"},"type":"Feature"},
		{"geometry":{"coordinates":[-0.26975,50.83381],"type":"Point"},"properties":{"_source":"adur_and_worthing_council","description":"Free food and drink will be available throughout winter for those aged 14-26yrs old during office opening hours (Mon-Fri 10am to 6pm)","hours":{"_text":"Free food and drink will be available throughout winter for those aged 14-26yrs old during office opening hours (Mon-Fri 10am to 6pm)"},"title":"Esteem, Shoreham-by-Sea"},"type":"Feature"},
		{"geometry":{"coordinates":[-0.34583,50.83378],"type":"Point"},"properties":{"_source":"adur_and_worthing_council","description":"Monday 4pm till 5:30pm ( (no sessions 11th, 18th, 25th December and 1st and 8th January) 11 to 16 years free hot and cold drinks, soup, porridge and toast. Activities and advice available","hours":{"_text":"Monday 4pm till 5:30pm ( (no sessions 11th, 18th, 25th December and 1st and 8th January) 11 to 16 years free hot and cold drinks, soup, porridge and toast. Activities and advice available","opening":"Mo 16:00-17:30"},"title":"Harriet Johnson Centre, Sompting"},"type":"Feature"},
		{"geometry":{"coordinates":[-0.23821,50.83692],"type":"Point"},"properties":{"_source":"adur_and_worthing_council","description":"Open every Thiursday from 10.30-12.30 for free hot drinks, games and company.","hours":{"_text":"Open every Thiursday from 10.30-12.30 for free hot drinks, games and company."},"title":"Kingsfield Close, Southwick"},"type":"Feature"},
		{"geometry":{"coordinates":[-0.32377,50.82374],"type":"Point"},"properties":{"_source":"adur_and_worthing_council","description":"Our Community Hub at the Parish Hall be will open every Tuesday, Wednesday and Thursday morning 10am –12pm where we will be serving light refreshments including tea, coffee, cakes, biscuits. There will be no charge for entry or refreshments, and we have a team of volunteers hosting the sessions. Every Tuesday afternoon you are welcome to join in on our free gentle fitness class 12.30pm – 1.30pm run by Lets Dance Sussex. We will also be hosting a week of Christmas activities including a family friendly film over the Christmas holiday plus much more from January, so do keep an eye on our Facebook page for more details. Everyone is welcome!","hours":{"_text":"Our Community Hub at the Parish Hall be will open every Tuesday, Wednesday and Thursday morning 10am –12pm where we will be serving light refreshments including tea, coffee, cakes, biscuits. There will be no charge for entry or refreshments, and we have a team of volunteers hosting the sessions. Every Tuesday afternoon you are welcome to join in on our free gentle fitness class 12.30pm – 1.30pm run by Lets Dance Sussex. We will also be hosting a week of Christmas activities including a family friendly film over the Christmas holiday plus much more from January, so do keep an eye on our Facebook page for more details. Everyone is welcome!","opening":"Tu 10:00-12:00; We 10:00-12:00; Th 10:00-12:00"},"title":"Lancing Parish Hall"},"type":"Feature"},
		{"geometry":{"coordinates":[-0.23411,50.83506],"type":"Point"},"properties":{"_source":"adur_and_worthing_council","description":"Tea & Co. Tuesdays 2-4pm. Free tea and coffee. Chat, games, activities or just a space to sit and read.","hours":{"_text":"Tea & Co. Tuesdays 2-4pm. Free tea and coffee. Chat, games, activities or just a space to sit and read.","opening":"Tu 14:00-16:00"},"title":"Southwick Community Centre"},"type":"Feature"},
		{"geometry":{"coordinates":[-0.32333,50.82414],"type":"Point"},"properties":{"_source":"adur_and_worthing_council","description":"Tuesdays 12 – 2 at St Michaels Church Hall, December to March. Serving home made soup and fresh bread and butter. Also tea, coffee and chocolate biscuits. Also every other tuesday starting on 5th Dec in the morning we visitors are welcome to Craft Club Handicrafts which are taught by experienced crafters.","hours":{"_text":"Tuesdays 12 – 2 at St Michaels Church Hall, December to March. Serving home made soup and fresh bread and butter. Also tea, coffee and chocolate biscuits. Also every other tuesday starting on 5th Dec in the morning we visitors are welcome to Craft Club Handicrafts which are taught by experienced crafters.","opening":"Tu 12:00-02:00"},"title":"St Michael and All Angels Church, Lancing"},"type":"Feature"},
		{"geometry":{"coordinates":[-0.27707,50.83422],"type":"Point"},"properties":{"_source":"adur_and_worthing_council","description":"Warm welcome space at St Peter’s Community Hub every Thursday from 10am and 3pm. detailed. Free food and refreshments, free wi-fi, friendly chat and a warm space.","hours":{"_text":"Warm welcome space at St Peter’s Community Hub every Thursday from 10am and 3pm. detailed. Free food and refreshments, free wi-fi, friendly chat and a warm space."},"title":"St Peter's Church, Shoreham-by-Sea"},"type":"Feature"},
		{"geometry":{"coordinates":[-0.16653,50.83031],"type":"Point"},"properties":{"_source":"brighton___hove_council"},"type":"Feature"},
		{"geometry":{"coordinates":[-0.14226,50.82585],"type":"Point"},"properties":{"_source":"brighton___hove_council"},"type":"Feature"},
		{"geometry":{"coordinates":[-0.13898,50.83112],"type":"Point"},"properties":{"_source":"brighton___hove_council"},"type":"Feature"},
		{"geometry":{"coordinates":[-0.13188,50.82411],"type":"Point"},"properties":{"_source":"brighton___hove_council"},"type":"Feature"},
		{"geometry":{"coordinates":[-0.11398,50.82077],"type":"Point"},"properties":{"_source":"brighton___hove_council"},"type":"Feature"},
		{"geometry":{"coordinates":[-0.17921,50.83274],"type":"Point"},"properties":{"_source":"brighton___hove_council"},"type":"Feature"},
		{"geometry":{"coordinates":[-0.07644,50.83667],"type":"Point"},"properties":{"_source":"brighton___hove_council"},"type":"Feature"},
		{"geometry":{"coordinates":[-0.11243,50.86297],"type":"Point"},"properties":{"_source":"brighton___hove_council"},"type":"Feature"},
		{"geometry":{"coordinates":[-0.14226,50.82585],"type":"Point"},"properties":{"_source":"brighton___hove_council"},"type":"Feature"},
		{"geometry":{"coordinates":[-0.14197,50.82277],"type":"Point"},"properties":{"_source":"brighton___hove_council"},"type":"Feature"},
		{"geometry":{"coordinates":[-0.19517,50.85206],"type":"Point"},"properties":{"_source":"brighton___hove_council"},"type":"Feature"},
		{"geometry":{"coordinates":[-0.19646,50.84530],"type":"Point"},"properties":{"_source":"brighton___hove_council"},"type":"Feature"},
		{"geometry":{"coordinates":[-0.12680,50.86462],"type":"Point"},"properties":{"_source":"brighton___hove_council"},"type":"Feature"},
		{"geometry":{"coordinates":[-0.12466,50.84307],"type":"Point"},"properties":{"_source":"brighton___hove_council"},"type":"Feature"},
		{"geometry":{"coordinates":[-0.18428,50.83456],"type":"Point"},"properties":{"_source":"brighton___hove_council"},"type":"Feature"},
		{"geometry":{"coordinates":[-0.17709,50.82837],"type":"Point"},"properties":{"_source":"brighton___hove_council"},"type":"Feature"},
		{"geometry":{"coordinates":[-0.13849,50.82511],"type":"Point"},"properties":{"_source":"brighton___hove_council"},"type":"Feature"},
		{"geometry":{"coordinates":[-0.17653,50.84360],"type":"Point"},"properties":{"_source":"brighton___hove_council"},"type":"Feature"},
		{"geometry":{"coordinates":[-0.11126,50.81941],"type":"Point"},"properties":{"_source":"brighton___hove_council"},"type":"Feature"},
		{"geometry":{"coordinates":[-0.10969,50.85019],"type":"Point"},"properties":{"_source":"brighton___hove_council"},"type":"Feature"},
		{"geometry":{"coordinates":[-0.12683,50.86533],"type":"Point"},"properties":{"_source":"brighton___hove_council"},"type":"Feature"},
		{"geometry":{"coordinates":[-0.10232,50.81346],"type":"Point"},"properties":{"_source":"brighton___hove_council"},"type":"Feature"},
		{"geometry":{"coordinates":[-0.13569,50.83803],"type":"Point"},"properties":{"_source":"brighton___hove_council"},"type":"Feature"},
		{"geometry":{"coordinates":[-0.14413,50.86345],"type":"Point"},"properties":{"_source":"brighton___hove_council"},"type":"Feature"},
		{"geometry":{"coordinates":[-0.20938,50.83800],"type":"Point"},"properties":{"_source":"brighton___hove_council"},"type":"Feature"},
		{"geometry":{"coordinates":[-0.20815,50.83234],"type":"Point"},"properties":{"_source":"brighton___hove_council"},"type":"Feature"},
		{"geometry":{"coordinates":[-0.05929,50.80648],"type":"Point"},"properties":{"_source":"brighton___hove_council"},"type":"Feature"},
		{"geometry":{"coordinates":[-0.13594,50.83146],"type":"Point"},"properties":{"_source":"brighton___hove_council"},"type":"Feature"},
		{"geometry":{"coordinates":[-0.14503,50.82537],"type":"Point"},"properties":{"_source":"brighton___hove_council"},"type":"Feature"},
		{"geometry":{"coordinates":[-0.10547,50.82821],"type":"Point"},"properties":{"_source":"brighton___hove_council"},"type":"Feature"},
		{"geometry":{"coordinates":[-0.11943,50.81828],"type":"Point"},"properties":{"_source":"brighton___hove_council"},"type":"Feature"},
		{"geometry":{"coordinates":[-0.12940,50.82030],"type":"Point"},"properties":{"_source":"brighton___hove_council"},"type":"Feature"},
		{"geometry":{"coordinates":[-0.06429,50.82762],"type":"Point"},"properties":{"_source":"brighton___hove_council"},"type":"Feature"},
		{"geometry":{"coordinates":[-0.13504,50.82844],"type":"Point"},"properties":{"_source":"brighton___hove_council"},"type":"Feature"},
		{"geometry":{"coordinates":[-0.20124,50.83991],"type":"Point"},"properties":{"_source":"brighton___hove_council"},"type":"Feature"},
		{"geometry":{"coordinates":[-0.17454,50.82849],"type":"Point"},"properties":{"_source":"brighton___hove_council"},"type":"Feature"},
		{"geometry":{"coordinates":[-0.13359,50.82570],"type":"Point"},"properties":{"_source":"brighton___hove_council"},"type":"Feature"},
		{"geometry":{"coordinates":[-0.11066,50.84499],"type":"Point"},"properties":{"_source":"brighton___hove_council"},"type":"Feature"},
		{"geometry":{"coordinates":[-0.11785,50.82545],"type":"Point"},"properties":{"_source":"brighton___hove_council"},"type":"Feature"},
		{"geometry":{"coordinates":[-0.10916,50.82871],"type":"Point"},"properties":{"_source":"brighton___hove_council"},"type":"Feature"},
		{"geometry":{"coordinates":[-0.16495,50.82686],"type":"Point"},"properties":{"_source":"brighton___hove_council"},"type":"Feature"},
		{"geometry":{"coordinates":[-0.13839,50.82520],"type":"Point"},"properties":{"_source":"brighton___hove_council"},"type":"Feature"},
		{"geometry":{"coordinates":[-0.03870,50.80528],"type":"Point"},"properties":{"_source":"brighton___hove_council"},"type":"Feature"},
		{"geometry":{"coordinates":[-0.17703,50.83576],"type":"Point"},"properties":{"_source":"brighton___hove_council"},"type":"Feature"},
		{"geometry":{"coordinates":[-0.16323,50.85990],"type":"Point"},"properties":{"_source":"brighton___hove_council"},"type":"Feature"},
		{"geometry":{"coordinates":[-0.10558,50.81888],"type":"Point"},"properties":{"_source":"brighton___hove_council"},"type":"Feature"},
		{"geometry":{"coordinates":[-0.10742,50.82567],"type":"Point"},"properties":{"_source":"brighton___hove_council"},"type":"Feature"},
		{"geometry":{"coordinates":[-0.07855,50.83615],"type":"Point"},"properties":{"_source":"brighton___hove_council"},"type":"Feature"},
		{"geometry":{"coordinates":[-0.07004,50.82990],"type":"Point"},"properties":{"_source":"brighton___hove_council"},"type":"Feature"},
		{"geometry":{"coordinates":[-0.00350,50.79281],"type":"Point"},"properties":{"_source":"lewes_and_eastbourne_council","address":"Kempton House, Cavell Avenue, Peacehaven, BN10 7NJ, United Kingdom","contact":"Tel: 07821515118","loc_pcd":true,"title":"Kempton House Day Centre","url":"https://www.lewes-eastbourne.gov.uk/article/1880/Kempton-House-Day-Centre"},"type":"Feature"},
		{"geometry":{"coordinates":[-0.00096,50.87590],"type":"Point"},"properties":{"_source":"lewes_and_eastbourne_council","address":"Christ Church, Prince Edwards Road, Lewes, BN7 1BL, United Kingdom","contact":"Tel: 07395 156873","loc_pcd":true,"title":"Fitzjohns, Lewes","url":"https://www.lewes-eastbourne.gov.uk/article/1876/Fitzjohns-Lewes"},"type":"Feature"},
		{"geometry":{"coordinates":[-0.00096,50.87590],"type":"Point"},"properties":{"_source":"lewes_and_eastbourne_council","address":"Prince Edwards Road, Lewes, BN7 1BL, United Kingdom","contact":"Tel: 01273 488237","loc_pcd":true,"title":"Christ Church, Lewes","url":"https://www.lewes-eastbourne.gov.uk/article/1874/Christ-Church-Lewes"},"type":"Feature"},
		{"geometry":{"coordinates":[-0.01918,50.93699],"type":"Point"},"properties":{"_source":"lewes_and_eastbourne_council","address":"Church Hall, South Common, South Chailey, Lewes, BN8 4AN, United Kingdom","contact":"Tel: 07913652920","loc_pcd":true,"title":"Chailey Free Church - Open Doors Community Space, South Chailey","url":"https://www.lewes-eastbourne.gov.uk/article/1873/Chailey-Free-Church-Open-Doors-Community-Space-South-Chailey"},"type":"Feature"},
		{"geometry":{"coordinates":[-0.00350,50.79281],"type":"Point"},"properties":{"_source":"lewes_and_eastbourne_council","address":"Kempton House, Cavell Avenue, Peacehaven, BN10 7NJ, United Kingdom","contact":"Tel: 07821515118","loc_pcd":true,"title":"Kempton House Day Centre","url":"https://www.lewes-eastbourne.gov.uk/article/1880/Kempton-House-Day-Centre"},"type":"Feature"}
	]
}
