{
	"type": "FeatureCollection",
	"features": [
		{"geometry":{"coordinates":[-0.13070,50.83375],"type":"Point"},"properties":{"_source":"warm_welcome","address":"1-6 Park Crescent Terrace, Brighton, East Sussex BN2 3HD","description":"Open from 7.11.22. Our focus is catering for elderly people aged 50+","hours":{"_text":"Monday: 10:00 - 13:30, Wednesday: 10:00 - 15:30, Friday: 12:00 - 15:30","opening":"Mo 10:00-13:30; We 10:00-15:30; Fr 12:00-15:30"},"title":"Brighton Congress Hall Salvation Army"},"type":"Feature"},
		{"geometry":{"coordinates":[-0.01920,50.93700],"type":"Point"},"properties":{"_source":"warm_welcome","address":"South Common (A275), South Chailey, East Sussex BN8 4AN","description":"Open from 16/01/2023. We have board games, jigsaws, newspapers etc & toys for toddlers","hours":{"_text":"Monday: 11:00 - 15:00, Wednesday: 11:00 - 15:00, Friday: 11:00 - 15:00","opening":"Mo 11:00-15:00; We 11:00-15:00; Fr 11:00-15:00"},"title":"Chailey Free Church"},"type":"Feature"},
		{"geometry":{"coordinates":[-0.28409,50.82661],"type":"Point"},"properties":{"_source":"warm_welcome","address":"Kings Walk, Shoreham-by-Sea, West Sussex BN43 5LF","description":"Open from 17-01-2022.","hours":{"_text":"Tuesday: 10:30 - 12:00","opening":"Tu 10:30-12:00"},"title":"Church of the Good Shepherd"},"type":"Feature"},
		{"geometry":{"coordinates":[-0.13141,50.84387],"type":"Point"},"properties":{"_source":"warm_welcome","address":"Citygate @ the dip 119d Hollingdean Terrace, Brighton, EAst Sussex BN1 7HB","description":"Open from 18-11-22. A small friendly space for families and individuals to come and keep warm. Free hot drinks and wifi access, as well as charging points. There will be some games and activities for children and space to sit and relax. All Welcome. Final opening day 10.02.23","hours":{"_text":"Friday: 15:30 - 17:30","opening":"Fr 15:30-17:30"},"title":"City Gate Church"},"type":"Feature"},
		{"geometry":{"coordinates":[-0.27226,50.93147],"type":"Point"},"properties":{"_source":"warm_welcome","address":"Henfield Library, Off High Street, Henfield BN5 9HN","hours":{"_text":"Monday: 10:00 - 17:00 / -, Tuesday: 10:00 - 17:00 / -, Wednesday: 10:00 - 17:00 / -, Thursday: 10:00 - 17:00 / -, Friday: 10:00 - 17:00 / -, Saturday: 10:00 - 14:00 / -","opening":"Mo 10:00-17:00; Tu 10:00-17:00; We 10:00-17:00; Th 10:00-17:00; Fr 10:00-17:00; Sa 10:00-14:00"},"title":"Henfield Library"},"type":"Feature"},
		{"geometry":{"coordinates":[-0.18817,50.83364],"type":"Point"},"properties":{"_source":"warm_welcome","address":"Portland Road, HOVE, East Sussex BN3 5QQ","description":"Open from 23/9/2022.","hours":{"_text":"Friday: 10:00 - 11:30","opening":"Fr 10:00-11:30"},"title":"Hove |Methodist Church"},"type":"Feature"},
		{"geometry":{"coordinates":[-0.17774,50.82859],"type":"Point"},"properties":{"_source":"warm_welcome","address":"182 - 186 Church Road, Hove, East Sussex BN3 2EG","description":"The library offers a warm space for all. Free WiFi, PC access and study space available. A variety of newspapers and magazines and a large collection of books and ebooks to enjoy. We also have an on-site cafe.","hours":{"_text":"Monday: 10:00 - 17:00, Tuesday: 10:00 - 17:00, Wednesday: 10:00 - 19:00, Thursday: 10:00 - 17:00, Friday: 10:00 - 17:00, Saturday: 10:00 - 17:00","opening":"Mo 10:00-17:00; Tu 10:00-17:00; We 10:00-19:00; Th 10:00-17:00; Fr 10:00-17:00; Sa 10:00-17:00"},"title":"Hove Library"},"type":"Feature"},
		{"geometry":{"coordinates":[-0.13865,50.82499],"type":"Point"},"properties":{"_source":"warm_welcome","address":"Jubilee Library, Jubilee Street, Brighton, East Sussex BN1 1GE","description":"We cater for people of all ages. There is a cafe onsite, but we are unable to provide free food or hot drinks. We have books, newspapers, magazines and board games and puzzles","hours":{"_text":"Monday: 10:00 - 19:00, Tuesday: 10:00 - 19:00, Wednesday: 10:00 - 17:00, Thursday: 10:00 - 19:00, Friday: 10:00 - 17:00, Saturday: 10:00 - 17:00, Sunday: 11:00 - 17:00","opening":"Mo 10:00-19:00; Tu 10:00-19:00; We 10:00-17:00; Th 10:00-19:00; Fr 10:00-17:00; Sa 10:00-17:00; Su 11:00-17:00"},"title":"Jubilee Library"},"type":"Feature"},
		{"geometry":{"coordinates":[-0.32446,50.82822],"type":"Point"},"properties":{"_source":"warm_welcome","address":"Penstone Park, Lancing, West Sussex BN15 9DL","hours":{"_text":"Monday: 10:00 - 18:00, Tuesday: 10:00 - 18:00, Wednesday: 10:00 - 18:00, Thursday: 10:00 - 18:00, Friday: 10:00 - 18:00, Saturday: 10:00 - 16:00","opening":"Mo 10:00-18:00; Tu 10:00-18:00; We 10:00-18:00; Th 10:00-18:00; Fr 10:00-18:00; Sa 10:00-16:00"},"title":"Lancing Library"},"type":"Feature"},
		{"geometry":{"coordinates":[-0.32350,50.82371],"type":"Point"},"properties":{"_source":"warm_welcome","address":"Chester Avenue, Elm Grove, , Lancing, West Sussex BN15 8AJ","description":"There is a time of Worship in the church 10:30-11:00 for those who wish to take part","hours":{"_text":"Friday: 10:00 - 12:30","opening":"Fr 10:00-12:30"},"title":"Methodist Church"},"type":"Feature"},
		{"geometry":{"coordinates":[-0.14161,50.95715],"type":"Point"},"properties":{"_source":"warm_welcome","address":"St Edward's Church, Royal George Road, Burgess Hill, West Sussex RH15 9TD","description":"Open from Tuesday 10th January 2023.","hours":{"_text":"Tuesday: 10:00 - 12:00, Thursday: 10:00 - 14:00, Friday: 10:00 - 14:00","opening":"Tu 10:00-12:00; Th 10:00-14:00; Fr 10:00-14:00"},"title":"Mustard Seed Community Cafe, St Edward's Church Burgess Hill"},"type":"Feature"},
		{"geometry":{"coordinates":[-0.13710,50.83814],"type":"Point"},"properties":{"_source":"warm_welcome","address":"Florence Road, Brighton, East Sussex BN1 6DL","hours":{"_text":"Tuesday: 08:30 - 16:00, Wednesday: 08:30 - 16:00, Thursday: 08:30 - 16:00, Friday: 08:30 - 16:00, Sunday: 10:30 - 12:30","opening":"Tu 08:30-16:00; We 08:30-16:00; Th 08:30-16:00; Fr 08:30-16:00; Su 10:30-12:30"},"title":"One Church Brighton"},"type":"Feature"},
		{"geometry":{"coordinates":[-0.15137,50.84464],"type":"Point"},"properties":{"_source":"warm_welcome","address":"1 Knoyle Road, Brighton, East Sussex BN1 6RB","description":"Preston Coffee Pot is open from 10:45am on Wednesdays, following a weekday service of either Morning Prayer or Holy Communion. On Sundays, there is a service of Holy Communion at 10am, followed by refreshments.","hours":{"_text":"Wednesday: 09:30 - 12:00, Sunday: 09:00 - 12:00","opening":"We 09:30-12:00; Su 09:00-12:00"},"title":"Parish Church of St John the Evangelist, Preston, Brighton"},"type":"Feature"},
		{"geometry":{"coordinates":[-0.14456,50.86381],"type":"Point"},"properties":{"_source":"warm_welcome","address":"Patcham Library, Ladies Mile Road, Brighton BN1 8TA","description":"Parking is by complimentary day permit only available inside the library. Lunchtimes between 13:00 and 14:00 and all day Wednesday and Sunday access is only possible with a Libraries Extra membership card","hours":{"_text":"Monday: 09:00 - 13:00 / 14:00 - 17:00, Tuesday: 09:00 - 13:00 / 14:00 - 17:00, Wednesday: 10:00 - 14:30, Thursday: 09:00 - 13:00 / 14:00 - 17:00, Friday: 09:00 - 13:00 / 14:00 - 17:00, Saturday: 09:30 - 13:00 / 14:00 - 17:00, Sunday: 11:00 - 17:00","opening":"Mo 09:00-13:00,14:00-17:00; Tu 09:00-13:00,14:00-17:00; We 10:00-14:30; Th 09:00-13:00,14:00-17:00; Fr 09:00-13:00,14:00-17:00; Sa 09:30-13:00,14:00-17:00; Su 11:00-17:00"},"title":"Patcham Library"},"type":"Feature"},
		{"geometry":{"coordinates":[-0.21288,50.83850],"type":"Point"},"properties":{"_source":"warm_welcome","address":"223 Old Shoreham Road, Brighton, Brighton BN41 1XR","description":"The library has jigsaws puzzles and board games for all to enjoy.","hours":{"_text":"Monday: 09:00 - 19:00, Tuesday: 09:00 - 17:00, Wednesday: 09:00 - 17:00, Thursday: 09:00 - 19:00, Friday: 09:00 - 17:00, Saturday: 09:30 - 17:00, Sunday: 11:00 - 17:00","opening":"Mo 09:00-19:00; Tu 09:00-17:00; We 09:00-17:00; Th 09:00-19:00; Fr 09:00-17:00; Sa 09:30-17:00; Su 11:00-17:00"},"title":"Portslade Library"},"type":"Feature"},
		{"geometry":{"coordinates":[-0.20881,50.83269],"type":"Point"},"properties":{"_source":"warm_welcome","address":"Station Road, Portslade, Portslade BN41 1AB","description":"Open from 02-11-2022.","hours":{"_text":"Tuesday: 14:30 - 16:00 / - Fortnightly, Wednesday: 10:30 - 12:30, Sunday: 10:30 - 12:00","opening":"Tu 14:30-16:00; We 10:30-12:30; Su 10:30-12:00"},"title":"Portslade United Reformed Church"},"type":"Feature"},
		{"geometry":{"coordinates":[-0.32288,50.82421],"type":"Point"},"properties":{"_source":"warm_welcome","address":"124 South Street, Lancing, West Sussex BN15 8AJ","hours":{"_text":"Monday: 10:00 - 13:00, Tuesday: 10:00 - 16:00, Wednesday: 10:00 - 16:00, Thursday: 10:00 - 16:00, Friday: 9:00 - 16:00","opening":"Mo 10:00-13:00; Tu 10:00-16:00; We 10:00-16:00; Th 10:00-16:00; Fr 09:00-16:00"},"title":"Royal Voluntary Service"},"type":"Feature"},
		{"geometry":{"coordinates":[-0.27334,50.83298],"type":"Point"},"properties":{"_source":"warm_welcome","address":"Shoreham Library, St Mary's Road, Shoreham-by-Sea, West Sussex BN43 5ZA","hours":{"_text":"Monday: 10:00 - 18:00, Tuesday: 10:00 - 18:00, Wednesday: 10:00 - 18:00, Thursday: 10:00 - 18:00, Friday: 10:00 - 18:00, Saturday: 10:00 - 16:00","opening":"Mo 10:00-18:00; Tu 10:00-18:00; We 10:00-18:00; Th 10:00-18:00; Fr 10:00-18:00; Sa 10:00-16:00"},"title":"Shoreham Library"},"type":"Feature"},
		{"geometry":{"coordinates":[-0.23575,50.83541],"type":"Point"},"properties":{"_source":"warm_welcome","address":"Southdown Road, Southwick, West Sussex BN42 4FT","hours":{"_text":"Monday: 10:00 - 17:00, Tuesday: 10:00 - 17:00, Wednesday: 10:00 - 17:00, Thursday: 10:00 - 17:00, Friday: 10:00 - 17:00, Saturday: 10:00 - 14:00","opening":"Mo 10:00-17:00; Tu 10:00-17:00; We 10:00-17:00; Th 10:00-17:00; Fr 10:00-17:00; Sa 10:00-14:00"},"title":"Southwick Library"},"type":"Feature"},
		{"geometry":{"coordinates":[-0.17427,50.82828],"type":"Point"},"properties":{"_source":"warm_welcome","address":"163, Church Road, Hove, East Sussex BN3 2AD","description":"We are a church but you don't have to have ever been in a church before to come in! Everyone's welcome and please ask if you need anything you can't see","hours":{"_text":"Tuesday: 9:00 - 12:00, Thursday: 9:00 - 12:00, Friday: 10:00 - 12:00, Sunday: 7:30 - 12:00","opening":"Tu 09:00-12:00; Th 09:00-12:00; Fr 10:00-12:00; Su 07:30-12:00"},"title":"St Andrew's Church, Hove"},"type":"Feature"},
		{"geometry":{"coordinates":[-0.25157,50.83866],"type":"Point"},"properties":{"_source":"warm_welcome","address":"Milward Court Day centre, Wilmot Road, Shoreham by Sea, West Sussex BN43 6BU","description":"Open from 1/02/2023. We will serve soup and bread for Lunch, hot drinks and Juices available. Everyone welcome everything provided is free.","hours":{"_text":"Wednesday: 12:30 - 14:00","opening":"We 12:30-14:00"},"title":"St Francis Church"},"type":"Feature"},
		{"geometry":{"coordinates":[-0.12167,50.81875],"type":"Point"},"properties":{"_source":"warm_welcome","address":"St George's Church, St George's Road, Brighton, East Sussex BN21ED","description":"Open from 19/10/2022. Everyone - church and none church - are welcome to share our warm welcome space. We also have a few board games to entertain you... we also have a community centre and cafe - you are welcome to come and see if anything interests you","hours":{"_text":"Monday: 10:00 - 15:30, Tuesday: 10:00 - 15:30, Wednesday: 10:00 - 15:30, Thursday: 10:00 - 15:30, Friday: 10:00 - 15:30","opening":"Mo 10:00-15:30; Tu 10:00-15:30; We 10:00-15:30; Th 10:00-15:30; Fr 10:00-15:30"},"title":"St George's Church"},"type":"Feature"},
		{"geometry":{"coordinates":[-0.13001,50.82025],"type":"Point"},"properties":{"_source":"warm_welcome","address":"61 St James's Street, Brighton , East Sussex BN2 1PR","hours":{"_text":"Monday: 9:30 - 13:00, Tuesday: 18:30 - 19:00, Wednesday: 9:30 - 17:00, Friday: 9:30 - 13:00, Sunday: 9:30 - 13:00","opening":"Mo 09:30-13:00; Tu 18:30-19:00; We 09:30-17:00; Fr 09:30-13:00; Su 09:30-13:00"},"title":"St Mary’s Church Kemp Town"},"type":"Feature"},
		{"geometry":{"coordinates":[-0.31923,50.83588],"type":"Point"},"properties":{"_source":"warm_welcome","address":"Parish Office, Mill Road, Lancing, Sussex BN15 9XD","description":"Craft Club in St. Michael’s hall - 1st & 3rd Tues of the month 10-12. Ancient & Modern Group in St. Michael’s hall - 1st & 3rd Wed of the month 2-4. 1st Wed of the month at St. Peter’s 2-4pm. 2nd Thurs of the month Coffee, Cake & Chat St James Church Hall","hours":{"_text":"Tuesday: 10:00 - 12:00 / - Fortnightly, Wednesday: 14:00 - 16:00 / - Fortnightly, Thursday: 10:00 - 12:00 / - Monthly","opening":"Tu 10:00-12:00; We 14:00-16:00; Th 10:00-12:00"},"title":"St Michael and All Angels, St Peter the Holy Apostle and St James the Less"},"type":"Feature"},
		{"geometry":{"coordinates":[-0.13565,50.82859],"type":"Point"},"properties":{"_source":"warm_welcome","address":"St Peter's Church, York Place, Brighton BN1 4GU","description":"Owe welcome anyone who is looking for a safe place. Our focus is to offer to those who are most in need of a warm space, friendly conversation and a meal. Safehaven drop-in session times and Sunday services.","hours":{"_text":"Wednesday: 13:00 - 15:00, Thursday: 13:30 - 15:00, Saturday: 17:00 - 18:15, Sunday: 10:30 - 12:00","opening":"We 13:00-15:00; Th 13:30-15:00; Sa 17:00-18:15; Su 10:30-12:00"},"title":"St Peter's Brighton"},"type":"Feature"},
		{"geometry":{"coordinates":[-0.14437,50.82554],"type":"Point"},"properties":{"_source":"warm_welcome","address":"Church St, Brighton, East Sussex BN1 3LJ","description":"Open from Weekly.","hours":{"_text":"Tuesday: 10:00 - 12:00, Wednesday: 16:00 - 17:00, Friday: 9:30 - 14:00 / 12:30 - 14:00, Saturday: 12:30 - 16:00","opening":"Tu 10:00-12:00; We 16:00-17:00; Fr 09:30-14:00,12:30-14:00; Sa 12:30-16:00"},"title":"St. Nicholas of Myra Church, Brighton"},"type":"Feature"},
		{"geometry":{"coordinates":[-0.32712,50.88898],"type":"Point"},"properties":{"_source":"warm_welcome","address":"Steyning Library, Church Street, Steyning BN44 3YB","hours":{"_text":"Monday: 10:00 - 17:00 / -, Tuesday: 10:00 - 17:00 / -, Wednesday: 10:00 - 17:00 / -, Thursday: 10:00 - 17:00 / -, Friday: 10:00 - 17:00 / -, Saturday: 10:00 - 14:00 / -","opening":"Mo 10:00-17:00; Tu 10:00-17:00; We 10:00-17:00; Th 10:00-17:00; Fr 10:00-17:00; Sa 10:00-14:00"},"title":"Steyning Library"},"type":"Feature"},
		{"geometry":{"coordinates":[-0.30430,50.88408],"type":"Point"},"properties":{"_source":"warm_welcome","address":"The Hub, 19, Church Lane, Upper Beeding, Steyning, West Sussex BN44 3HP","description":"Cafe open 9-12pm, soup available 1200-3pm, tea and toast 3-5pm","hours":{"_text":"Monday: 09:00 - 12:00, Tuesday: 09:00 - 17:00, Wednesday: 09:00 - 12:00, Thursday: 09:00 - 17:00, Friday: 09:00 - 12:00, Sunday: 10:00 - 12:00","opening":"Mo 09:00-12:00; Tu 09:00-17:00; We 09:00-12:00; Th 09:00-17:00; Fr 09:00-12:00; Su 10:00-12:00"},"title":"The Hub, Beeding"},"type":"Feature"},
		{"geometry":{"coordinates":[-0.17546,50.83529],"type":"Point"},"properties":{"_source":"warm_welcome","address":"The Salvation Army, 159 Sackville Road/Conway Place, Hove BN3 3LW","description":"Everyone is welcome - our space has board games, crafts, a play area for children, puzzles, refreshments (and meals on Wednesdays). There is always a friendly face to meet and greet you.","hours":{"_text":"Tuesday: 10:00 - 12:30, Wednesday: 11:00 - 14:00, Friday: 10:00 - 16:00, Sunday: 10:00 - 12:00","opening":"Tu 10:00-12:30; We 11:00-14:00; Fr 10:00-16:00; Su 10:00-12:00"},"title":"The Salvation Army Hove"},"type":"Feature"},
		{"geometry":{"coordinates":[-0.13326,50.92310],"type":"Point"},"properties":{"_source":"warm_welcome","address":"Hassocks Library 9 Ewart close, Hassocks, West Sussex BN6 8FJ","hours":{"_text":"Monday: 09:00 - 13:00, Tuesday: 09:00 - 13:00, Wednesday: 09:00 - 13:00, Thursday: 13:00 - 17:00, Friday: 13:00 - 17:00, Saturday: 09:00 - 13:00","opening":"Mo 09:00-13:00; Tu 09:00-13:00; We 09:00-13:00; Th 13:00-17:00; Fr 13:00-17:00; Sa 09:00-13:00"},"title":"West Sussex County Council"},"type":"Feature"},
		{"geometry":{"coordinates":[-0.13276,50.95575],"type":"Point"},"properties":{"_source":"warm_welcome","address":"Burgess Hill Library 15-19 The Martlets, Burgess Hill, West Sussex RH15 9NN","hours":{"_text":"Monday: 09:30 - 17:30, Tuesday: 09:30 - 17:30, Wednesday: 09:30 - 17:30, Thursday: 09:30 - 17:30, Friday: 09:30 - 17:30, Saturday: 10:00 - 16:00","opening":"Mo 09:30-17:30; Tu 09:30-17:30; We 09:30-17:30; Th 09:30-17:30; Fr 09:30-17:30; Sa 10:00-16:00"},"title":"WSCC"},"type":"Feature"},
		{"geometry":{"coordinates":[-0.17439,50.93360],"type":"Point"},"properties":{"_source":"warm_welcome","address":"Hurstpierpoint Library, Trinity Road, Hurstpierpoint, West Sussex BN6 9UY","hours":{"_text":"Monday: 09:00 - 13:00, Tuesday: 09:00 - 13:00, Wednesday: 09:00 - 13:00, Thursday: 13:00 - 17:00, Friday: 13:00 - 17:00, Saturday: 09:00 - 13:00","opening":"Mo 09:00-13:00; Tu 09:00-13:00; We 09:00-13:00; Th 13:00-17:00; Fr 13:00-17:00; Sa 09:00-13:00"},"title":"WSCC"},"type":"Feature"},
		{"geometry":{"coordinates":[-0.32068,50.83862],"type":"Point"},"properties":{"_source":"warm_spaces","address":"Mill Road, Lancing, England, BN15 0PT, United Kingdom","description":"People to chat to, Space to work, Food/Drink for sale, Wheelchair Accessible, Toilets, Accessible Toilet, Child Friendly","hours":{"_text":"Every 2nd Thursday of the month 10am-12.30pm and every 4th Thursday 10am-4pm","opening":"Th[2] 10:00-12:30; Th[4] 10:00-16:00"},"title":"St James the Less Church Hall","url":"https://www.chalkspringchurches.org"},"type":"Feature"},
		{"geometry":{"coordinates":[-0.33897,50.82687],"type":"Point"},"properties":{"_source":"warm_spaces","address":"St. Peter the Apostle, Sompting, England, United Kingdom","description":"People to chat to, Space to work, Food/Drink for sale, Wheelchair Accessible, Toilets, Accessible Toilet, Parking, Child Friendly","hours":{"_text":"11 Jan, 1 Feb, 1 Mar and 5 April 1.30am-4.30pm"},"title":"St Peter's Church","url":"https://www.chalkspringchurches.org"},"type":"Feature"},
		{"geometry":{"coordinates":[-0.32333,50.82414],"type":"Point"},"properties":{"_source":"warm_spaces","address":"84 South St, England, BN15 8AJ, United Kingdom","description":"People to chat to, Food/Drink for sale, Wheelchair Accessible, Toilets, Accessible Toilet, Child Friendly","hours":{"_text":"Every Tuesday 10am-12.30pm,","opening":"Tu 10:00-12:30"},"title":"St Michael and All Angels Church Hall","url":"https://www.chalkspringchurches.org"},"type":"Feature"},
		{"geometry":{"coordinates":[-0.27626,50.93114],"type":"Point"},"properties":{"_source":"warm_spaces","address":"2 Red Oak Cottages, England, BN5 9PF, United Kingdom","description":"Free Food/Drink, People to chat to, Wheelchair Accessible, Toilets, Accessible Toilet, Parking, books and games to browse and play","hours":{"_text":"11am-4pm, Sundays 8th, 15th, 22nd and 29th January","opening":"Su 11:00-16:00"},"title":"Corpus Christi Parish Hall"},"type":"Feature"},
		{"geometry":{"coordinates":[-0.23411,50.83506],"type":"Point"},"properties":{"_source":"warm_spaces","address":"24 Southwick Street, Brighton, England, BN42 4TE, United Kingdom","description":"Free Food/Drink, Free Wi-Fi, People to chat to, Wheelchair Accessible, Toilets, Accessible Toilet, Parking","hours":{"_text":"Tuesday 2pm-4pm","opening":"Tu 14:00-16:00"},"title":"Southwick Community Centre","url":"https://www.southwickcommunitycentre.org.uk"},"type":"Feature"},
		{"geometry":{"coordinates":[-0.14340,50.82500],"type":"Point"},"properties":{"_source":"warm_spaces","address":"Church Street, Brighton, England, BN1 3LJ, United Kingdom","description":"Free Food/Drink, People to chat to, Wheelchair Accessible, Toilets, Child Friendly","hours":{"_text":"Tuesdays 10am-12noon, Wednesdays 4pm-5pm, Friday 9.30am-11.30am and 12.30pm-4pm, Saturday 12.30pm-4pm","opening":"Tu 10:00-12:00; We 16:00-17:00; Fr 09:30-11:30,12:30-16:00; Sa 12:30-16:00"},"title":"St. Nicholas of Myra Church","url":"https://www.stnicholasbrighton.org.uk"},"type":"Feature"},
		{"geometry":{"coordinates":[-0.13903,50.92255],"type":"Point"},"properties":{"_source":"warm_spaces","address":"Pauline Thaw Day Centre, Dale Avenue, Hassocks, England, BN6 8LW, United Kingdom","description":"Free Wi-Fi, Device Charging, People to chat to, Space to work, Food/Drink for sale, Wheelchair Accessible, Toilets, Accessible Toilet","hours":{"_text":"Weekdays 9am-4pm, Weekdays; Saturdays 9am-12pm","opening":"Mo-Fr 09:00-16:00; Sa 09:00-12:00"},"title":"Age Concern Hassocks &amp; District","url":"https://www.achassocks.co.uk"},"type":"Feature"},
		{"geometry":{"coordinates":[-0.30455,50.88269],"type":"Point"},"properties":{"_source":"warm_spaces","address":"The HUB, Upper Beeding, 19 Church Lane, Steyning, England, BN44 3HP, United Kingdom","description":"Free Wi-Fi, Device Charging, Advice, People to chat to, Pay It Forward Scheme, Space to work, Food/Drink for sale, Wheelchair Accessible, Toilets, Accesible Toilet, Parking, Child Friendly","hours":{"_text":"Mondays, Wednesdays, Fridays, 9-12noon, Tuesdays and Thursdays 9am-5pm","opening":"Mo 09:00-12:00; We 09:00-12:00; Fr 09:00-12:00; Tu 09:00-17:00; Th 09:00-17:00"},"title":"The Hub Beeding","url":"https://www.thehubbeeding.org/warmhub"},"type":"Feature"},
		{"geometry":{"coordinates":[-0.16704,50.83966],"type":"Point"},"properties":{"_source":"warm_spaces","address":"Hove Recreation Ground, Shirley Drive, , Hove, England, BN3 6NQ, United Kingdom","description":"Free Food/Drink, Free Wi-Fi, Device Charging, People to chat to, Space to work, Food/Drink for sale, Offering clubhouse as a warm space","hours":{"_text":"9am-1pm"},"title":"Hove Rugby Club","url":"https://www.hoverugby.club"},"type":"Feature"},
		{"geometry":{"coordinates":[-0.12971,50.82029],"type":"Point"},"properties":{"_source":"warm_spaces","address":"61 Saint James&#39;s Street, Brighton, England, BN2 1PR, United Kingdom","description":"Free Food/Drink, Free Wi-Fi, Device Charging, Advice, People to chat to, Space to work","hours":{"_text":"Monday, Wednesday and Friday 9am-1pm","opening":"Mo 09:00-13:00; We 09:00-13:00; Fr 09:00-13:00"},"title":"St Mary’s Kemp Town","url":"www.stmaryschurchbrighton.org.uk"},"type":"Feature"},
		{"geometry":{"coordinates":[-0.26114,50.83674],"type":"Point"},"properties":{"_source":"adur_and_worthing_council","description":"The family hub is a great place for those parents/ carers with their young children to drop in and play together. The centre has a great stock of toys for all the family. They are open Monday to Friday from 9.15am-5pm. Find out more about the centre here: www.westsussex.gov.uk/familyhubs","hours":{"_text":"The family hub is a great place for those parents/ carers with their young children to drop in and play together. The centre has a great stock of toys for all the family. They are open Monday to Friday from 9.15am-5pm. Find out more about the centre here: www.westsussex.gov.uk/familyhubs"},"title":"Adur East Family Hub"},"type":"Feature"},
		{"geometry":{"coordinates":[-0.32228,50.82825],"type":"Point"},"properties":{"_source":"adur_and_worthing_council","description":"The family hub is a great place for those parents/ carers with their young children to drop in and play together. The centre has a great stock of toys for all the family. They are open Monday to Friday from 9.15am-5pm. Find out more about the centre here: www.westsussex.gov.uk/familyhubs","hours":{"_text":"The family hub is a great place for those parents/ carers with their young children to drop in and play together. The centre has a great stock of toys for all the family. They are open Monday to Friday from 9.15am-5pm. Find out more about the centre here: www.westsussex.gov.uk/familyhubs"},"title":"Adur West Family Hub"},"type":"Feature"},
		{"geometry":{"coordinates":[-0.34520,50.83157],"type":"Point"},"properties":{"_source":"adur_and_worthing_council","description":"Adur Homes in Partnership with AgeUK & Sompting Big Local will be opening the doors at Avon Lounge, Avon Court on Tuesdays from 11am-2pm. Come along and grab a cuppa and perhaps take part in an activity or two. Open to residents of Avon Court, as well as the wider community/","hours":{"_text":"Adur Homes in Partnership with AgeUK & Sompting Big Local will be opening the doors at Avon Lounge, Avon Court on Tuesdays from 11am-2pm. Come along and grab a cuppa and perhaps take part in an activity or two. Open to residents of Avon Court, as well as the wider community/"},"title":"Avon Court, Avon Close"},"type":"Feature"},
		{"geometry":{"coordinates":[-0.27132,50.83373],"type":"Point"},"properties":{"_source":"adur_and_worthing_council","description":"Adur Woodcraft Folk A warm space for anyone to come to chat, play cards or games etc. You can access the internet, enjoy a hot drink or meet new people/old friends. All activities are FREE and children are very welcome. Open Monday to Friday from 12noon to 4pm. Have a look at what else they are up to here: https://www.facebook.com/CommunitySpaceShoreham/","hours":{"_text":"Adur Woodcraft Folk A warm space for anyone to come to chat, play cards or games etc. You can access the internet, enjoy a hot drink or meet new people/old friends. All activities are FREE and children are very welcome. Open Monday to Friday from 12noon to 4pm. Have a look at what else they are up to here: https://www.facebook.com/CommunitySpaceShoreham/","opening":"Mo-Fr 12:00-16:00"},"title":"Cooperative Community Space, Ham Road, Shoreham-by-Sea"},"type":"Feature"},
		{"geometry":{"coordinates":[-0.22382,50.83221],"type":"Point"},"properties":{"_source":"adur_and_worthing_council","description":"A warm welcome will await you at Eastbrook Manor Community Centre. The warm space will be open in the main room from 10am to 12pm, Monday to Friday. Free hot drinks available.","hours":{"_text":"A warm welcome will await you at Eastbrook Manor Community Centre. The warm space will be open in the main room from 10am to 12pm, Monday to Friday. Free hot drinks available.","opening":"Fr 10:00-12:00"},"title":"Eastbrook Manor Community Centre, West Road, Fishersgate, Portslade, Brighton"},"type":"Feature"},
		{"geometry":{"coordinates":[-0.26975,50.83381],"type":"Point"},"properties":{"_source":"adur_and_worthing_council","description":"ESTEEM located in the Old School House on Ham Road in Shoreham will be opening it's doors from 10.30am-5.30pm Monday to Thursday and 10.30am- 12pm on Fridays, for those young people in need of a warm space. Other groups are also welcome to use the space at the Old School House when not in use by ESTEEM. For more info check out their website: https://esteem.org.uk/","hours":{"_text":"ESTEEM located in the Old School House on Ham Road in Shoreham will be opening it's doors from 10.30am-5.30pm Monday to Thursday and 10.30am- 12pm on Fridays, for those young people in need of a warm space. Other groups are also welcome to use the space at the Old School House when not in use by ESTEEM. For more info check out their website: https://esteem.org.uk/","opening":"Mo-Th 10:30-12:00; Fr 10:30-17:30"},"title":"ESTEEM, Ham Road, Shoreham-by-Sea"},"type":"Feature"},
		{"geometry":{"coordinates":[-0.32380,50.82846],"type":"Point"},"properties":{"_source":"adur_and_worthing_council","title":"Lancing Library"},"type":"Feature"},
		{"geometry":{"coordinates":[-0.32371,50.82387],"type":"Point"},"properties":{"_source":"adur_and_worthing_council","description":"Join the folk at the Community Hub every Tuesday from 10am-12noon and Thursday from 2pm-4pm, to chat, connect, relax all over a cuppa. Free wifi is also available. Check out what else they are up to here: https://lancingparishcouncil.gov.uk/calendar/","hours":{"_text":"Join the folk at the Community Hub every Tuesday from 10am-12noon and Thursday from 2pm-4pm, to chat, connect, relax all over a cuppa. Free wifi is also available. Check out what else they are up to here: https://lancingparishcouncil.gov.uk/calendar/","opening":"Th 14:00-16:00"},"title":"Lancing Parish Council"},"type":"Feature"},
		{"geometry":{"coordinates":[-0.32187,50.82423],"type":"Point"},"properties":{"_source":"adur_and_worthing_council","description":"If you have little ones and want a supportive, fun and creative environment to warm up at, then the Penhill Playgroup Stay & Play Group is the place for you! Open to all parents, carers and guardians, this space is filled with activities to keep your little ones entertained, whilst you take a break and chat to others. This warm space will operate on Tuesday's from 12:30pm to 2:30pm (term time only). Hot & cold drinks will be served and in addition soup and toast has also been added to the menu. There is a small charge to attend the session. If you are struggling with money, then please speak to a member of the team, who will be able to support you. Find out more about the sessions here: https://www.penhillplaygroup.org.uk/","hours":{"_text":"If you have little ones and want a supportive, fun and creative environment to warm up at, then the Penhill Playgroup Stay & Play Group is the place for you! Open to all parents, carers and guardians, this space is filled with activities to keep your little ones entertained, whilst you take a break and chat to others. This warm space will operate on Tuesday's from 12:30pm to 2:30pm (term time only). Hot & cold drinks will be served and in addition soup and toast has also been added to the menu. There is a small charge to attend the session. If you are struggling with money, then please speak to a member of the team, who will be able to support you. Find out more about the sessions here: https://www.penhillplaygroup.org.uk/","opening":"Tu 12:30-14:30"},"title":"Penhill Playgroup, Penhill Road, Lancing"},"type":"Feature"},
		{"geometry":{"coordinates":[-0.27168,50.83520],"type":"Point"},"properties":{"_source":"adur_and_worthing_council","description":"Come and join the folk at Shoreham Free Church on Mondays, Wednesdays, Thursdays & Fridays, between 9am and 1pm. Their warm space will be filled with friendly faces and offer free refreshments, a chance to get creative with jigsaws and there will be access to WiFi available. Whether you want a quiet space or some company, these guys have got it covered. To find out more about what they do, check out their website here: https://www.shorehamfreechurch.co.uk/","hours":{"_text":"Come and join the folk at Shoreham Free Church on Mondays, Wednesdays, Thursdays & Fridays, between 9am and 1pm. Their warm space will be filled with friendly faces and offer free refreshments, a chance to get creative with jigsaws and there will be access to WiFi available. Whether you want a quiet space or some company, these guys have got it covered. To find out more about what they do, check out their website here: https://www.shorehamfreechurch.co.uk/","opening":"Mo 09:00-13:00; We 09:00-13:00; Th 09:00-13:00; Fr 09:00-13:00"},"title":"Shoreham Free Church - Buckingham Road Shoreham, Buckingham Road, Shoreham-by-Sea"},"type":"Feature"},
		{"geometry":{"coordinates":[-0.27463,50.83362],"type":"Point"},"properties":{"_source":"adur_and_worthing_council","title":"Shoreham Library"},"type":"Feature"},
		{"geometry":{"coordinates":[-0.23397,50.83497],"type":"Point"},"properties":{"_source":"adur_and_worthing_council","description":"The cafe at Southwick Community Centre will play host to the warm space. Operating on a Tuesday from 2pm to 4pm, you are welcome to come along, to grab a free hot drink, biscuits or a hot soup and maybe take part in an activity or two. You'll be greeted by volunteers who will be organising a range of activities and quizzes that you can get involved in ... or just to be on hand to sit and chat. Find out more on their website: https://www.southwickcommunitycentre.org.uk/","hours":{"_text":"The cafe at Southwick Community Centre will play host to the warm space. Operating on a Tuesday from 2pm to 4pm, you are welcome to come along, to grab a free hot drink, biscuits or a hot soup and maybe take part in an activity or two. You'll be greeted by volunteers who will be organising a range of activities and quizzes that you can get involved in ... or just to be on hand to sit and chat. Find out more on their website: https://www.southwickcommunitycentre.org.uk/"},"title":"Southwick Community Centre, Southwick Street, Southwick, Brighton"},"type":"Feature"},
		{"geometry":{"coordinates":[-0.23486,50.83520],"type":"Point"},"properties":{"_source":"adur_and_worthing_council","title":"Southwick Library"},"type":"Feature"},
		{"geometry":{"coordinates":[-0.32265,50.83777],"type":"Point"},"properties":{"_source":"adur_and_worthing_council","description":"Come along for cake and a chat at St James the Less with Coombes Church, Lancing every 2nd Thursday of the month (12th Jan, 9th Feb, 9th Mar & 13th April) from 10am-12.30pm. Everyone likes cake right? If you are more into play games with a great group of people, then they are also open every 4th Thursday (26th Jan, 23rd Feb, 23rd Mar & 27th April) from 10am-4pm, they'll even throw in a cuppa or two. For more info give them a follow on Facebook: https://en-gb.facebook.com/stjamesthelesslancing/","hours":{"_text":"Come along for cake and a chat at St James the Less with Coombes Church, Lancing every 2nd Thursday of the month (12th Jan, 9th Feb, 9th Mar & 13th April) from 10am-12.30pm. Everyone likes cake right? If you are more into play games with a great group of people, then they are also open every 4th Thursday (26th Jan, 23rd Feb, 23rd Mar & 27th April) from 10am-4pm, they'll even throw in a cuppa or two. For more info give them a follow on Facebook: https://en-gb.facebook.com/stjamesthelesslancing/","opening":"Th[2] 10:00-12:30; Th[4] 10:00-16:00"},"title":"St James the Less Church, Lancing"},"type":"Feature"},
		{"geometry":{"coordinates":[-0.32333,50.82414],"type":"Point"},"properties":{"_source":"adur_and_worthing_council","description":"A friendly face awaits you at St Michael and All Angel Church. Come along for some soup and a chat (other refreshments also available), or perhaps an opportunity to get your craft on and play some games. The space will be open from 1pm-4pm on the following dates: 3rd & 18th Jan, 1st & 15th Feb, 1st & 15 Mar & 19th April. Check out what else the Church is up to here: https://www.facebook.com/stmichaelslancing/","hours":{"_text":"A friendly face awaits you at St Michael and All Angel Church. Come along for some soup and a chat (other refreshments also available), or perhaps an opportunity to get your craft on and play some games. The space will be open from 1pm-4pm on the following dates: 3rd & 18th Jan, 1st & 15th Feb, 1st & 15 Mar & 19th April. Check out what else the Church is up to here: https://www.facebook.com/stmichaelslancing/"},"title":"St Michael and All Angels Church (Church of England)"},"type":"Feature"},
		{"geometry":{"coordinates":[-0.28561,50.84082],"type":"Point"},"properties":{"_source":"adur_and_worthing_council","description":"Join the volunteers at St Nicholas' for a cuppa or even a pastry, as they open their doors with a warm welcome every Wednesday from 9.30am-12 noon.","hours":{"_text":"Join the volunteers at St Nicholas' for a cuppa or even a pastry, as they open their doors with a warm welcome every Wednesday from 9.30am-12 noon."},"title":"St. Nicolas' Church, St Nicholas Lane, Shoreham"},"type":"Feature"},
		{"geometry":{"coordinates":[-0.33898,50.82688],"type":"Point"},"properties":{"_source":"adur_and_worthing_council","description":"Join the guys at St Peter the Apostle to warm up, have a cuppa maybe even play a game or two. The warm space is open the first Wednesday of every month (11th Jan, 1st Feb, 1st march & 5th April) from 1.30-4.30pm. Check out what else they have to offer on their website https://www.chalkspringchurches.org/","hours":{"_text":"Join the guys at St Peter the Apostle to warm up, have a cuppa maybe even play a game or two. The warm space is open the first Wednesday of every month (11th Jan, 1st Feb, 1st march & 5th April) from 1.30-4.30pm. Check out what else they have to offer on their website https://www.chalkspringchurches.org/"},"title":"St. Peter the Apostle, Sompting"},"type":"Feature"},
		{"geometry":{"coordinates":[-0.27241,50.83363],"type":"Point"},"properties":{"_source":"adur_and_worthing_council","description":"The Circular Space will be opening it's doors on a Monday to Wednesday morning from 9am to 12noon, as part of their warm space offer. If you want to learn a new still, or just have an opportunity to be creative, then this is the warm space for you! Surrounded by a warm welcoming and cosy environment, you will have your pick of reclaimed resources to get your craft on! Have a look at what else they get up to here: www.weareoverthemoon.org","hours":{"_text":"The Circular Space will be opening it's doors on a Monday to Wednesday morning from 9am to 12noon, as part of their warm space offer. If you want to learn a new still, or just have an opportunity to be creative, then this is the warm space for you! Surrounded by a warm welcoming and cosy environment, you will have your pick of reclaimed resources to get your craft on! Have a look at what else they get up to here: www.weareoverthemoon.org","opening":"Mo-We 00:09-12:00"},"title":"The Circular Space, Ham Road, Shoreham-by-Sea"},"type":"Feature"},
		{"geometry":{"coordinates":[-0.16653,50.83031],"type":"Point"},"properties":{"_source":"brighton___hove_council"},"type":"Feature"},
		{"geometry":{"coordinates":[-0.14226,50.82585],"type":"Point"},"properties":{"_source":"brighton___hove_council"},"type":"Feature"},
		{"geometry":{"coordinates":[-0.13898,50.83112],"type":"Point"},"properties":{"_source":"brighton___hove_council"},"type":"Feature"},
		{"geometry":{"coordinates":[-0.13188,50.82411],"type":"Point"},"properties":{"_source":"brighton___hove_council"},"type":"Feature"},
		{"geometry":{"coordinates":[-0.11618,50.82073],"type":"Point"},"properties":{"_source":"brighton___hove_council"},"type":"Feature"},
		{"geometry":{"coordinates":[-0.17921,50.83274],"type":"Point"},"properties":{"_source":"brighton___hove_council"},"type":"Feature"},
		{"geometry":{"coordinates":[-0.07644,50.83667],"type":"Point"},"properties":{"_source":"brighton___hove_council"},"type":"Feature"},
		{"geometry":{"coordinates":[-0.13185,50.84073],"type":"Point"},"properties":{"_source":"brighton___hove_council"},"type":"Feature"},
		{"geometry":{"coordinates":[-0.11243,50.86297],"type":"Point"},"properties":{"_source":"brighton___hove_council"},"type":"Feature"},
		{"geometry":{"coordinates":[-0.14226,50.82585],"type":"Point"},"properties":{"_source":"brighton___hove_council"},"type":"Feature"},
		{"geometry":{"coordinates":[-0.10518,50.83290],"type":"Point"},"properties":{"_source":"brighton___hove_council"},"type":"Feature"},
		{"geometry":{"coordinates":[-0.14197,50.82277],"type":"Point"},"properties":{"_source":"brighton___hove_council"},"type":"Feature"},
		{"geometry":{"coordinates":[-0.19517,50.85206],"type":"Point"},"properties":{"_source":"brighton___hove_council"},"type":"Feature"},
		{"geometry":{"coordinates":[-0.19646,50.84530],"type":"Point"},"properties":{"_source":"brighton___hove_council"},"type":"Feature"},
		{"geometry":{"coordinates":[-0.12680,50.86462],"type":"Point"},"properties":{"_source":"brighton___hove_council"},"type":"Feature"},
		{"geometry":{"coordinates":[-0.12466,50.84307],"type":"Point"},"properties":{"_source":"brighton___hove_council"},"type":"Feature"},
		{"geometry":{"coordinates":[-0.18428,50.83456],"type":"Point"},"properties":{"_source":"brighton___hove_council"},"type":"Feature"},
		{"geometry":{"coordinates":[-0.17709,50.82837],"type":"Point"},"properties":{"_source":"brighton___hove_council"},"type":"Feature"},
		{"geometry":{"coordinates":[-0.13849,50.82511],"type":"Point"},"properties":{"_source":"brighton___hove_council"},"type":"Feature"},
		{"geometry":{"coordinates":[-0.17653,50.84360],"type":"Point"},"properties":{"_source":"brighton___hove_council"},"type":"Feature"},
		{"geometry":{"coordinates":[-0.11126,50.81941],"type":"Point"},"properties":{"_source":"brighton___hove_council"},"type":"Feature"},
		{"geometry":{"coordinates":[-0.22575,50.85064],"type":"Point"},"properties":{"_source":"brighton___hove_council"},"type":"Feature"},
		{"geometry":{"coordinates":[-0.10969,50.85019],"type":"Point"},"properties":{"_source":"brighton___hove_council"},"type":"Feature"},
		{"geometry":{"coordinates":[-0.12683,50.86533],"type":"Point"},"properties":{"_source":"brighton___hove_council"},"type":"Feature"},
		{"geometry":{"coordinates":[-0.10232,50.81346],"type":"Point"},"properties":{"_source":"brighton___hove_council"},"type":"Feature"},
		{"geometry":{"coordinates":[-0.13569,50.83803],"type":"Point"},"properties":{"_source":"brighton___hove_council"},"type":"Feature"},
		{"geometry":{"coordinates":[-0.14413,50.86345],"type":"Point"},"properties":{"_source":"brighton___hove_council"},"type":"Feature"},
		{"geometry":{"coordinates":[-0.20938,50.83800],"type":"Point"},"properties":{"_source":"brighton___hove_council"},"type":"Feature"},
		{"geometry":{"coordinates":[-0.20815,50.83234],"type":"Point"},"properties":{"_source":"brighton___hove_council"},"type":"Feature"},
		{"geometry":{"coordinates":[-0.05929,50.80648],"type":"Point"},"properties":{"_source":"brighton___hove_council"},"type":"Feature"},
		{"geometry":{"coordinates":[-0.13594,50.83146],"type":"Point"},"properties":{"_source":"brighton___hove_council"},"type":"Feature"},
		{"geometry":{"coordinates":[-0.14503,50.82537],"type":"Point"},"properties":{"_source":"brighton___hove_council"},"type":"Feature"},
		{"geometry":{"coordinates":[-0.10547,50.82821],"type":"Point"},"properties":{"_source":"brighton___hove_council"},"type":"Feature"},
		{"geometry":{"coordinates":[-0.11943,50.81828],"type":"Point"},"properties":{"_source":"brighton___hove_council"},"type":"Feature"},
		{"geometry":{"coordinates":[-0.12940,50.82030],"type":"Point"},"properties":{"_source":"brighton___hove_council"},"type":"Feature"},
		{"geometry":{"coordinates":[-0.06429,50.82762],"type":"Point"},"properties":{"_source":"brighton___hove_council"},"type":"Feature"},
		{"geometry":{"coordinates":[-0.20124,50.83991],"type":"Point"},"properties":{"_source":"brighton___hove_council"},"type":"Feature"},
		{"geometry":{"coordinates":[-0.17454,50.82849],"type":"Point"},"properties":{"_source":"brighton___hove_council"},"type":"Feature"},
		{"geometry":{"coordinates":[-0.13359,50.82570],"type":"Point"},"properties":{"_source":"brighton___hove_council"},"type":"Feature"},
		{"geometry":{"coordinates":[-0.12946,50.82947],"type":"Point"},"properties":{"_source":"brighton___hove_council"},"type":"Feature"},
		{"geometry":{"coordinates":[-0.11066,50.84499],"type":"Point"},"properties":{"_source":"brighton___hove_council"},"type":"Feature"},
		{"geometry":{"coordinates":[-0.11785,50.82545],"type":"Point"},"properties":{"_source":"brighton___hove_council"},"type":"Feature"},
		{"geometry":{"coordinates":[-0.10916,50.82871],"type":"Point"},"properties":{"_source":"brighton___hove_council"},"type":"Feature"},
		{"geometry":{"coordinates":[-0.16495,50.82686],"type":"Point"},"properties":{"_source":"brighton___hove_council"},"type":"Feature"},
		{"geometry":{"coordinates":[-0.13839,50.82520],"type":"Point"},"properties":{"_source":"brighton___hove_council"},"type":"Feature"},
		{"geometry":{"coordinates":[-0.03870,50.80528],"type":"Point"},"properties":{"_source":"brighton___hove_council"},"type":"Feature"},
		{"geometry":{"coordinates":[-0.17703,50.83576],"type":"Point"},"properties":{"_source":"brighton___hove_council"},"type":"Feature"},
		{"geometry":{"coordinates":[-0.16323,50.85990],"type":"Point"},"properties":{"_source":"brighton___hove_council"},"type":"Feature"},
		{"geometry":{"coordinates":[-0.10558,50.81888],"type":"Point"},"properties":{"_source":"brighton___hove_council"},"type":"Feature"},
		{"geometry":{"coordinates":[-0.10742,50.82567],"type":"Point"},"properties":{"_source":"brighton___hove_council"},"type":"Feature"},
		{"geometry":{"coordinates":[-0.07855,50.83615],"type":"Point"},"properties":{"_source":"brighton___hove_council"},"type":"Feature"},
		{"geometry":{"coordinates":[-0.07004,50.82990],"type":"Point"},"properties":{"_source":"brighton___hove_council"},"type":"Feature"},
		{"geometry":{"coordinates":[-0.01918,50.93699],"type":"Point"},"properties":{"_source":"lewes_and_eastbourne_council","address":"Church Hall, South Common South Chailey Lewes,&#160;BN8 4AN","contact":"Telephone: 07913652920\n; Email: contact@chaileyfreechurch.com","description":"Available from Monday 16th January 2023 on&#160;Mondays, Wednesday and Fridays at 11am to 3pm; Disabled access, open to all ages, child friendly.; Offering: hot drinks, snacks, free Wi-Fi, toddler toys and craft activities for young and old, jigsaws, newspapers, leaflets and signposting.","loc_pcd":true,"title":"Chailey Free Church, South Chailey"},"type":"Feature"},
		{"geometry":{"coordinates":[-0.00096,50.87590],"type":"Point"},"properties":{"_source":"lewes_and_eastbourne_council","address":"Prince Edwards Road, Lewes, BN7 1BL","contact":"Telephone: 01273 488237\n; Email: layworker@christ-church-lewes.org","description":"Disabled access, open to all ages, child friendly&#160;; Offering: hot drinks, snacks, hot meals e.g. soup, free&#160;Wi-Fi, activities, advice leaflets and signposting,&#160;toys, books and craft materials available.","hours":{"_text":"Open Wednesdays 10am to 3pm","opening":"We 10:00-15:00"},"loc_pcd":true,"title":"Christ Church, Lewes"},"type":"Feature"},
		{"geometry":{"coordinates":[-0.00096,50.87590],"type":"Point"},"properties":{"_source":"lewes_and_eastbourne_council","address":"Christ Church, Prince Edwards Road, Lewes, BN71BL","contact":"Telephone: 07395 156 873\n; Email: fitzjohnsfoodbank@gmail.com","description":"Disabled access, open to all, child friendly; Offering: hot drinks, snacks, hot meals e.g. soup, free Wi-Fi, advice, leaflets and signposting.&#160;; Fitzjohns will be open on Mondays for a Community Meal at lunch times cooked by volunteers and led by a Cookery Leader who can help us explore different tastes, cuisines, and diets.","hours":{"_text":"Open Mondays from 1pm to 2.20pm (being extended to 4pm in future)","opening":"Mo 13:00-14:20"},"loc_pcd":true,"title":"Fitzjohns, Lewes"},"type":"Feature"},
		{"geometry":{"coordinates":[-0.00350,50.79281],"type":"Point"},"properties":{"_source":"lewes_and_eastbourne_council","address":"Kempton House, Cavell Avenue, Peacehaven, BN10 7NJ","contact":"Telephone: 07821 515118\n; Email:sue@kemptonhousedaycentre.com","description":"Disabled access, open to all ages, child friendly.; Offering: hot drinks, snacks,&#160;advice, leaflets and signposting.; Lunch is available but needs to be booked in advance.","hours":{"_text":"Open Wednesdays and Fridays from 9am to 11am","opening":"We 09:00-11:00; Fr 09:00-11:00"},"loc_pcd":true,"title":"Kempton House Day Centre"},"type":"Feature"}
	]
}
