{
	"type": "FeatureCollection",
	"features": [
		{"geometry":{"coordinates":[-2.44025,57.23705],"type":"Point"},"properties":{"_source":"warm_welcome","address":"Church Centre Church Lane, Kemnay, Inverurie, Aberdeenshire AB51 5NH","description":"Open from October to March. Toys and games available","hours":"Tu 10:00-16:00; We 10:00-16:00; Fr 10:00-14:00","title":"Kemnay Parish Church"},"type":"Feature"},
		{"geometry":{"coordinates":[-2.31232,57.15673],"type":"Point"},"properties":{"_source":"warm_welcome","address":"Old Skene Rd, Westhill AB32 6AQ, Westhill, Aberdeenshire AB32 6AQ","description":"","hours":"Mo 13:00-15:00","title":"Oasis Creative Wellbeing Cafe"},"type":"Feature"},
		{"geometry":{"coordinates":[-2.29144,57.15636],"type":"Point"},"properties":{"_source":"warm_welcome","address":"Hays Way, Westhill, Aberdeenshire AB32 6","description":"We cater for all adults 18+ Free Warm Place with friendly welcome, a free hot meal and a range of activities available.","hours":"Tu 11:00-15:00","title":"Westhill Men's Shed"},"type":"Feature"},
		{"geometry":{"coordinates":[-2.11386,57.14895],"type":"Point"},"properties":{"_source":"warm_spaces","address":"Leadside Road, Aberdeen, Scotland, AB25 1TW","title":"Silver City Church Heat Cafe","url":"https://www.silvercitychurch.uk"},"type":"Feature"},
		{"geometry":{"coordinates":[-2.18959,57.20728],"type":"Point"},"properties":{"_source":"warm_spaces","address":"Dyce Church Hall, Victoria Street, Aberdeen, Scotland, AB21 7BJ","title":"Dyce Parish Church","url":"https://dyceparishchurch.org.uk"},"type":"Feature"}
	]
}
