{
	"type": "FeatureCollection",
	"features": [
		{"geometry":{"coordinates":[-2.43387,53.59397],"type":"Point"},"properties":{"_source":"warm_welcome","address":"All Souls - Bolton, Astley Street, Bolton, England BL1 8EY","description":"","hours":"Mo 09:00-17:00; Tu 09:00-17:00; We 09:00-17:00; Th 09:00-17:00; Fr 09:00-17:00","title":"All Souls-Bolton"},"type":"Feature"},
		{"geometry":{"coordinates":[-2.20234,53.70436],"type":"Point"},"properties":{"_source":"warm_welcome","address":"Christ Church with St John, Burnley Road, Bacup OL13 8AB","description":"Open from 09/11/2022.","hours":"We 15:30-17:30","title":"Bacup Living Room"},"type":"Feature"},
		{"geometry":{"coordinates":[-2.44454,53.74778],"type":"Point"},"properties":{"_source":"warm_welcome","address":"339-341 Accrington Road , Blackburn , Lancashire Bb1 2al","description":"","hours":"Mo 13:00-15:00; Fr 13:00-15:00","title":"Big Local"},"type":"Feature"},
		{"geometry":{"coordinates":[-2.40951,53.57415],"type":"Point"},"properties":{"_source":"warm_welcome","address":"Withins UCAN Centre, Bolton, Manchester BL2 5JG","description":"Adults","hours":"Mo 09:30-12:00; Tu 09:30-12:00; We 09:30-12:00; Th 09:30-12:00","title":"Bolton at Home"},"type":"Feature"},
		{"geometry":{"coordinates":[-2.38429,53.58236],"type":"Point"},"properties":{"_source":"warm_welcome","address":"Breightmet Medical Centre, Breightmet Fold Lane, Breightmet, Bolton BL2 6NT","description":"Everybody welcome Ask staff for more information about free sessions and activities ","hours":"Mo 10:00-13:00; Tu 10:00-19:00; We 10:00-13:00; Th 10:00-17:00; Fr 10:00-13:00; Sa 10:00-13:00","title":"Breightmet Library "},"type":"Feature"},
		{"geometry":{"coordinates":[-2.41841,53.61703],"type":"Point"},"properties":{"_source":"warm_welcome","address":"The Crescent, Toppings Estate,, Bromley Cross, Bolton BL7 9JU","description":"All welcome Please see staff for more information about free activities and sessions","hours":"Mo 13:00-17:00; Tu 14:00-19:00; Th 10:00-17:00; Sa 10:00-13:00","title":"Bromley Cross Library "},"type":"Feature"},
		{"geometry":{"coordinates":[-2.30081,53.58675],"type":"Point"},"properties":{"_source":"warm_welcome","address":"114 Manchester Road, Bury, Bury BL9 OTH","description":"","hours":"We 10:30-13:30; Su 10:30-13:30","title":"Bury Baptist Church"},"type":"Feature"},
		{"geometry":{"coordinates":[-2.31484,53.65283],"type":"Point"},"properties":{"_source":"warm_welcome","address":"Great Eaves Road, Ramsbottom, Bury BL0 0PX","description":"Open from 17/11/22.","hours":"Th 12:00-16:00","title":"Christ Church Ramsbottom "},"type":"Feature"},
		{"geometry":{"coordinates":[-2.42761,53.57818],"type":"Point"},"properties":{"_source":"warm_welcome","address":"Crompton Place Shopping Centre, Bolton, Greater Manchester BL1 1DF","description":"All welcome Please see staff for more information about free activities and sessions","hours":"Mo 09:00-17:30; Tu 09:00-17:30; We 09:30-17:30; Th 09:00-17:30; Fr 09:00-17:30; Sa 09:00-17:00; Su 10:30-16:30","title":"Crompton Place Library "},"type":"Feature"},
		{"geometry":{"coordinates":[-2.39488,53.55164],"type":"Point"},"properties":{"_source":"warm_welcome","address":"The Well, Trafford Street, Farnworth, Bolton BL4 7PQ","description":"","hours":"Tu 10:00-14:00; We 09:30-14:00; Th 09:30-16:00; Fr 09:30-14:00; Su 10:30-12:30","title":"Farnworth Baptist Church"},"type":"Feature"},
		{"geometry":{"coordinates":[-2.39635,53.55087],"type":"Point"},"properties":{"_source":"warm_welcome","address":"Market Street, Farnworth, Bolton BL4 7PG","description":"All welcome Please see staff for more information about free activities and sessions","hours":"Mo 10:00-17:00; Tu 10:00-19:00; Th 10:00-17:00; Fr 10:00-17:00; Sa 10:00-17:00","title":"Farnworth Library"},"type":"Feature"},
		{"geometry":{"coordinates":[-2.45800,53.58137],"type":"Point"},"properties":{"_source":"warm_welcome","address":"The Grace Centre, Somerset Road, Bolton, Greater Manchester BL1 4NE","description":"Everyone is welcome and we always have volunteers for you to chat to. We have other activities throughout the week which you can attend, see our website for more details. At our Tuesday cafe we have a suspended hot drink option where anyone can come and ask for a suspended tea or coffee and it will be given to them for free with some toast. We have on street parking available. ","hours":"Tu 08:45-12:45; Su 10:30-12:00","title":"Grace Church, Bolton"},"type":"Feature"},
		{"geometry":{"coordinates":[-2.39660,53.60451],"type":"Point"},"properties":{"_source":"warm_welcome","address":"Gate Fold, Harwood , Bolton BL2 3HN","description":"All welcome Please see staff for more information about free activities and sessions","hours":"Mo 10:00-17:00; Tu 10:00-19:00; Th 10:00-17:00; Sa 10:00-17:00","title":"Harwood Library "},"type":"Feature"},
		{"geometry":{"coordinates":[-2.15672,53.59843],"type":"Point"},"properties":{"_source":"warm_welcome","address":"Kirkholt Community Church, Rochdale, Greater Manchester OL11 2LW","description":"Open from 10-10-2022 also already open every Thursday.","hours":"Tu 09:00-14:30; We 09:00-14:30; Th 11:00-14:30; Su 10:30-13:30","title":"Healthy Foundations"},"type":"Feature"},
		{"geometry":{"coordinates":[-2.43845,53.56713],"type":"Point"},"properties":{"_source":"warm_welcome","address":"High Street , Bolton BL3 6SZ","description":"All welcome Please see staff for more information about free activities and sessions","hours":"Mo 10:00-17:00; Tu 13:00-19:00; Th 10:00-17:00; Sa 10:00-17:00","title":"High Street Library "},"type":"Feature"},
		{"geometry":{"coordinates":[-2.11733,53.54958],"type":"Point"},"properties":{"_source":"warm_welcome","address":"The Vicarage, 46 Godson Street, Oldham, Manchester OL1 2DB","description":"Portable ramp for wheelchair users. Crafts and board Games availablee","hours":"We 12:00-18:00","title":"Holy Trinity Coldhurst"},"type":"Feature"},
		{"geometry":{"coordinates":[-2.37151,53.56219],"type":"Point"},"properties":{"_source":"warm_welcome","address":"63 Market Street, Little Lever, Bolton BL3 1LP","description":"All welcome Please see staff for more information about free activities and sessions","hours":"Mo 10:00-17:00; Tu 10:00-17:00; Th 10:00-17:00; Fr 10:00-17:00; Sa 10:00-17:00","title":"Little Lever Library"},"type":"Feature"},
		{"geometry":{"coordinates":[-2.41186,53.54332],"type":"Point"},"properties":{"_source":"warm_welcome","address":"59 George Street, New Bury, Bolton BL4 9PU","description":"","hours":"Mo 09:30-15:00; Tu 09:30-15:00; We 10:00-14:00; Th 09:30-15:00; Fr 12:00-13:30","title":"New Bury UCAN"},"type":"Feature"},
		{"geometry":{"coordinates":[-2.11270,53.61078],"type":"Point"},"properties":{"_source":"warm_welcome","address":"Edmund Street, Milnrow, Rochdale OL16 4HR","description":"Monday is Men's Hub, chance to chat, play chess, cards or pool. Tuesday morning is Coffee Lounge for anyone to drop in for a hot drink and warm food. Life group runs in the afternoon Wednesday is a craft group. Sunday is our Service with Sunday School. Debt management, family issues support, advocacy, form filling.","hours":"Mo 10:00-12:00; Tu 10:00-16:00; We 13:00-15:00; Su 10:30-12:30","title":"New Life Community Church Milnrow"},"type":"Feature"},
		{"geometry":{"coordinates":[-2.13198,53.55306],"type":"Point"},"properties":{"_source":"warm_welcome","address":"Chadderton Way, Oldham Ol8 6DH","description":"","hours":"Tu 14:00-17:00; We 14:00-19:00; Th 14:00-19:00; Fr 09:30-13:00; Sa 09:30-13:00","title":"Northmoor Library"},"type":"Feature"},
		{"geometry":{"coordinates":[-2.43820,53.60529],"type":"Point"},"properties":{"_source":"warm_welcome","address":"Oldhams Start Well Centre, Forfar Street, Bolton, Greater Manchester BL1 6RN","description":"Open from 02-11-2022. Everybody Welcome A warm welcome awaits everybody at Café Oasis. Free hot drinks and food. Friendly volunteers always available for chats. One hour free computer access available for library card holders. Free WiFi provided.","hours":"We 10:30-12:30","title":"Oasis Cafe (Oldhams Church)"},"type":"Feature"},
		{"geometry":{"coordinates":[-2.28944,53.71004],"type":"Point"},"properties":{"_source":"warm_welcome","address":"St Pauls Centre, Rawtenstall, Rossendale BB4 8HU","description":" A safe, friendly space for over 18s","hours":"Th 19:00-21:00","title":"Ow do"},"type":"Feature"},
		{"geometry":{"coordinates":[-2.24530,53.72260],"type":"Point"},"properties":{"_source":"warm_welcome","address":"Lumb Baptist Church, Burnley Road East, Rossendale, Lancashire BB4 9PL","description":"","hours":"Mo 14:00-15:30","title":"Renew Wellbeing Lumb"},"type":"Feature"},
		{"geometry":{"coordinates":[-2.40772,53.57901],"type":"Point"},"properties":{"_source":"warm_welcome","address":"Saint Chad's Church, Bolton, Greater Manchester BL2 6AW","description":" You can choose from a large range of activities: Card Games, Dominoes, Board Games, Pool Table, Table Tennis, Darts, Community Library, Craft Sessions, Digital Support, Woodworking (Friday's Only) or just pop in for a warm drink","hours":"Mo 10:00-16:00; Th 10:00-16:00; Fr 10:00-16:00","title":"Saint Chad's Church"},"type":"Feature"},
		{"geometry":{"coordinates":[-2.29647,53.57679],"type":"Point"},"properties":{"_source":"warm_welcome","address":"St Peter’s Road, Bury, Greater Manchester BL9 9QZ","description":"Open from 08-11-2022.","hours":"Tu 13:30-17:00","title":"St. Peter's Church Bury"},"type":"Feature"},
		{"geometry":{"coordinates":[-2.11314,53.63333],"type":"Point"},"properties":{"_source":"warm_welcome","address":"Smithy Bridge Road, Smithy Bridge, Littleborough. Lancashire OL15 0DY","description":"Open from now. we cater for everyone we have a cafe and charity shop on site. Thursday afternoons from 2.30 - 4pm we have a small group of people meet together to make friends, chat, play games, have afternoon tea - all free.","hours":"Mo 09:00-14:00; Tu 09:00-14:00; We 09:00-14:00; Th 09:00-14:00; Fr 09:00-14:00","title":"The Bridge Centre"},"type":"Feature"},
		{"geometry":{"coordinates":[-2.12333,53.56725],"type":"Point"},"properties":{"_source":"warm_welcome","address":"Trinity Methodist Church, Radcliffe Street, Oldham OL2 5QR","description":" We are working in cooperation with Oldham Council","hours":"Mo 09:00-17:00; Tu 09:00-17:00; We 09:00-17:00; Th 09:00-17:00; Fr 09:00-17:00","title":"The Methodist Church Oldham Circuit"},"type":"Feature"},
		{"geometry":{"coordinates":[-2.45748,53.55737],"type":"Point"},"properties":{"_source":"warm_welcome","address":"Aldred Street , Bolton, Greater Manchester BL3 3QE","description":"Open from 01/11/2022. All Welcome","hours":"Tu 10:30-14:30","title":"The Salvation Army-Bolton South"},"type":"Feature"},
		{"geometry":{"coordinates":[-2.43078,53.58085],"type":"Point"},"properties":{"_source":"warm_welcome","address":"37-45 Knowsley St, Bolton, Lancashire BL1 2AS","description":"","hours":"Tu 10:00-15:00; Th 10:00-12:00","title":"The Welcome Drop In/Bolton Methodist Mission/Third Space"},"type":"Feature"},
		{"geometry":{"coordinates":[-2.40791,53.58601],"type":"Point"},"properties":{"_source":"warm_welcome","address":"Tonge Moor UCAN Centre, Bolton, Greater Manchester BL2 2LE","description":" We can also help with debt, benefits, employment, training, housing and more.","hours":"Mo 09:30-12:00; Th 09:30-12:00","title":"Tonge Moor UCAN Centre"},"type":"Feature"},
		{"geometry":{"coordinates":[-2.13578,53.73240],"type":"Point"},"properties":{"_source":"warm_welcome","address":"Vale Baptist Church, Burnley Road,Todmorden, Lancashire OL14 8JY","description":"","hours":"Tu 12:00-15:00","title":"Vale Baptist Church"},"type":"Feature"},
		{"geometry":{"coordinates":[-2.29335,53.57713],"type":"Point"},"properties":{"_source":"warm_spaces","address":"Saint Peter&#39;s Road, Bury, England, BL9","title":"St Peter’s Church","url":"https://www.stpetersbury.church"},"type":"Feature"},
		{"geometry":{"coordinates":[-2.13754,53.63185],"type":"Point"},"properties":{"_source":"warm_spaces","address":"1 Wesley Street, Rochdale, England, OL12 9RW","title":"Branches Christian Fellowship","url":"https://www.facebook.com/branchesfellowship/"},"type":"Feature"},
		{"geometry":{"coordinates":[-2.41221,53.59137],"type":"Point"},"properties":{"_source":"warm_spaces","address":"Tonge Moor UCAN Centre, 269 Tonge Moor Road, Bolton, England, BL2 2LE","title":"Tonge Moor UCAN Centre"},"type":"Feature"},
		{"geometry":{"coordinates":[-2.33042,53.61435],"type":"Point"},"properties":{"_source":"warm_spaces","address":"off Brandlesholme Road, Bury, England, BL8 4LS","title":"Art For Beginners","url":"https://theenterprisecentre.co.uk"},"type":"Feature"},
		{"geometry":{"coordinates":[-2.33042,53.61435],"type":"Point"},"properties":{"_source":"warm_spaces","address":"The Enterprise Centre, Square lodge, off Brandlesholme Road, Bury, England, BL8 4LS","title":"Crafty Companions","url":"https://theenterprisecentre.co.uk/ "},"type":"Feature"},
		{"geometry":{"coordinates":[-2.22749,53.56107],"type":"Point"},"properties":{"_source":"warm_spaces","address":"Bowlee Community Association, Heywood Old Road, Manchester, England, M24 4SD","title":"Bowlee Community Organisation"},"type":"Feature"},
		{"geometry":{"coordinates":[-2.12453,53.56714],"type":"Point"},"properties":{"_source":"warm_spaces","address":"Trinity Methodist Church, Radcliffe Street, Oldham, England, OL2 5QR","title":"The Methodist Church Oldham Circuit","url":"https://www.oldhammethodist.org.uk"},"type":"Feature"},
		{"geometry":{"coordinates":[-2.14250,53.54617],"type":"Point"},"properties":{"_source":"warm_spaces","address":"Chadderton Library, Burnley Street, Oldham, England, OL9 0JW","title":"Chadderton Library","url":"https://www.oldham.gov.uk/info/200395/find_a_library/1173/delph_library"},"type":"Feature"},
		{"geometry":{"coordinates":[-2.12352,53.54682],"type":"Point"},"properties":{"_source":"warm_spaces","address":"Northmoor Library, Chadderton Way, Oldham, England, OL9 6DH","title":"Northmoor Library","url":"https://www.oldham.gov.uk/info/200395/find_a_library/1173/delph_library"},"type":"Feature"},
		{"geometry":{"coordinates":[-2.45859,53.58202],"type":"Point"},"properties":{"_source":"warm_spaces","address":"Grace Centre, Somerset Road, Bolton, England, BL1 4NE","title":"Grace Church Bolton"},"type":"Feature"},
		{"geometry":{"coordinates":[-2.28976,53.71017],"type":"Point"},"properties":{"_source":"warm_spaces","address":"St Paul&#39;s Centre, Back Constablelee, Rossendale, England, BB4 8HU","title":"Ow do!","url":"https://owdo.space"},"type":"Feature"}
	]
}
