{
	"type": "FeatureCollection",
	"features": [
		{"geometry":{"coordinates":[-2.16068,53.39619],"type":"Point"},"properties":{"_source":"warm_welcome","address":"71 Adswood Road, Cale Green, Stockport SK3 8HR","description":"Open from November 3rd 2022. Thursdays we are open for food, company, conversation etc. Sundays we are open for our church service. Hot drinks are available after the service. ","hours":"Th 10:00-21:00; Su 10:30-12:30","title":"360Life church"},"type":"Feature"},
		{"geometry":{"coordinates":[-2.20534,53.46023],"type":"Point"},"properties":{"_source":"warm_welcome","address":"422 Stockport Road, Manchester M12 4EX","description":" Our 422 cafe is open 9am to 3pm every weekday and we have various activities running throughout the week. Drop by on Tuesdays 12pm for our Community Lunch! We have toys and games available for children, and an affordable cafe with a pay-it-forward scheme.","hours":"Mo 09:00-15:00; Tu 09:00-15:00; We 09:00-15:00; Th 09:00-15:00; Fr 09:00-15:00","title":"422 Community Hub"},"type":"Feature"},
		{"geometry":{"coordinates":[-2.16425,53.47171],"type":"Point"},"properties":{"_source":"warm_welcome","address":"Openshaw Resource Centre, 10 Catherine Street, Openshaw, Manchester M11 1WF","description":"We are focussing on people over the age of 50 Please note that we are closed on Bank Holidays","hours":"Mo 09:30-15:00; Tu 09:30-15:00; We 09:30-15:00; Th 09:30-15:00; Fr 09:30-15:00","title":"Age UK Manchester"},"type":"Feature"},
		{"geometry":{"coordinates":[-2.18655,53.36669],"type":"Point"},"properties":{"_source":"warm_welcome","address":"Church Road, Cheadle Hulme, Cheshire SK8 7JL","description":"Open from 02-11-2022. We are working with other churches across Cheadle Hulme; there will be one church space in our area open every day.","hours":"We 10:00-14:00","title":"All Saints Cheadle Hulme"},"type":"Feature"},
		{"geometry":{"coordinates":[-2.31312,53.44382],"type":"Point"},"properties":{"_source":"warm_welcome","address":"Barton Road, Stretford, Manchester M32 9RL","description":"Open from Wednesday 16 November 2022. Every Wednesday morning: free tea, coffee and biscuits; toys and games for adults and children. Community Afternoon first Sunday of each month: toys and games, painting etc; chess, dominoes etc for adults; free tea, coffee and biscuits, and usually cake!","hours":"We 10:30-13:00; Su 14:00-16:00","title":"All Saints Church, Stretford"},"type":"Feature"},
		{"geometry":{"coordinates":[-2.25491,53.48589],"type":"Point"},"properties":{"_source":"warm_welcome","address":"Audacious Church, Trinity Way, Salford M3 7BB","hours":"Tu 19:00-21:00; Th 10:00-12:00; Su 10:00-14:00","title":"Audacious Foundation"},"type":"Feature"},
		{"geometry":{"coordinates":[-2.26225,53.42243],"type":"Point"},"properties":{"_source":"warm_welcome","address":"23 Merseybank Avenue, Chorlton, Manchester M21 7NT","description":"","hours":"Mo 09:00-16:00; Tu 09:00-19:00; We 09:00-16:00; Th 09:00-16:00; Fr 09:00-14:00","title":"Barlow Moor Community Association Ltd"},"type":"Feature"},
		{"geometry":{"coordinates":[-2.25944,53.49813],"type":"Point"},"properties":{"_source":"warm_welcome","address":"The Naz Community Hall, Great Clowes Street, Lower Broughton, Salford M7 1ZQ","description":"Everyone is welcome. We are hoping to develop more child-friendly spaces over the coming months. Our Pop-Up Café is open to everyone! We serve free hot drinks, biscuits and a light lunch. Ask about our Food and Clothes Pantry or drop into our Wednesday Craft Group for adults, 10am-12pm.","hours":"Tu 12:00-14:30; We 10:00-15:30; Th 10:00-14:00; Su 12:30-14:15","title":"BCC-Salford (Naz Community Hall)"},"type":"Feature"},
		{"geometry":{"coordinates":[-2.16334,53.36306],"type":"Point"},"properties":{"_source":"warm_welcome","address":"Robins Lane, Bramhall, Stoclport SK7 2PE","description":"Open from 7/11/2022. Child friendly, newspapers, board games","hours":"Mo 10:00-16:00","title":"Bramhall United Reformed Church"},"type":"Feature"},
		{"geometry":{"coordinates":[-2.24397,53.45067],"type":"Point"},"properties":{"_source":"warm_welcome","address":"Cornerstone Day Centre, Ingham House, Hulme, Manchester M14 7Js","description":"","hours":"Mo 12:00-13:30; Tu 12:00-13:30; We 12:00-13:30; Th 12:00-13:30; Fr 12:00-13:30","title":"Caritas diocese of salford"},"type":"Feature"},
		{"geometry":{"coordinates":[-2.12319,53.45759],"type":"Point"},"properties":{"_source":"warm_welcome","address":"Carmel Christian Centre, Seymour Street, Denton, Denton, MANCHESTER, Lancashire M34 3PF","description":" we have toilet with facilities and a shower room and access to a washing and drying machine","hours":"Tu 10:00-15:00; We 10:00-15:00; Th 10:00-15:00; Su 10:00-12:00","title":"Carmel Christian Centre"},"type":"Feature"},
		{"geometry":{"coordinates":[-2.21711,53.39309],"type":"Point"},"properties":{"_source":"warm_welcome","address":"Cheadle Parish Office, Cheadle, Cheshire SK8 1DW","description":"Open from 07/11/22.","hours":"Mo 08:00-16:00; Tu 08:00-16:00; We 08:00-16:00; Th 08:00-16:00; Fr 08:00-16:00; Sa 09:00-15:00","title":"Cheadle Parish PCC"},"type":"Feature"},
		{"geometry":{"coordinates":[-2.27472,53.43921],"type":"Point"},"properties":{"_source":"warm_welcome","address":"CHORLTON CEENTRAL CHURCH, CHORLTON, MANCHESTER M21 8BF","description":"Open from 24/11/2022. We are open every Sunday morning from 10.30 for a church service. Refreshments of tea and coffee are served after the service and we have a free soup lunch once a month to which all are welcome. On Thursdays there is a simple pasta meal and activities for ","hours":"Th 15:30-18:00; Su 10:30-13:00","title":"CHORLTON CENTRAL CHURCH"},"type":"Feature"},
		{"geometry":{"coordinates":[-2.27796,53.44565],"type":"Point"},"properties":{"_source":"warm_welcome","address":"Manchester Road, Chorlton, Manchester M21 9PN","description":"","hours":"Mo 09:00-17:00; Tu 09:00-20:00; Th 09:00-20:00; Fr 09:00-17:00; Sa 09:00-17:00","title":"Chorlton Library"},"type":"Feature"},
		{"geometry":{"coordinates":[-2.35529,53.45792],"type":"Point"},"properties":{"_source":"warm_welcome","address":"Lostock Road, Davyhulme, Manchester M41 0TD","description":"Open from Monday 28 November.","hours":"Mo 09:00-12:00","title":"Christ Church Davyhulme"},"type":"Feature"},
		{"geometry":{"coordinates":[-2.21528,53.48599],"type":"Point"},"properties":{"_source":"warm_welcome","address":"Church of the Apostles, Ridgway Street, Miles Platting, Manchester M40 7FY","description":"A warm welcoming space, home to our Social Super Market too. Advice and support available on Wednesdays, as well as members of the Be Well team. ","hours":"Tu 12:00-16:00; We 12:00-19:00; Fr 10:00-16:00; Sa 12:00-14:00","title":"Church of the Apostles"},"type":"Feature"},
		{"geometry":{"coordinates":[-2.23839,53.50635],"type":"Point"},"properties":{"_source":"warm_welcome","address":"Khizra Mosque 421-425 Cheetham Hill Road, Manchester, Greater Manchester M8 0PF","description":"Monday for women and friday for men in the community hallMonday for women and friday for men in the community hall","hours":"Mo 09:30-12:30; Fr 14:00-16:00","title":"Communities for All / Khizra Mosque"},"type":"Feature"},
		{"geometry":{"coordinates":[-2.16199,53.39109],"type":"Point"},"properties":{"_source":"warm_welcome","address":"Garners Lane, Stockport, Cheshire SK3 8QS","description":"Open from Thursday Nov 10th.","hours":"Th 10:00-14:00","title":"Davenport Methodist Church"},"type":"Feature"},
		{"geometry":{"coordinates":[-2.23180,53.41804],"type":"Point"},"properties":{"_source":"warm_welcome","address":"692 Wilmslow Rd, Didsbury, Manchester M20 2DN","description":"","hours":"Mo 09:00-20:00; Tu 09:00-20:00; Th 09:00-17:00; Fr 09:00-17:00; Sa 09:00-17:00","title":"Didsbury Library"},"type":"Feature"},
		{"geometry":{"coordinates":[-2.14998,53.48085],"type":"Point"},"properties":{"_source":"warm_welcome","address":"28 Ashton Hill Lane, Droylsden, Manchester M43 7UU","description":"Open from 02-11-2022.","hours":"We 10:00-13:30","title":"Droylsden Independent Church"},"type":"Feature"},
		{"geometry":{"coordinates":[-2.28232,53.41254],"type":"Point"},"properties":{"_source":"warm_welcome","address":"St Michaels Hall, Wythenshawe, Manchester M230QR","description":"","hours":"Fr 09:00-10:30","title":"Eden family Cafe "},"type":"Feature"},
		{"geometry":{"coordinates":[-2.16491,53.50765],"type":"Point"},"properties":{"_source":"warm_welcome","address":"Oldham Road, Failsworth, Manchester M35 0FJ","description":"","hours":"Mo 09:00-19:00; Tu 09:00-19:00; We 09:00-19:00; Th 09:00-19:00; Fr 09:00-17:00; Sa 09:30-13:00","title":"Failsworth Library"},"type":"Feature"},
		{"geometry":{"coordinates":[-2.19015,53.35979],"type":"Point"},"properties":{"_source":"warm_welcome","address":"Grove Lane Baptist Church, Pingate Lane Sth, Cheadle Hulme, Cheadle Hulme SK8 7NP","description":"Open from 31-10-22. We are working with other churches in the area; there will be one church space open every day....We have a wide range of toys for pre-school children. ","hours":"Mo 14:30-17:00","title":"Grove Lane Baptist Church"},"type":"Feature"},
		{"geometry":{"coordinates":[-2.21513,53.34947],"type":"Point"},"properties":{"_source":"warm_welcome","address":"Handforth Library, Wilmslow Road, Handforth, Cheshire SK9 3ES","description":" Parking nearby","hours":"Mo 09:30-17:00; Tu 09:30-19:00; Th 09:30-17:00; Fr 09:30-17:00; Sa 09:30-13:00","title":"Handforth Library"},"type":"Feature"},
		{"geometry":{"coordinates":[-2.21650,53.36903],"type":"Point"},"properties":{"_source":"warm_welcome","address":"Wilmslow Road, Heald Green, Cheadle, Cheshire SK8 3BH","description":"Open from 07/11/2022.","hours":"Mo 13:00-17:00","title":"Heald Green United Reformed Church"},"type":"Feature"},
		{"geometry":{"coordinates":[-2.26770,53.53257],"type":"Point"},"properties":{"_source":"warm_welcome","address":"275 Bury Old Road, Prestwich, Greater Manchester M25 1JA","description":"Open from Weekly from October 11th. We run a Food Pantry alongside the Warm Space Cafe for anyone who needs additional support with food or household items","hours":"Tu 15:00-17:00; Th 09:00-11:00","title":"Heaton Park Methodist Church"},"type":"Feature"},
		{"geometry":{"coordinates":[-2.23740,53.47133],"type":"Point"},"properties":{"_source":"warm_welcome","address":"King's House, Sidney Street, Manchester M1 7HB","description":"","hours":"Mo 13:00-15:00; Tu 13:00-15:00; We 13:00-15:00; Th 13:00-15:00; Fr 13:00-15:00","title":"King's Church Manchester"},"type":"Feature"},
		{"geometry":{"coordinates":[-2.28271,53.40928],"type":"Point"},"properties":{"_source":"warm_welcome","address":"St Michael's Church Hall, Northern Moor, Manchester M23 0PX","hours":"Sa 09:00-10:30","title":"King's Church Wythenshawe (Eden Cafe)"},"type":"Feature"},
		{"geometry":{"coordinates":[-2.12668,53.51506],"type":"Point"},"properties":{"_source":"warm_welcome","address":"St Chad's Centre, Limehurst, Oldham Ol8 3HH","description":"","hours":"Tu 14:00-17:00; We 14:00-19:00; Th 14:00-19:00; Fr 09:30-13:00; Sa 09:30-13:00","title":"Limehurst Library"},"type":"Feature"},
		{"geometry":{"coordinates":[-2.20283,53.45897],"type":"Point"},"properties":{"_source":"warm_welcome","address":"519 Stockport Road, Longsight, Manchester M12 4NE","description":"","hours":"Mo 09:00-20:00; Tu 09:00-20:00; We 09:00-17:00; Th 09:00-17:00; Sa 09:00-17:00","title":"Longsight Library (MCC)"},"type":"Feature"},
		{"geometry":{"coordinates":[-2.45918,53.37284],"type":"Point"},"properties":{"_source":"warm_welcome","address":"Higher Lane, Lymm, Cheshire WA13 0AZ","description":"Open from 7th November.","hours":"Mo 10:00-15:30","title":"Lymm Baptist Church"},"type":"Feature"},
		{"geometry":{"coordinates":[-2.24465,53.47810],"type":"Point"},"properties":{"_source":"warm_welcome","address":"Central Library, St Peters Square, Manchester M2 5PD","description":"","hours":"Mo 09:00-20:00; Tu 09:00-20:00; We 09:00-20:00; Th 09:00-20:00; Fr 09:00-17:00; Sa 09:00-17:00","title":"Manchester Central Library"},"type":"Feature"},
		{"geometry":{"coordinates":[-2.27040,53.44803],"type":"Point"},"properties":{"_source":"warm_welcome","address":"82 Cromwell Avenue, Whalley Range, Manchester M16 0BG","description":"Open from 11.11.2022. We are arranging advice and information sessions on different topics each week.","hours":"Fr 10:00-13:00","title":"Manley Park Methodist Church and JNR8"},"type":"Feature"},
		{"geometry":{"coordinates":[-2.28482,53.38314],"type":"Point"},"properties":{"_source":"warm_welcome","address":"Tuffley road, Manchester, Greater Manchester M23","description":"Open from 16.11.2020. All are welcome","hours":"We 09:30-12:00; Su 10:30-12:00","title":"Newall Green Baptist Church"},"type":"Feature"},
		{"geometry":{"coordinates":[-2.19306,53.45621],"type":"Point"},"properties":{"_source":"warm_welcome","address":"95-97 Northmoor Road, Manchester, Greater Manchester M12 5RT","description":"","hours":"Mo 10:00-13:00; Tu 10:00-13:00; We 10:00-14:00; Th 10:00-13:00; Fr 12:00-14:00; Sa 10:00-13:00","title":"Northmoor Community Association"},"type":"Feature"},
		{"geometry":{"coordinates":[-2.35814,53.41996],"type":"Point"},"properties":{"_source":"warm_welcome","address":"Sale West Youth and Community Centre, Newbury Avenue, Sale, Manchester M33 4QW","description":"","hours":"Mo 10:00-13:30","title":"Our Sale West"},"type":"Feature"},
		{"geometry":{"coordinates":[-2.11701,53.34850],"type":"Point"},"properties":{"_source":"warm_welcome","address":"Poynton LIBRARY, Park Lane, Poynton, Cheshire SK12 1RB","description":"","title":"Poynton Library"},"type":"Feature"},
		{"geometry":{"coordinates":[-2.26351,53.48381],"type":"Point"},"properties":{"_source":"warm_welcome","address":"Saint Philip's Chapel Street Church, Salford, Manchester M3 6FR","description":" Chapel Tots every Tuesday Morning (term time). Drop-In Cafe every Tuesday afternoon (term time). Art Club every Wednesday (term time). Church Services every Sunday. All Welcome!","hours":"Tu 13:00-15:00; We 12:30-14:00; Su 09:30-13:00","title":"Saint Philip's Chapel Street"},"type":"Feature"},
		{"geometry":{"coordinates":[-2.32969,53.42644],"type":"Point"},"properties":{"_source":"warm_welcome","address":"The Salvation Army, 27 Ashton Lane, Sale, Greater Manchester M33 6NP","hours":"We 10:00-13:00; Th 13:30-15:30; Fr 12:00-14:00","title":"Sale Salvation Army"},"type":"Feature"},
		{"geometry":{"coordinates":[-2.25244,53.42879],"type":"Point"},"properties":{"_source":"warm_welcome","address":"Southern Gate, 729 Princess Road, Didsbury, Manchester M20 2LT","description":" Cosy Community Mondays swap shop","hours":"Mo 10:00-13:00","title":"Southway Housing"},"type":"Feature"},
		{"geometry":{"coordinates":[-2.18354,53.36515],"type":"Point"},"properties":{"_source":"warm_welcome","address":"St Ann's RC Church, 29, Vicarage Avenue, Cheadle Hulme SK8 7JW","description":" We are working with other churches in Cheadle Hulme to ensure that there is a Warm Space open in the area every day of the week.","hours":"Fr 13:00-16:00","title":"St Ann's Cheadle Hulme"},"type":"Feature"},
		{"geometry":{"coordinates":[-2.28437,53.44110],"type":"Point"},"properties":{"_source":"warm_welcome","address":"St Clement's Church, Edge Lane, Chorlton M219AE","description":"","hours":"We 10:30-12:00","title":"St Clement's Parish, Chorlton"},"type":"Feature"},
		{"geometry":{"coordinates":[-2.26781,53.45689],"type":"Point"},"properties":{"_source":"warm_welcome","address":"St John's Centre, St John's Road, Old Trafford, Manchester, Manchester M16 7GX","description":"","hours":"Th 09:30-13:00","title":"St John's Centre"},"type":"Feature"},
		{"geometry":{"coordinates":[-2.26939,53.53734],"type":"Point"},"properties":{"_source":"warm_welcome","address":"St Margaret's Rd , Prestwich, Bury M25 2QB","description":"","hours":"Th 09:00-12:00","title":"St Margaret's church"},"type":"Feature"},
		{"geometry":{"coordinates":[-2.38208,53.44242],"type":"Point"},"properties":{"_source":"warm_welcome","address":"Church Road, Flixton, Manchester M41 6HR","description":"Open from November 2022. We are on open space for the community of Flixton, Urmston and surrounding area. We are a welcoming space for our community to drop in for a chat, a brew, or just to take a few minutes out.","hours":"Fr 09:30-11:30","title":"St Michael’s Church Flixton "},"type":"Feature"},
		{"geometry":{"coordinates":[-2.19159,53.44447],"type":"Point"},"properties":{"_source":"warm_welcome","address":"Stockport Road, Levenshulme, Manchester M19 3BS","description":"Open from 08-11-2022. We will open St Peter’s up every Tuesday starting at 12pm with a light lunch, refreshments and different activities happening, ending around 3pm. All are welcome, do spread the word.","hours":"Tu 12:00-15:00","title":"St Peter's Church, Levenshulme"},"type":"Feature"},
		{"geometry":{"coordinates":[-2.42610,53.42011],"type":"Point"},"properties":{"_source":"warm_welcome","address":"St. Mary's Church, Manchester Road, Partington, Manchester M31 4FB","description":"Open from 20-10-2022. A Warm Welcome to a space to relax with a warm drink, company and conversation.","hours":"Th 09:30-12:00","title":"St. Mary's Church, Partington"},"type":"Feature"},
		{"geometry":{"coordinates":[-2.33664,53.51563],"type":"Point"},"properties":{"_source":"warm_welcome","address":"Station Road, Swinton, Greater Manchester M27 6BT","description":"Open from 03-11.2022.","hours":"Th 10:00-15:00","title":"Swinton Salvation Army "},"type":"Feature"},
		{"geometry":{"coordinates":[-2.25246,53.39944],"type":"Point"},"properties":{"_source":"warm_welcome","address":"Harper Road, Sharston, Manchester M22 4RG","description":" We have a Community Grocery on site for those who are struggling and all members of the grocery have access to a range of free support courses including healthy cooking classes, tots group, mental health group, exploring Christianity plus many more","hours":"Mo 08:00-16:00; Tu 08:00-16:00; We 08:00-16:00; Th 08:00-16:00; Fr 08:00-16:00; Su 11:30-14:00","title":"The Message Trust"},"type":"Feature"},
		{"geometry":{"coordinates":[-2.16504,53.47288],"type":"Point"},"properties":{"_source":"warm_welcome","address":"First Floor, Unit 14 Lime Square, Openshaw, Manchester M11 1DA","hours":"Th 10:00-12:30","title":"The Salvation Army"},"type":"Feature"},
		{"geometry":{"coordinates":[-2.31983,53.49371],"type":"Point"},"properties":{"_source":"warm_welcome","address":"87-89 Cholmondeley Road, Salford M6 8PU","description":"Open from 31st October.","hours":"Mo 10:00-12:00; Tu 12:00-14:00; We 12:00-14:00; Th 09:30-11:00","title":"The Vine Community Hub"},"type":"Feature"},
		{"geometry":{"coordinates":[-2.17094,53.46078],"type":"Point"},"properties":{"_source":"warm_welcome","address":"127 Wellington Street, Gorton, Manchester M18 8BE","description":" A warm welcoming space. On Tuesdays we have a drop-in cafe with free tea and coffee.","hours":"Tu 10:00-12:00; Su 10:00-13:00","title":"Trinity Baptist Church, Gorton"},"type":"Feature"},
		{"geometry":{"coordinates":[-2.28337,53.47398],"type":"Point"},"properties":{"_source":"warm_welcome","address":"King William Street, Salford Quays, Whole of Salford M50 3UQ","description":"","hours":"Tu 09:30-11:30; We 10:00-14:00; Th 17:30-19:00","title":"URC / Oasis"},"type":"Feature"},
		{"geometry":{"coordinates":[-2.22751,53.43511],"type":"Point"},"properties":{"_source":"warm_welcome","address":"410 Wilmslow Road, Withington, Manchester M20 3BN","description":"","hours":"Mo 09:30-19:30; Tu 13:30-19:30; We 09:30-19:30; Fr 09:30-16:30; Sa 09:30-16:30","title":"Withington Library, Manchester City Council"},"type":"Feature"},
		{"geometry":{"coordinates":[-2.26742,53.37456],"type":"Point"},"properties":{"_source":"warm_welcome","address":"7 Stoneacre Road, Manchester, England-Greater Manchester M22 1BP","description":"","hours":"Fr 09:00-11:30","title":"Woodhouse Park FAmily Centre"},"type":"Feature"},
		{"geometry":{"coordinates":[-2.16183,53.40433],"type":"Point"},"properties":{"_source":"stockport_council","address":"Stockport Baptist Church, Thomson Street, Stockport, SK3 9DR","description":"Hot Tea and Coffee, Charging Facilities","hours":"Tu 10:00-12:00","title":"Olive Sanctuary"},"type":"Feature"},
		{"geometry":{"coordinates":[-2.16375,53.38081],"type":"Point"},"properties":{"_source":"stockport_council","address":"84 North Park Road, Bramhall, Stockport, SK7 3HS","description":"Free Wi-Fi, Charging Facilities, Hot Tea and Coffee","hours":"Mo 11:00-14:00; We 11:00-14:00","title":"Bramhall Community Hub "},"type":"Feature"},
		{"geometry":{"coordinates":[-2.14131,53.41196],"type":"Point"},"properties":{"_source":"stockport_council","address":"Vernon Park Café, Turncroft Lane, Stockport, SK1 4AR","description":"Accessible Access, Free Wi-Fi, Charging Facilities, Hot Tea and Coffee","hours":"Mo-Su 10:00-16:00","title":"Pure Coffee - Vernon Park"},"type":"Feature"},
		{"geometry":{"coordinates":[-2.15782,53.40556],"type":"Point"},"properties":{"_source":"stockport_council","address":"Windmill Café, Edward Street, Stockport, SK1 3UR","description":"Accessible Access, Free Wi-Fi, Charging Facilities, Hot Tea and Coffee","hours":"Mo-Fr 09:00-15:30","title":"Pure Coffee - Windmill Café"},"type":"Feature"},
		{"geometry":{"coordinates":[-2.13651,53.42831],"type":"Point"},"properties":{"_source":"stockport_council","address":"Northumberland Road , Brinnington , Stockport, SK5 8LS","description":"Hot Tea and Coffee, Accessible Access, Free Wi-Fi, Magazines and Newspapers","hours":"Mo 13:00-17:00; Tu 11:00-13:00; Th 16:00-19:00","title":"Brinnington Park Leisure Complex"},"type":"Feature"},
		{"geometry":{"coordinates":[-2.18291,53.40112],"type":"Point"},"properties":{"_source":"stockport_council","address":"Heathbank Road, Cheadle Heath, Stockport , SK3 0UP","description":"Accessible Access, Charging Facilities, Hot Tea and Coffee","hours":"Mo 09:00-12:00; We 09:00-14:00; Th 09:00-14:00; Fr 09:00-14:00","title":"Life Leisure Avondale "},"type":"Feature"},
		{"geometry":{"coordinates":[-2.18567,53.40440],"type":"Point"},"properties":{"_source":"stockport_council","address":"Rose Walker Community Centre, Essex Avenue, Stockport, SK3 0JA","description":"Accessible Access, Free Wi-Fi, Charging Facilities, Hot Tea and Coffee, Magazines and Newspapers, Library Corner","hours":"Fr 10:00-15:00","title":"Friendly Fridays "},"type":"Feature"},
		{"geometry":{"coordinates":[-2.20599,53.45531],"type":"Point"},"properties":{"_source":"stockport_council","address":"307 Dickenson Road, Longsight, Manchester, M13 0YW","description":"Accessible Access, Free Wi-Fi, Hot Tea and Coffee, Magazines and Newspapers, Book Borrowing/Swapping, Library Corner","hours":"Tu 09:00-15:00; Th 09:00-15:00; Fr 09:00-15:00","title":"Yaran Northwest"},"type":"Feature"},
		{"geometry":{"coordinates":[-2.15938,53.39997],"type":"Point"},"properties":{"_source":"stockport_council","address":"112 Shaw Heath, Stockport, Greater Manchester, SK2 6QS","description":"Accessible Access, Hot Tea and Coffee","hours":"Mo 09:30-15:00; Tu 09:30-15:00; We 09:30-15:00; Th 09:30-15:00","title":"Walthew House"},"type":"Feature"},
		{"geometry":{"coordinates":[-2.16022,53.39605],"type":"Point"},"properties":{"_source":"stockport_council","address":"71 Adswood Road, Cale Green, Stockport, SK3 8HR","description":"Accessible Access, Charging Facilities, Hot Tea and Coffee, Magazines and Newspapers","hours":"Th 09:30-12:00","title":"Cale Green Life Centre"},"type":"Feature"},
		{"geometry":{"coordinates":[-2.22770,53.36458],"type":"Point"},"properties":{"_source":"stockport_council","address":"108 Outwood Road, Heald Green, Stockport, SK8 3LL","description":"Accessible Access, Free Wi-Fi, Hot Tea and Coffee, Magazines and Newspapers, Charging Facilities","hours":"Su 12:30-14:30","title":"LifeChurch Heald Green"},"type":"Feature"},
		{"geometry":{"coordinates":[-2.16022,53.39605],"type":"Point"},"properties":{"_source":"stockport_council","address":"Northumberland Road, Brinnington, Stockport, SK5 8BS","description":"Accessible Access, Hot Tea and Coffee","hours":"Tu 14:00-16:00","title":"St. Luke's Church"},"type":"Feature"},
		{"geometry":{"coordinates":[-2.23059,53.36820],"type":"Point"},"properties":{"_source":"stockport_council","address":"Outwood Road, Heald Green, Stockport, SK8 3JQ","description":"Accessible Access, Hot Tea and Coffee, Magazines and Newspapers, Book Borrowing/Swapping, Library Corner","hours":"Mo 09:00-17:00; Tu 09:00-17:00; Th 09:00-17:00; Fr 09:00-17:00","title":"St Catherine's Church Heald Green The Foyer"},"type":"Feature"},
		{"geometry":{"coordinates":[-2.17233,53.42146],"type":"Point"},"properties":{"_source":"stockport_council","address":"222 Wellington Road North, Heaton Chapel, Stockport, SK4 2QN","description":"Accessible Access, Free Wi-Fi, Charging Facilities, Hot Tea and Coffee, Library Corner, Book Borrowing/Swapping","hours":"We 10:00-15:00","title":"Coach House Church"},"type":"Feature"},
		{"geometry":{"coordinates":[-2.13327,53.42669],"type":"Point"},"properties":{"_source":"stockport_council","address":"First House, Beswick Parade , Brinnington , Sk5 8EN","description":"Accessible Access, Free Wi-Fi, Charging Facilities, Hot Tea and Coffee, Magazines and Newspapers, Book Borrowing/Swapping","hours":"Mo 09:30-14:00; Tu 09:30-14:00","title":"1st Stop Cafe "},"type":"Feature"},
		{"geometry":{"coordinates":[-2.15881,53.41660],"type":"Point"},"properties":{"_source":"stockport_council","address":"1 Penny Lane, Lancashire Hill , Stockport, SK5 7SA","description":"Hot Tea and Coffee, Magazines and Newspapers","hours":"Mo 09:30-11:30","title":"Lancashire Hill Community Centre "},"type":"Feature"},
		{"geometry":{"coordinates":[-2.18325,53.41000],"type":"Point"},"properties":{"_source":"stockport_council","address":"Craig Road, Heaton Norris, Stockport, SK4 2AN","description":"Accessible Access, Charging Facilities, Hot Tea and Coffee, Magazines and Newspapers","hours":"Mo 13:30-15:00","title":"Russell Gardens Brew and Biscuit"},"type":"Feature"},
		{"geometry":{"coordinates":[-2.21078,53.39568],"type":"Point"},"properties":{"_source":"stockport_council","address":"Queens Gardens, Cheadle, Stockport, SK8 2BE","description":"Accessible Access, Free Wi-Fi, Charging Facilities, Hot Tea and Coffee, Magazines and Newspapers","hours":"Tu 13:30-15:30","title":"Queens Gardens Come and Natter"},"type":"Feature"},
		{"geometry":{"coordinates":[-2.17890,53.38772],"type":"Point"},"properties":{"_source":"stockport_council","address":"Lark Hill Road, Cheadle Hulme, Stockport, SK8 5RB","description":"Accessible Access, Charging Facilities, Hot Tea and Coffee, Magazines and Newspapers, Free Wi-Fi","hours":"We 10:30-12:30","title":"Wimborne Close Coffee Morning"},"type":"Feature"},
		{"geometry":{"coordinates":[-2.19073,53.36708],"type":"Point"},"properties":{"_source":"stockport_council","address":"Hulme Hall Road, Cheadle Hulme, Stockport, SK8 6LJ","description":"Accessible Access, Free Wi-Fi, Charging Facilities, Hot Tea and Coffee, Magazines and Newspapers","hours":"Th 13:30-15:00","title":"Smithy Green Coffee and Cake"},"type":"Feature"},
		{"geometry":{"coordinates":[-2.12104,53.39136],"type":"Point"},"properties":{"_source":"stockport_council","address":"Mallowdale Road, Offerton, Stockport, SK2 5NX","description":"Accessible Access, Free Wi-Fi, Hot Tea and Coffee, Charging Facilities, Library Corner, Book Borrowing/Swapping, Free Devices to use","title":"Offerton Community Centre"},"type":"Feature"},
		{"geometry":{"coordinates":[-2.16022,53.39605],"type":"Point"},"properties":{"_source":"stockport_council","address":"71 Adswood Road, Cale Green, Stockport, SK3 8HR","description":"Accessible Access, Charging Facilities, Hot Tea and Coffee, Magazines and Newspapers, Book Borrowing/Swapping","hours":"Th 10:00-21:00","title":"Cale Green Life Centre"},"type":"Feature"},
		{"geometry":{"coordinates":[-2.18587,53.36702],"type":"Point"},"properties":{"_source":"stockport_council","address":"Church Road, Cheadle Hulme, Cheadle, SK8 7JL","description":"Accessible Access, Charging Facilities, Hot Tea and Coffee, Magazines and Newspapers, Library Corner, Book Borrowing/Swapping, Free Wi-Fi","hours":"We 10:00-14:00","title":"All Saints Church Cheadle Hulme"},"type":"Feature"},
		{"geometry":{"coordinates":[-2.16486,53.35165],"type":"Point"},"properties":{"_source":"stockport_council","address":"Woodford Road, Bramhall, Stockport, SK7 1PB","description":"Accessible Access, Hot Tea and Coffee","hours":"We 14:00-16:00; Th 14:00-16:00","title":"Bramhall Baptist Church"},"type":"Feature"},
		{"geometry":{"coordinates":[-2.16730,53.39026],"type":"Point"},"properties":{"_source":"stockport_council","address":"Adswood Young Peoples Centre, Neston Grove, Adswood, SK3 8PH","description":"Free Wi-Fi, Charging Facilities, Hot Tea and Coffee, Accessible Access, Library Corner","hours":"Th 18:00-20:00","title":"SEN Youth Club"},"type":"Feature"},
		{"geometry":{"coordinates":[-2.15957,53.43754],"type":"Point"},"properties":{"_source":"stockport_council","address":"2 Gorton Road, Reddish, Stockport, SK5 6AE","description":"Hot Tea and Coffee","hours":"Tu 12:00-14:00; We 12:00-14:00; Th 11:00-13:00","title":"Re:dish hub"},"type":"Feature"},
		{"geometry":{"coordinates":[-2.16508,53.40337],"type":"Point"},"properties":{"_source":"stockport_council","address":"Bengal St, Edgeley, Stockport , SK3 9HT","description":"Accessible Access, Free Wi-Fi, Free Devices to use, Charging Facilities, Hot Tea and Coffee, Magazines and Newspapers","hours":"Tu 14:00-16:30","title":"York Street Community Centre Computer Classes"},"type":"Feature"},
		{"geometry":{"coordinates":[-2.15782,53.40556],"type":"Point"},"properties":{"_source":"stockport_council","address":"Cornerstone, Edward Street, Stockport, SK1 4NQ","description":"Accessible Access, Free Devices to use, Free Wi-Fi, Charging Facilities, Hot Tea and Coffee, Magazines and Newspapers","hours":"Th 11:00-14:00","title":"Cornerstone Computer Club"},"type":"Feature"},
		{"geometry":{"coordinates":[-2.16347,53.43307],"type":"Point"},"properties":{"_source":"stockport_council","address":"Unit 11 Hurstfield Industrial Estate, Hurst St, Reddish, SK5 7BB","description":"Accessible Access, Free Wi-Fi, Free Devices to use, Charging Facilities, Hot Tea and Coffee, Magazines and Newspapers","hours":"Mo 12:00-16:00; We 12:00-16:00; Fr 12:00-16:00","title":"Reddish Men in Sheds"},"type":"Feature"},
		{"geometry":{"coordinates":[-2.19119,53.38872],"type":"Point"},"properties":{"_source":"stockport_council","address":"222 Councillor Lane, Cheadle, Cheshire, SK8 2JG","description":"Hot Tea and Coffee, Accessible Access","hours":"Fr 14:00-18:00","title":"All Hallows Church"},"type":"Feature"},
		{"geometry":{"coordinates":[-2.16713,53.39994],"type":"Point"},"properties":{"_source":"stockport_council","address":"Stockport County, Edgeley Park, Hardcastle Road, Stockport, SK3 9DD","description":"Hot Tea and Coffee, Magazines and Newspapers","hours":"We 09:30-12:00","title":"County Community Trust - County's Social Well-Being Group "},"type":"Feature"},
		{"geometry":{"coordinates":[-2.21701,53.39327],"type":"Point"},"properties":{"_source":"stockport_council","address":"11 Wilmslow Road, Cheadl, Cheshire, SK8 1DW","description":"Free Wi-Fi, Accessible Access, Magazines and Newspapers, Hot Tea and Coffee, Library Corner","hours":"Mo-Sa 09:00-15:00","title":"The Upper Room Cheadle"},"type":"Feature"},
		{"geometry":{"coordinates":[-2.13541,53.42794],"type":"Point"},"properties":{"_source":"stockport_council","address":"Northumberland Road, Brinnington, Stockport, SK5 8LS","description":"Accessible Access, Charging Facilities, Hot Tea and Coffee, Magazines and Newspapers, Library Corner, Book Borrowing/Swapping","hours":"Mo 10:00-18:00; We 10:00-18:00","title":"The Lighthouse Centre, (aka Brinnington Community Church)"},"type":"Feature"},
		{"geometry":{"coordinates":[-2.13384,53.40321],"type":"Point"},"properties":{"_source":"stockport_council","address":"Offerton Lane, Offerton, Stockport, SK2 5AG","description":"Hot Tea and Coffee, Accessible Access, Free Wi-Fi, Charging Facilities","hours":"Fr 10:30-13:30","title":"St Albans Church"},"type":"Feature"},
		{"geometry":{"coordinates":[-2.17118,53.39411],"type":"Point"},"properties":{"_source":"stockport_council","address":"Siddington Avenue, Bridgehall, Stockport, SK3 8NR","description":"Accessible Access, Free Wi-Fi, Charging Facilities, Hot Tea and Coffee, Library Corner, Book Borrowing/Swapping","title":"Bridgehall Community Centre"},"type":"Feature"},
		{"geometry":{"coordinates":[-2.15993,53.40942],"type":"Point"},"properties":{"_source":"stockport_council","address":"Cafe Area St Peter's Church, St Peter's Square, Stockport, SK1 1NZ","description":"Charging Facilities, Hot Tea and Coffee, Library Corner, Accessible Access, Book Borrowing/Swapping","hours":"Tu 13:30-16:30","title":"Yoruba Women Cultural Heritage"},"type":"Feature"},
		{"geometry":{"coordinates":[-2.23654,53.37292],"type":"Point"},"properties":{"_source":"stockport_council","address":"Heald Green Methodist Church, Brown Lane, Heald Green, SK8 3RR","description":"Accessible Access, Charging Facilities, Hot Tea and Coffee, Book Borrowing/Swapping","hours":"Fr 12:00-16:00","title":"Snack & Chat"},"type":"Feature"},
		{"geometry":{"coordinates":[-2.16512,53.42124],"type":"Point"},"properties":{"_source":"stockport_council","address":"All Saints Road, Heaton Norris, Stockport, SK4 1QA","description":"Hot Tea and Coffee, Magazines and Newspapers, Library Corner, Book Borrowing/Swapping, Accessible Access","hours":"Mo 19:00-21:00; We 12:00-15:00; Th 16:00-20:00; Fr 09:00-12:00; Su 09:30-17:00","title":"All Saints' Church"},"type":"Feature"},
		{"geometry":{"coordinates":[-2.16375,53.38081],"type":"Point"},"properties":{"_source":"stockport_council","address":"84 North Park Road, Bramhall, Stockport , SK7 3HS ","description":"Free Wi-Fi, Charging Facilities, Hot Tea and Coffee","hours":"Mo 10:00-15:00; We 10:00-15:00; Fr 10:00-15:00","title":"Bramhall Community Hub"},"type":"Feature"},
		{"geometry":{"coordinates":[-2.17050,53.40377],"type":"Point"},"properties":{"_source":"stockport_council","address":"Community Centre, 69 Fox Street, Edgeley , Stockport, SK3 9EL ","description":"Hot Tea and Coffee, Library Corner, Accessible Access","hours":"Tu 13:00-15:00; Th 13:00-15:00","title":"Step Ahead Community Group "},"type":"Feature"},
		{"geometry":{"coordinates":[-2.18552,53.37178],"type":"Point"},"properties":{"_source":"stockport_council","address":"65 Swann Lane, Cheadle Hulme, Cheadle, SK8 7HU","description":"Accessible Access, Free Wi-Fi, Hot Tea and Coffee, Magazines and Newspapers, Library Corner, Book Borrowing/Swapping","hours":"Tu 11:00-14:00","title":"Cheadle Hulme United Reformed Church"},"type":"Feature"},
		{"geometry":{"coordinates":[-2.15849,53.40599],"type":"Point"},"properties":{"_source":"stockport_council","address":"Stockport Town Hall , Edward Street , Stockport , SK1 3XE","description":"Free Wi-Fi, Accessible Access, Hot Tea and Coffee","hours":"We 13:00-16:00","title":"Ballroom, Stockport Town hall "},"type":"Feature"},
		{"geometry":{"coordinates":[-2.16950,53.40278],"type":"Point"},"properties":{"_source":"stockport_council","address":"Grenville Street, Edgeley, Stockport, SK3 9EE","description":"Accessible Access, Free Wi-Fi, Charging Facilities, Hot Tea and Coffee, Magazines and Newspapers","hours":"We 12:00-15:00","title":"St Matthew's Church"},"type":"Feature"},
		{"geometry":{"coordinates":[-2.16505,53.41455],"type":"Point"},"properties":{"_source":"stockport_council","address":"Love Lane, Heaton Norris, Stockport, SK4 1JA","description":"Accessible Access, Free Wi-Fi, Hot Tea and Coffee","title":"Heaton Norris Community Centre"},"type":"Feature"},
		{"geometry":{"coordinates":[-2.16488,53.35846],"type":"Point"},"properties":{"_source":"stockport_council","address":"42A Bramhall Lane South, Bramhall, Stockport, SK7 1AH","description":"Free Wi-Fi, Hot Tea and Coffee, Free Devices to use","hours":"Sa 10:00-16:00","title":"The Mill"},"type":"Feature"},
		{"geometry":{"coordinates":[-2.18807,53.40252],"type":"Point"},"properties":{"_source":"stockport_council","address":"Stockport Citadel, 121 Stockport Rd , Stockport, SK3 0JE","description":"Accessible Access, Hot Tea and Coffee, Magazines and Newspapers, Library Corner","hours":"Th 11:00-14:00","title":"The Salvation Army"},"type":"Feature"},
		{"geometry":{"coordinates":[-2.11603,53.37613],"type":"Point"},"properties":{"_source":"stockport_council","address":"Norbury Church, London Road, Hazel Grove, SK7 4RF","description":"Accessible Access, Hot Tea and Coffee","hours":"Mo 10:00-12:00","title":"Norbury Church"},"type":"Feature"},
		{"geometry":{"coordinates":[-2.19128,53.41694],"type":"Point"},"properties":{"_source":"stockport_council","address":"The Heatons Centre, Thornfield Rd, Heaton Moor, SK4 4DQ","description":"Accessible Access, Free Wi-Fi, Charging Facilities, Hot Tea and Coffee, Magazines and Newspapers, Book Borrowing/Swapping","hours":"Mo 13:00-17:00; Th 09:00-17:00","title":"Signpost @The Heatons Centre"},"type":"Feature"},
		{"geometry":{"coordinates":[-2.15634,53.41165],"type":"Point"},"properties":{"_source":"stockport_council","address":"30/31 , Market Place, Stockport, SK1 1ES","description":"Accessible Access, Free Wi-Fi","hours":"Tu-Sa 10:00-17:00; Su 11:00-16:00","title":"Stockport Museum"},"type":"Feature"},
		{"geometry":{"coordinates":[-2.15892,53.40471],"type":"Point"},"properties":{"_source":"stockport_council","address":"Stockport War Memorial Art Gallery, Wellington Road South, Stockport, SK3 8AB","description":"Accessible Access, Free Wi-Fi","hours":"Th 13:00-17:00; Fr 13:00-17:00; Sa 10:00-17:00; Su 11:00-16:00","title":"Stockport War Memorial Art Gallery"},"type":"Feature"},
		{"geometry":{"coordinates":[-2.15509,53.42883],"type":"Point"},"properties":{"_source":"stockport_council","address":"St Marys Drive, South Reddish, Stockport, SK5 7AX","description":"Hot Tea and Coffee, Library Corner, Accessible Access","hours":"We 09:30-12:30","title":"St Marys Church Hall"},"type":"Feature"},
		{"geometry":{"coordinates":[-2.15782,53.40956],"type":"Point"},"properties":{"_source":"stockport_council","address":"Tatton Street, St Petersgate, Stockport, SK1 1EJ","description":"Accessible Access, Hot Tea and Coffee","hours":"Sa 10:00-13:00","title":"St Joseph's Church Hall"},"type":"Feature"},
		{"geometry":{"coordinates":[-2.15842,53.41352],"type":"Point"},"properties":{"_source":"stockport_council","address":"Tiviot Dale Methodist Church , Tiviot Dale, Stockport, SK1 1TA","description":"Accessible Access, Free Wi-Fi, Charging Facilities, Hot Tea and Coffee","hours":"Th 14:00-18:00","title":"Tiviot Dale Methodist Church "},"type":"Feature"},
		{"geometry":{"coordinates":[-2.16266,53.39130],"type":"Point"},"properties":{"_source":"stockport_council","address":"Garners Lane, Davenport, Stockport, SK3 8QS","description":"Accessible Access, Hot Tea and Coffee, Magazines and Newspapers, Library Corner","hours":"Th 10:00-14:00","title":"Davenport Methodist Church"},"type":"Feature"},
		{"geometry":{"coordinates":[-2.19040,53.38050],"type":"Point"},"properties":{"_source":"stockport_council","address":"Off Meadway Rd, Cheadle Hulme, Stockport, SK8 5LS","description":"Accessible Access, Free Wi-Fi, Free Devices to use, Charging Facilities, Hot Tea and Coffee, Book Borrowing/Swapping","hours":"We 10:00-12:00","title":"Stockport Community Foundation at LadyBridge Connect Pavilion"},"type":"Feature"}
	]
}
