{
	"type": "FeatureCollection",
	"features": [
		{"geometry":{"coordinates":[-2.21134,53.16313],"type":"Point"},"properties":{"_source":"warm_welcome","address":"Market Square, Congleton, Cheshire East CW12 1ET","hours":"Mo 09:00-19:00; Tu 09:00-17:00; We 09:00-17:00; Th 09:00-17:00; Fr 09:00-17:00; Sa 09:00-13:00","title":"Cheshire East Congleton Library"},"type":"Feature"},
		{"geometry":{"coordinates":[-2.36418,53.19976],"type":"Point"},"properties":{"_source":"warm_welcome","address":"Cheshire West and Chester, 22 Libraries, Cheshire Cheshire West","description":"For details of individual libraries see https://www.cheshirewestandchester.gov.uk/residents/libraries/find-a-library","title":"Cheshire West and Chester Libraries"},"type":"Feature"},
		{"geometry":{"coordinates":[-2.37339,53.30192],"type":"Point"},"properties":{"_source":"warm_welcome","address":"Toft Road, Knutsford, Cheshire East WA16 0PG","description":"","hours":"Mo 09:00-17:00; Tu 09:00-19:00; We 09:00-13:00; Th 09:00-19:00; Fr 09:00-17:00; Sa 09:00-13:00","title":"Knutsford Library"},"type":"Feature"},
		{"geometry":{"coordinates":[-2.12560,53.26167],"type":"Point"},"properties":{"_source":"warm_welcome","address":"Macclesfield Library, Jordangate, Macclesfield SK10 1EE","description":"","hours":"Mo 09:00-19:00; Tu 09:00-19:00; We 09:00-17:00; Th 09:00-19:00; Fr 09:00-17:00; Sa 09:00-13:00","title":"Macclesfield Library"},"type":"Feature"},
		{"geometry":{"coordinates":[-2.44244,53.18967],"type":"Point"},"properties":{"_source":"warm_welcome","address":"Lewin Street, Middlewich, Cheshire CW10 9AS","description":"","hours":"Mo 09:30-17:00; Tu 09:30-17:00; Th 09:30-19:00; Fr 09:30-17:00; Sa 09:30-13:00","title":"Middlewich Library"},"type":"Feature"},
		{"geometry":{"coordinates":[-2.36210,53.14501],"type":"Point"},"properties":{"_source":"warm_welcome","address":"The Commons, Sandbach, Cheshire CW11 1FJ","description":" Parking, including for Blue Badge holders is free just across the road.","hours":"Mo 09:00-17:00; Tu 09:00-17:00; We 09:00-19:00; Th 09:00-17:00; Fr 09:00-17:00; Sa 09:00-13:00","title":"Sandbach Library"},"type":"Feature"},
		{"geometry":{"coordinates":[-2.25406,53.31162],"type":"Point"},"properties":{"_source":"warm_welcome","address":"St Johns Lindow, Wilmslow, cheshire sk9 6el","description":"Open from 21-11-2022. we are getting a book exchange going, we have board games","hours":"Mo 10:00-12:00; Th 10:00-12:00","title":"St Johns Lindow"},"type":"Feature"},
		{"geometry":{"coordinates":[-2.18514,53.15372],"type":"Point"},"properties":{"_source":"warm_welcome","address":"83-87 Leek Rd, Congleton , Cheshire CW12 3LJ","description":" We can provide free hot drinks but other food & drink incur a charge. ","hours":"Tu 09:30-15:00; We 09:30-15:00; Th 09:30-15:00; Fr 09:30-15:00","title":"The Chappell Centre "},"type":"Feature"},
		{"geometry":{"coordinates":[-2.35195,53.30701],"type":"Point"},"properties":{"_source":"warm_welcome","address":"146/147 Longridge, Knutsford, East Cheshire wa16 8pd","description":" Warm, friendly centre, offering free soup all day. We have support workers on hand to help or you can simply come in the warmth and relax or socialise.","hours":"Mo 09:00-15:00; Tu 09:00-15:00; We 09:00-15:00; Th 09:00-15:00; Fr 09:00-15:00","title":"The Welcome"},"type":"Feature"},
		{"geometry":{"coordinates":[-2.23326,53.32476],"type":"Point"},"properties":{"_source":"warm_welcome","address":"South Drive, Wilmslow, Cheshire SK9 1NW","description":"","hours":"Mo 09:00-17:00; Tu 09:00-17:00; We 09:00-17:00; Th 09:00-19:00; Fr 09:00-17:00; Sa 09:00-13:00","title":"Wilmslow Library"},"type":"Feature"},
		{"geometry":{"coordinates":[-2.36043,53.30165],"type":"Point"},"properties":{"_source":"warm_spaces","address":"Manor Park South, Knutsford, England, WA16 8AQ","title":"Sharston House Nursing Knutsford"},"type":"Feature"}
	]
}
