{
	"type": "FeatureCollection",
	"features": [
		{"geometry":{"coordinates":[-2.34052,52.99601],"type":"Point"},"properties":{"_source":"warm_welcome","address":"Bar Hill/Vicarage Lane, Madeley, Crewe CW3 9PH","description":" Our warm space is part of the Madeley Hub, hosted by All Saints Church. It includes the local Trussell Trust foodbank, a toddler craft and play corner, and a welcoming space to come and have a chat.","hours":"We 10:30-12:00","title":"All Saints Church"},"type":"Feature"},
		{"geometry":{"coordinates":[-2.31176,53.09952],"type":"Point"},"properties":{"_source":"warm_welcome","address":"Sandbach Road North, Alsager, Stoke on Trent ST7 2QH","description":"","hours":"Mo 09:00-17:00, Tu 09:00-19:00, We 09:00-17:00, Th 09:00-17:00, Fr 09:00-17:00, Sa 09:00-13:00","title":"Alsager Library"},"type":"Feature"},
		{"geometry":{"coordinates":[-2.12913,53.01316],"type":"Point"},"properties":{"_source":"warm_welcome","address":"Bentilee Library, Bentilee Neighbourhood Centre, Dawlish Drive, Stoke-on-Trent ST2 0EU","description":"","hours":"Mo 10:00-14:00, Tu 09:00-12:30, Fr 09:00-12:30, Sa 10:00-14:00","title":"Bentilee Library"},"type":"Feature"},
		{"geometry":{"coordinates":[-2.20281,52.99520],"type":"Point"},"properties":{"_source":"warm_welcome","address":"4 Woodberry Close, Stoke-on-Trent , Staffordshire ST4 5LU","description":"Open from 11-10-2022. on street parking, snacks available, baby changing facility","hours":"Tu 08:30-10:00, We 09:00-11:30, Th 10:00-12:30, Sa 10:30-13:00","title":"Better Together Community Support Group for Stoke-on-Trent and NuL "},"type":"Feature"},
		{"geometry":{"coordinates":[-2.23310,53.04096],"type":"Point"},"properties":{"_source":"warm_welcome","address":"2 Cardway , Bradwell, Newcastle, Staffordshire ST5 8EB","description":"Open from 12 October 2022. Our focus is catering for adults. Warm space with chance to talk, knit, play board games","hours":"We 14:00-16:00","title":"Bradwell Methodist Church "},"type":"Feature"},
		{"geometry":{"coordinates":[-2.43962,53.09664],"type":"Point"},"properties":{"_source":"warm_welcome","address":"Crewe Library, Crewe Lifestyle Centre, Moss Square, Crewe, Cheshire CW1 2BB","description":"","hours":"Mo 09:00-18:00, Tu 09:00-18:00, We 09:00-18:00, Th 09:00-18:00, Fr 09:00-18:00, Sa 09:00-13:00","title":"Cheshire East - Crewe Library"},"type":"Feature"},
		{"geometry":{"coordinates":[-2.17677,53.02240],"type":"Point"},"properties":{"_source":"warm_welcome","address":"City Central Library, Bethesda Street, Hanley, Stoke-on-Trent ST1 3RS","description":"","hours":"Mo 09:00-14:00, Tu 13:00-17:00, We 09:00-14:00, Th 13:00-18:00, Fr 09:00-14:00, Sa 10:00-14:00","title":"City Central Library"},"type":"Feature"},
		{"geometry":{"coordinates":[-2.18600,53.07361],"type":"Point"},"properties":{"_source":"warm_welcome","address":"The Hub, Fegg Hayes, Stoke on Trent ST6 6QR","description":"Open from 01/11/22. From 1st November, on a Tuesday morning between 11:00 and 12.00 there is also a free community singing group.","hours":"Tu 10:00-12:00, Th 10:00-12:00","title":"Fegg Hayes Futures"},"type":"Feature"},
		{"geometry":{"coordinates":[-2.13292,52.98367],"type":"Point"},"properties":{"_source":"warm_welcome","address":"Longton Library, Lightwood Road, Longton, Stoke-on-Trent ST3 4HY","description":"","hours":"Mo 10:00-12:30, Tu 09:00-12:30, We 09:00-12:30, Fr 09:00-12:30, Sa 10:00-14:00","title":"Longton Library"},"type":"Feature"},
		{"geometry":{"coordinates":[-2.21969,52.99471],"type":"Point"},"properties":{"_source":"warm_welcome","address":"35 Stafford Avenue, Newcastle-under-Lyme, Staffordshire ST5 3BN","description":" Open from 03-11-2022.","hours":"Th 10:00-12:00","title":"Newcastle Baptist Church"},"type":"Feature"},
		{"geometry":{"coordinates":[-2.35685,53.08655],"type":"Point"},"properties":{"_source":"warm_welcome","address":"Butterton Lane, Oakhanger, Crewe, Cheshire CW15UU","description":"Wednesday afternoon is a Ladies Group offering support and social contact.","hours":"We 14:00-16:00, Su 18:00-20:00","title":"Oakhanger church and community group"},"type":"Feature"},
		{"geometry":{"coordinates":[-2.26577,53.01458],"type":"Point"},"properties":{"_source":"warm_welcome","address":"Earl Street , Silverdale , Newcastle , Staffordshire ST5 6NF","description":"Open from May 2020.","hours":"We 14:45-15:45, Fr 14:45-15:45, Su 10:15-11:00","title":"Silverdale Methodist Church "},"type":"Feature"},
		{"geometry":{"coordinates":[-2.15536,52.98270],"type":"Point"},"properties":{"_source":"warm_welcome","address":"131 Longton Hall Road, Stoke on Trent, Staffordshire ST3 2EL","description":"","hours":"We 09:30-12:00","title":"St Paul's Church"},"type":"Feature"},
		{"geometry":{"coordinates":[-2.18357,53.00281],"type":"Point"},"properties":{"_source":"warm_welcome","address":"Stoke Library, South Wolfe Street, Stoke, Stoke-on-Trent ST4 4SZ","description":"","hours":"Mo 09:00-12:30, Tu 09:00-12:30, We 09:00-12:30, Th 09:00-12:30, Fr 09:00-12:30, Sa 10:00-14:00","title":"Stoke Library"},"type":"Feature"},
		{"geometry":{"coordinates":[-2.19590,53.04552],"type":"Point"},"properties":{"_source":"warm_welcome","address":"Swan Square, Burslem , Stoke-on-Trent ST6 2AA","description":"","hours":"Mo 09:30-17:00, Tu 09:30-17:00, We 09:30-17:00, Th 09:30-17:00, Fr 09:30-17:00","title":"Swan Bank Methodist church"},"type":"Feature"},
		{"geometry":{"coordinates":[-2.16836,52.99932],"type":"Point"},"properties":{"_source":"warm_welcome","address":"Temple Street, Fenton, STOKE-ON-TRENT ST4 4NW","hours":"Th 10:00-12:00","title":"Temple Street Methodist Church & Community Centre"},"type":"Feature"},
		{"geometry":{"coordinates":[-2.21014,53.05834],"type":"Point"},"properties":{"_source":"warm_welcome","address":"Tunstall Library, Tunstall Town Hall, 142 High Street, Tunstall, Stoke-on-Trent ST6 5TP","description":"","hours":"Mo 09:00-12:30, Tu 09:00-12:30, We 09:00-12:30, Th 10:00-14:00, Fr 09:00-12:30, Sa 10:00-14:00","title":"Tunstall Library"},"type":"Feature"},
		{"geometry":{"coordinates":[-2.21916,52.99447],"type":"Point"},"properties":{"_source":"warm_spaces","address":"35 Stafford Avenue, Newcastle, England, ST5 3BN","title":"Newcastle Baptist Church","url":"https://www.newcastlebaptist.org.uk"},"type":"Feature"},
		{"geometry":{"coordinates":[-2.34013,52.99574],"type":"Point"},"properties":{"_source":"warm_spaces","address":"Vicarage Ln &amp; Bar Hill, Crewe, England, CW3 9PH","title":"Madeley Hub, All Saints Church","url":"https://www.facebook.com/allsaintsmadeley/"},"type":"Feature"},
		{"geometry":{"coordinates":[-2.30135,53.05378],"type":"Point"},"properties":{"_source":"warm_spaces","address":"Audley Library, Hall Street, Stoke-on-Trent, England, ST7 8DB","title":"Audley Library"},"type":"Feature"}
	]
}
