{
	"type": "FeatureCollection",
	"features": [
		{"geometry":{"coordinates":[-2.12277,52.53946],"type":"Point"},"properties":{"_source":"warm_welcome","address":"All Saints' Parish Office, Ladies Walk , Dudley, West Midlands DY3 3UA","description":"Everyone is welcome. Sunday mornings guests are welcome to access our church worship service or sit quietly at the back. Refreshments are free after the service. Friday mornings is an informal coffee and chat.","hours":"Fr 10:30-12:30; Su 10:30-12:30","title":"All Saints Church, Sedgley St Peter's Church, Gornal St Andrew's Church, The Straits (Gornal & Sedgley Team Ministry"},"type":"Feature"},
		{"geometry":{"coordinates":[-2.17958,52.62824],"type":"Point"},"properties":{"_source":"warm_welcome","address":"The Olde Vicarage, 7 Bilbrook Road, Wolverhampton, Staffordshire WV8 1EU","description":"","hours":"We 12:00-18:00","title":"Bilbrook Initiatives Hub"},"type":"Feature"},
		{"geometry":{"coordinates":[-2.12784,52.57361],"type":"Point"},"properties":{"_source":"warm_welcome","address":"Sedgley Street, Wolverhampton WV2 3AJ","description":"Open from 04/11/2022. open to the local community A warm welcome awaits you at CLC. Free tea/coffee; soup and a roll;","hours":"Fr 10:00-17:00","title":"CLC wolverhampton "},"type":"Feature"},
		{"geometry":{"coordinates":[-2.12455,52.58794],"type":"Point"},"properties":{"_source":"warm_welcome","address":"Westbury Street, Wolverhampton, Wolverhampton WV1 1JD","description":" We look forward to welcoming people and offering hot drinks, hot food and a friendly environment.","hours":"Th 10:30-12:00","title":"Life City Church"},"type":"Feature"},
		{"geometry":{"coordinates":[-2.13891,52.58450],"type":"Point"},"properties":{"_source":"warm_welcome","address":"34 Clifton Street, Chapel Ash, Wolverhampton WV3 0QT","description":" We are a very friendly group of people just waiting to welcome you in for free drinks & homemade cakes. We are in a modern building near the centre of The city.","hours":"We 10:00-12:00","title":"LifeSpring Church"},"type":"Feature"},
		{"geometry":{"coordinates":[-2.12459,52.57050],"type":"Point"},"properties":{"_source":"warm_welcome","address":"200 Dudley Road, Wolverhampton, West Midlands WV2 3DR","description":"We provide digital skills support, a warm drink & mums can bring their children but there is no dedicated childcare facility.","hours":"Mo 13:30-15:30; Tu 10:00-13:00; We 10:00-13:00; Th 10:00-13:00","title":"SNJ Charitable Trust"},"type":"Feature"},
		{"geometry":{"coordinates":[-2.37459,52.66476],"type":"Point"},"properties":{"_source":"warm_welcome","address":"Church Street, Shifnal, Shropshire TF11 9AB","description":"Open from 7/11/2022.","hours":"Mo 10:00-16:00; Tu 10:00-16:00; We 10:00-16:00; Th 10:00-16:00; Fr 10:00-16:00; Sa 10:00-12:00","title":"St Andrew's Church Shifnal"},"type":"Feature"},
		{"geometry":{"coordinates":[-2.14082,52.52141],"type":"Point"},"properties":{"_source":"warm_welcome","address":"St Andrew's Church, The Straits, Dudley, West Midlands DY3 3AB","description":"Open from 17-10-2022. Everyone welcome On Sundays you are welcome to join us in our worship service. Refreshments are available at the end of the service. Tuesdays is a more informal gathering.","hours":"Tu 09:30-11:30; Su 09:30-11:00","title":"St Andrew's Church, The Straits"},"type":"Feature"},
		{"geometry":{"coordinates":[-2.11379,52.52642],"type":"Point"},"properties":{"_source":"warm_welcome","address":"40 Kent Street, Gornal, Dudley, West Midlands DY3 1UU","description":"Open from 17-10-2022. Everyone welcome Open 2nd and 4th Sunday of the month.","hours":"We 11:00-12:30; Su 11:00-12:30","title":"St Peter's Church "},"type":"Feature"},
		{"geometry":{"coordinates":[-2.43698,52.65573],"type":"Point"},"properties":{"_source":"warm_welcome","address":"The Sambrook Centre, Telford, Shropshire TF3 1FL","description":"Open from Monday 14th Novemeber. We are open to everyone Stirchley Warm Space is located in the Sambrook Centre (Stirchley Library) and is open to anyone needed to use our Community Centre, there is seating, desk and free tea, coffee, cup a soup and biscuits available., ","hours":"Mo 09:30-16:30; Tu 09:30-16:30; We 09:30-16:30; Th 09:30-16:30; Fr 09:30-16:30","title":"Stirchley Warm Space"},"type":"Feature"},
		{"geometry":{"coordinates":[-2.20341,52.59597],"type":"Point"},"properties":{"_source":"warm_welcome","address":"Church Road, Perton, Wolverhampton WV6 7PD","description":"","hours":"Mo 10:00-15:00; Tu 10:00-15:00; We 10:00-15:00; Th 10:00-15:00; Fr 10:00-15:00","title":"The Church At Perton"},"type":"Feature"}
	]
}
