{
	"type": "FeatureCollection",
	"features": [
		{"geometry":{"coordinates":[-2.31698,52.37652],"type":"Point"},"properties":{"_source":"warm_welcome","address":"Dog Lane, Bewdley , Worcestershire DY12 2EF","description":"","hours":"Mo 09:30-17:00; We 09:30-17:00; Th 09:30-17:00; Fr 09:30-17:00; Sa 09:30-13:00","title":"Bewdley Library"},"type":"Feature"},
		{"geometry":{"coordinates":[-2.11174,52.45686],"type":"Point"},"properties":{"_source":"warm_welcome","address":"High Street Lye, Stourbridge, West Midlands DY9 8LF","description":"","title":"Christ Church Lye, Worcester Diocese"},"type":"Feature"},
		{"geometry":{"coordinates":[-2.38478,52.45233],"type":"Point"},"properties":{"_source":"warm_welcome","address":"Severn centre , Highley , Shropshire Wv16 6JG","description":"All are welcome, children must be supervised We offer a complimentary hot meal, warm packs containing blanket, socks, gloves, stove top & kettle meals, there is also board games - puzzles- cards- dominoes etc. Space to chat and have some company or some peace & keep warm.","hours":"Fr 15:00-18:00","title":"Eat, Meet, Greet "},"type":"Feature"},
		{"geometry":{"coordinates":[-2.26993,52.39626],"type":"Point"},"properties":{"_source":"warm_welcome","address":"Franche Community Church, KIDDERMINSTER, Worcestershire DY11 5QA","description":"All Welcome! We will be running our foodbank alongside our warm welcome space. ","hours":"Tu 08:30-12:00; Fr 08:30-12:00","title":"Franche Community Church and Wyre Forest Food Bank"},"type":"Feature"},
		{"geometry":{"coordinates":[-2.14519,52.41737],"type":"Point"},"properties":{"_source":"warm_welcome","address":"Worcester Road, Hagley, Stourbridge, West Midlands DY9 0NW","description":"","hours":"Mo 09:00-13:00; We 09:00-13:00; Th 09:00-13:00; Fr 09:00-13:00; Sa 09:00-13:00","title":"Hagley Library"},"type":"Feature"},
		{"geometry":{"coordinates":[-2.26522,52.39592],"type":"Point"},"properties":{"_source":"warm_welcome","address":"Franche Road, Kidderminster, Worcestershire DY11 5BE","description":"","hours":"Mo 10:00-12:00; Th 14:00-16:00","title":"Kidderminster Baptist Church "},"type":"Feature"},
		{"geometry":{"coordinates":[-2.24798,52.38544],"type":"Point"},"properties":{"_source":"warm_welcome","address":"Market Street, Kidderminster, Worcestershire DY10 1AB","description":"","hours":"Mo 09:00-17:00; Tu 09:00-19:00; We 09:00-17:00; Th 09:00-17:00; Fr 09:00-17:00; Sa 09:00-17:00","title":"Kidderminster Library"},"type":"Feature"},
		{"geometry":{"coordinates":[-2.25889,52.39316],"type":"Point"},"properties":{"_source":"warm_welcome","address":"Puxton Lane, Kidderminster, Worcestershire DY115DF","description":"","hours":"Mo 11:00-12:30; Tu 11:00-12:30; We 11:00-12:30; Th 11:00-12:30; Su 11:15-13:00","title":"Simply Limitless"},"type":"Feature"},
		{"geometry":{"coordinates":[-2.27469,52.34332],"type":"Point"},"properties":{"_source":"warm_welcome","address":"Church Drive, Stourport on Severn, Worcestershire Dy13 9DD","description":"Open from 15-11-2022","hours":"Tu 10:00-13:00","title":"St Michael and All Angels Church"},"type":"Feature"},
		{"geometry":{"coordinates":[-2.28093,52.33924],"type":"Point"},"properties":{"_source":"warm_welcome","address":"Civic Centre, New Street, Stourport-on-Severn, Worcestershire DY13 8UN","description":"","hours":"Mo 10:30-16:30; Tu 10:30-16:30; Th 10:30-16:30; Fr 13:00-16:30; Sa 10:30-13:30","title":"Stourport-on- Severn Library "},"type":"Feature"},
		{"geometry":{"coordinates":[-2.24654,52.39334],"type":"Point"},"properties":{"_source":"warm_welcome","address":"THE SALVATION ARMY, Jerusalem Walk, Kidderminster, Worcestershire DY10 2NP","description":" We have board games, mindful colouring, word searches, puzzles, biscuits, conversation, company and a warm welcome for everyone.","hours":"Tu 10:00-15:00","title":"Wyre Forest District Council / The Salvation Army, Kidderminster"},"type":"Feature"}
	]
}
