{
	"type": "FeatureCollection",
	"features": [
		{"geometry":{"coordinates":[-2.27744,51.73019],"type":"Point"},"properties":{"_source":"warm_welcome","address":"28 Bath Road, Stonehouse, Stroud, Gloucestershire GL10 2JA","description":"Open from 08-11-2022. Anyone and everyone welcome We have changing facililities for babies. ","hours":"Tu 12:30-17:30","title":"Bethel Church Stonehouse"},"type":"Feature"},
		{"geometry":{"coordinates":[-2.22491,51.69401],"type":"Point"},"properties":{"_source":"warm_welcome","address":"Newmarket Road, Nailsworth, Glos GL6 0DQ","description":"Mainly the elderly but room for small children Renew Meeting Place. Light lunches on Wednesdays. Hot drinks & snacks on Mondays and Fridays","hours":"Mo 10:00-12:00; We 10:00-13:30; Fr 14:00-16:00","title":"Christ Church L.E.P."},"type":"Feature"},
		{"geometry":{"coordinates":[-2.35433,51.68179],"type":"Point"},"properties":{"_source":"warm_welcome","address":"Castle Street, Dursley, Glos GL11 4BS","description":"","hours":"Fr 10:00-16:00","title":"Dursley Methodist Church"},"type":"Feature"},
		{"geometry":{"coordinates":[-2.24562,51.74268],"type":"Point"},"properties":{"_source":"warm_welcome","address":"Church Road, Cainscross, Stroud GL5 4JE","description":"","hours":"Sa 12:00-17:00","title":"St Matthew's Church, Cainscross"},"type":"Feature"},
		{"geometry":{"coordinates":[-2.28289,51.75086],"type":"Point"},"properties":{"_source":"warm_welcome","address":"12B Gloucester Road, Stonehouse , Gloucestershire GL10 2PB","description":"Everyone is welcome Everyone is welcome to come in and keep warm, socialise, have a hot drink and get involved in some activities (optional). There’s a space for children to play with toys and places for the adults to relax too! Or just come in for a chat.","hours":"Th 10:00-17:00","title":"Stonehouse Baptist Church"},"type":"Feature"},
		{"geometry":{"coordinates":[-2.21398,51.74467],"type":"Point"},"properties":{"_source":"warm_welcome","address":"The Cross, Stroud, Gloucestershire GL5 2HL","description":"Open from 10th Novemebr. Sorry we can't accommodate pets","hours":"Th 12:00-15:30","title":"Stroud Christian Fellowship"},"type":"Feature"},
		{"geometry":{"coordinates":[-2.21255,51.74405],"type":"Point"},"properties":{"_source":"warm_welcome","address":"27 Acre Street, Stroud, Gloucestershire GL5 1DR","description":"","hours":"Tu 17:30-19:30","title":"Stroud Salvation Army "},"type":"Feature"},
		{"geometry":{"coordinates":[-2.15576,51.63889],"type":"Point"},"properties":{"_source":"warm_welcome","address":"1 Cirencester Road, Tetbury, Gloucestershire GL8 8EY","description":"Open from 7th November 2022.","hours":"Mo 12:00-16:00; Tu 12:00-16:00","title":"The Royal Oak (Tetbury) Ltd"},"type":"Feature"},
		{"geometry":{"coordinates":[-2.35400,51.63613],"type":"Point"},"properties":{"_source":"warm_welcome","address":"Wotton Baptist Church, Rope Walk, Wotton-under-Edge GL12 7RD","description":"Open from 14-11-2022. Supervised children welcome","hours":"Mo 09:00-16:00","title":"Wotton Baptist Church"},"type":"Feature"},
		{"geometry":{"coordinates":[-2.35759,51.63903],"type":"Point"},"properties":{"_source":"warm_welcome","address":"Bradley Street, Wotton under Edge, Gloucestershire GL12 7AR","description":" Children to be accompanied, please. ","hours":"We 12:00-16:30","title":"Wotton United Church"},"type":"Feature"},
		{"geometry":{"coordinates":[-2.21022,51.74429],"type":"Point"},"properties":{"_source":"warm_spaces","address":"Stroud Valley Scout Hut, Chapel Street, Stroud, England, GL5 1DU","title":"Marah","url":"https://www.marah.org.uk"},"type":"Feature"},
		{"geometry":{"coordinates":[-2.28310,51.75062],"type":"Point"},"properties":{"_source":"warm_spaces","address":"12b Gloucester Road, Stonehouse, England, GL10 2PB","title":"Stonehouse Baptist Church","url":"https://www.stonehousebaptist.org.uk"},"type":"Feature"},
		{"geometry":{"coordinates":[-2.45035,51.80131],"type":"Point"},"properties":{"_source":"warm_spaces","address":"St Peter’s Church, High Street, Newnham, England, GL14 1AD","title":"St Peter's Church, Newnham","url":"https://www.achurchnearyou.com/church/14104/"},"type":"Feature"},
		{"geometry":{"coordinates":[-2.15564,51.63897],"type":"Point"},"properties":{"_source":"warm_spaces","address":"The Royal Oak, 1 Cirencester Road, Tetbury, England, GL8 8EY","title":"The Royal Oak (Tetbury) Ltd","url":"https://www.theroyaloaktetbury.co.uk"},"type":"Feature"},
		{"geometry":{"coordinates":[-2.42358,51.79857],"type":"Point"},"properties":{"_source":"stroud_cscic","address":"High Street, Arlingham GL2 7JN","contact":"Email: arlinghamvhbookings@gmail.com","title":"Arlingham Victory Hall","url":"http://www.arlinghamvillagehall.com"},"type":"Feature"},
		{"geometry":{"coordinates":[-2.14119,51.75406],"type":"Point"},"properties":{"_source":"stroud_cscic","address":"Manor St, Bisley, Stroud GL6 7AX","contact":"Email: cllr.martin.brown@stroud.gov.uk","hours":"Tu 13:30-16:30","title":"Bisley WI Village Hall"},"type":"Feature"},
		{"geometry":{"coordinates":[-2.19381,51.72093],"type":"Point"},"properties":{"_source":"stroud_cscic","address":"London Road, Brimscombe, GL5 2SB","contact":"Email: events@stroudbrewery.co.uk","description":"Open to use as a public living room weekday daytime. Sofas, laptops space for workers, free wifi and sockets., Wheelchair access, accessible toilet, nappy changing table, play corner with some books and toys too, Free or cheap social activities: board games nights, knit and natter, singles night, Â£3 quiz.","title":"Stroud Brewery","url":"https://stroudbrewery.co.uk/"},"type":"Feature"},
		{"geometry":{"coordinates":[-2.35304,51.69133],"type":"Point"},"properties":{"_source":"stroud_cscic","address":"Upper Cam, Church Rd, GL11 5PG","contact":"Email: phil@3Ccommunitychurch.org","hours":"Su 13:00-16:00","title":"3C Community Church"},"type":"Feature"},
		{"geometry":{"coordinates":[-2.24574,51.74302],"type":"Point"},"properties":{"_source":"stroud_cscic","address":"Church Road, Cainscross, GL5 4JE","hours":"Sa 12:00-17:00","title":"St Matthew&#8217;s Church Hall"},"type":"Feature"},
		{"geometry":{"coordinates":[-2.24664,51.74795],"type":"Point"},"properties":{"_source":"stroud_cscic","address":"1-3 Queen&#8217;s Drive, Cashes Green, Stroud, GL5 4NR","contact":"Email: Hello@cashesgreen.org.uk","hours":"Th 10:00-12:00; Fr 14:00-17:00","title":"Cashes Green Community Centre","url":"https://www.cashesgreen.org.uk"},"type":"Feature"},
		{"geometry":{"coordinates":[-2.16739,51.72741],"type":"Point"},"properties":{"_source":"stroud_cscic","address":"Brownshill, Chalford GL6 8AF","contact":"Email: christine@chalford-glos.gov.uk","description":"&nbsp;&nbsp;&nbsp;&nbsp;&nbsp;&nbsp;&nbsp;&nbsp;&nbsp;&nbsp;&nbsp;&nbsp;&nbsp;&nbsp;&nbsp;&nbsp;&nbsp;&nbsp;&nbsp;&nbsp;&nbsp;&nbsp;&nbsp;&nbsp;&nbsp;&nbsp;&nbsp;&nbsp;&nbsp;&nbsp;&nbsp; &nbsp;&nbsp;&nbsp;&nbsp;&nbsp;&nbsp;&nbsp;&nbsp;&nbsp;&nbsp;&nbsp;&nbsp;&nbsp;&nbsp;&nbsp; .","hours":"Fr 12:00-14:00","title":"Frith Youth Centre"},"type":"Feature"},
		{"geometry":{"coordinates":[-2.35908,51.68283],"type":"Point"},"properties":{"_source":"stroud_cscic","address":"34/36 Long Street, Dursley GL11 4EB","contact":"Email: info@chantrycentre.org","hours":"Th 10:00-19:00","title":"The Chantry Centre","url":"http://www.chantrycentre.org"},"type":"Feature"},
		{"geometry":{"coordinates":[-2.35418,51.68193],"type":"Point"},"properties":{"_source":"stroud_cscic","address":"Castle Street, Dursley, GL11 4BS","hours":"Fr 10:00-16:00; Fr 12:00-14:00","title":"Dursley Methodist Church"},"type":"Feature"},
		{"geometry":{"coordinates":[-2.35931,51.68864],"type":"Point"},"properties":{"_source":"stroud_cscic","address":"Kingshill Lane, Dursley, GL11 4BZ","contact":"Email: admin@kingshillhouse.org.uk","hours":"Mo 10:00-14:00","title":"Kingshill House"},"type":"Feature"},
		{"geometry":{"coordinates":[-2.35728,51.68198],"type":"Point"},"properties":{"_source":"stroud_cscic","address":"Parsonage Street, Dursley, GL11 4EA","hours":"We 10:00-13:00; We 13:00-16:00","title":"Dursley Tabernacle","url":"http://www.dursleytab.org.uk/"},"type":"Feature"},
		{"geometry":{"coordinates":[-2.36502,51.69864],"type":"Point"},"properties":{"_source":"stroud_cscic","address":"Fairmead, Cam, Dursley GL11 5JS","contact":"Email: office@gl11.org.uk","hours":"Mo-Fr 10:00-19:00","title":"GL11 Community Hub","url":"https://www.gl11.org.uk/"},"type":"Feature"},
		{"geometry":{"coordinates":[-2.15873,51.73910],"type":"Point"},"properties":{"_source":"stroud_cscic","address":"Eastcombe, GL6 7DN","hours":"Tu 14:00-15:00","title":"The Lamb Inn"},"type":"Feature"},
		{"geometry":{"coordinates":[-2.27241,51.72867],"type":"Point"},"properties":{"_source":"stroud_cscic","address":"Marling Close, GL10 3PN","contact":"Email: kspcclerk@gmail.com","description":"Wifi? Charging?","hours":"Mo 09:30-11:00","title":"King&#8217;s Stanley Village Hall"},"type":"Feature"},
		{"geometry":{"coordinates":[-2.28829,51.72855],"type":"Point"},"properties":{"_source":"stroud_cscic","address":"Leonard Stanley, GL10 3NU","contact":"Email: clerk@leonardstanley-pc.gov.uk","hours":"We 11:00-13:00","title":"St Swithun&#8217;s Church"},"type":"Feature"},
		{"geometry":{"coordinates":[-2.19513,51.78613],"type":"Point"},"properties":{"_source":"stroud_cscic","address":"GL6 6UN","hours":"Mo 12:00-13:15; We 10:30-12:30; Fr 10:00-12:00","title":"Painswick Town Hall"},"type":"Feature"},
		{"geometry":{"coordinates":[-2.21428,51.74479],"type":"Point"},"properties":{"_source":"stroud_cscic","address":"The Cross, Parliament Street, Stroud GL5 2HL","contact":"Email: office@stroudcf.org","description":"(above the launderette, opposite the Police Station)","hours":"Th 12:00-15:30","title":"Stroud Christian Fellowship"},"type":"Feature"},
		{"geometry":{"coordinates":[-2.20987,51.74270],"type":"Point"},"properties":{"_source":"stroud_cscic","address":"Field Road, Stroud, GL5 2HZ","hours":"Fr 09:00-16:30; Fr 12:00-14:00","title":"Trinity Rooms Community Hub","url":"https://stroudtrinityrooms.org/"},"type":"Feature"},
		{"geometry":{"coordinates":[-2.22359,51.74968],"type":"Point"},"properties":{"_source":"stroud_cscic","address":"Stratford Road, Stroud GL5 4AF","description":"Free parking in Leisure Centre car park. Accessible parking outside the Museum (call 01453 763394).","hours":"We 11:30-15:30","title":"The Museum in the Park","url":"http://www.museuminthepark.org.uk"},"type":"Feature"},
		{"geometry":{"coordinates":[-2.23488,51.75082],"type":"Point"},"properties":{"_source":"stroud_cscic","address":"The Octagon, Farmhill Ln, Stroud GL5 4BX","hours":"Mo 12:00-02:00; Tu 15:30-17:30; We 13:00-17:00; Sa 14:00-16:00","title":"Paganhill Community Group","url":"https://paganhill.org.uk"},"type":"Feature"},
		{"geometry":{"coordinates":[-2.22936,51.74226],"type":"Point"},"properties":{"_source":"stroud_cscic","address":"Fromehall Mill, Lodgemore Lane, Rodborough, GL5 3JH","contact":"Email: nick@cscic.org","hours":"Fr 10:00-14:00","title":"Creative Sustainability CIC"},"type":"Feature"},
		{"geometry":{"coordinates":[-2.23364,51.76152],"type":"Point"},"properties":{"_source":"stroud_cscic","address":"Lower street, Whiteshill, GL6 6AN","contact":"Email: wrvscafe@gmail.com","hours":"Mo-Fr 09:00-17:00; Sa 09:00-13:00; Su 09:00-11:00","title":"Ruscombe and Whiteshill Community shop","url":"https://www.facebook.com/whiteshillvillageshop/"},"type":"Feature"},
		{"geometry":{"coordinates":[-2.28340,51.74704],"type":"Point"},"properties":{"_source":"stroud_cscic","address":"26 High Street, Stonehouse, GL10 2NA","contact":"Email: figtreestonehouse@yahoo.com","hours":"Mo 10:00-11:00; Tu 10:00-12:00; We 14:00-16:00; Th 10:00-12:00; Th 13:00-15:00; Fr 10:00-12:00; Fr 15:30-16:40; Sa 10:00-12:00","title":"The Fig Tree","url":"http://www.stonehousefigtree.org"},"type":"Feature"},
		{"geometry":{"coordinates":[-2.28228,51.75524],"type":"Point"},"properties":{"_source":"stroud_cscic","address":"Gloucester Road, Stonehouse, GL10 2HE","description":"Contact:","hours":"Th 10:00-17:00","title":"Baptist church"},"type":"Feature"},
		{"geometry":{"coordinates":[-2.28877,51.74892],"type":"Point"},"properties":{"_source":"stroud_cscic","address":"1, Park Parade, Stonehouse GL10 2DB","hours":"Mo 09:30-11:30; Mo 12:00-15:00; Tu 10:00-12:00; Th 10:00-12:00; Th 12:30-14:30; Th 13:00-15:00","title":"All Pulling Together Community Hub"},"type":"Feature"},
		{"geometry":{"coordinates":[-2.35326,51.63691],"type":"Point"},"properties":{"_source":"stroud_cscic","address":"The Rope Walk, Wotton-under-Edge, GL12 7AA","contact":"Email: admin@wottonbaptist.org.uk","hours":"Mo 09:00-16:00; Tu 09:30-12:00; Th 10:00-11:30","title":"Wotton Baptist Church","url":"http://www.wottonbaptist.org.uk"},"type":"Feature"},
		{"geometry":{"coordinates":[-2.35113,51.63594],"type":"Point"},"properties":{"_source":"stroud_cscic","address":"Symn Lane, Wotton-under-Edge, GL12 7BQ","contact":"Email: thekeeperscommunityhub@gmail.com","hours":"Mo 09:00-16:00; Tu 09:00-16:00; Th 09:00-16:00; We 09:00-13:00; Fr 09:00-13:00; We 10:00-12:00","title":"The Keepers Community Hub","url":"http://www.thekeepers.org.uk"},"type":"Feature"},
		{"geometry":{"coordinates":[-2.35765,51.63910],"type":"Point"},"properties":{"_source":"stroud_cscic","address":"Bradley Street, Wotton-under-Edge, GL12 7AR","contact":"Email: web@wottonunitedchurch.org.uk","hours":"We 12:30-14:30","title":"Wotton United Church","url":"http://wottonunitedchurch.org.uk"},"type":"Feature"}
	]
}
