{
	"type": "FeatureCollection",
	"features": [
		{"geometry":{"coordinates":[-2.27744,51.73019],"type":"Point"},"properties":{"_source":"warm_welcome","address":"28 Bath Road, Stonehouse, Stroud, Gloucestershire GL10 2JA","description":"Open from 08-11-2022. Anyone and everyone welcome We have changing facililities for babies. ","hours":"Tu 12:30-17:30","title":"Bethel Church Stonehouse"},"type":"Feature"},
		{"geometry":{"coordinates":[-2.22491,51.69401],"type":"Point"},"properties":{"_source":"warm_welcome","address":"Newmarket Road, Nailsworth, Glos GL6 0DQ","description":"Mainly the elderly but room for small children Renew Meeting Place. Light lunches on Wednesdays. Hot drinks & snacks on Mondays and Fridays","hours":"Mo 10:00-12:00; We 10:00-13:30; Fr 14:00-16:00","title":"Christ Church L.E.P."},"type":"Feature"},
		{"geometry":{"coordinates":[-2.35433,51.68179],"type":"Point"},"properties":{"_source":"warm_welcome","address":"Castle Street, Dursley, Glos GL11 4BS","description":"","hours":"Fr 10:00-16:00","title":"Dursley Methodist Church"},"type":"Feature"},
		{"geometry":{"coordinates":[-2.24562,51.74268],"type":"Point"},"properties":{"_source":"warm_welcome","address":"Church Road, Cainscross, Stroud GL5 4JE","description":"","hours":"Sa 12:00-17:00","title":"St Matthew's Church, Cainscross"},"type":"Feature"},
		{"geometry":{"coordinates":[-2.28289,51.75086],"type":"Point"},"properties":{"_source":"warm_welcome","address":"12B Gloucester Road, Stonehouse , Gloucestershire GL10 2PB","description":"Everyone is welcome Everyone is welcome to come in and keep warm, socialise, have a hot drink and get involved in some activities (optional). There’s a space for children to play with toys and places for the adults to relax too! Or just come in for a chat.","hours":"Th 10:00-17:00","title":"Stonehouse Baptist Church"},"type":"Feature"},
		{"geometry":{"coordinates":[-2.21398,51.74467],"type":"Point"},"properties":{"_source":"warm_welcome","address":"The Cross, Stroud, Gloucestershire GL5 2HL","description":"Open from 10th Novemebr. Sorry we can't accommodate pets","hours":"Th 12:00-15:30","title":"Stroud Christian Fellowship"},"type":"Feature"},
		{"geometry":{"coordinates":[-2.21255,51.74405],"type":"Point"},"properties":{"_source":"warm_welcome","address":"27 Acre Street, Stroud, Gloucestershire GL5 1DR","description":"","hours":"Tu 17:30-19:30","title":"Stroud Salvation Army "},"type":"Feature"},
		{"geometry":{"coordinates":[-2.15576,51.63889],"type":"Point"},"properties":{"_source":"warm_welcome","address":"1 Cirencester Road, Tetbury, Gloucestershire GL8 8EY","description":"Open from 7th November 2022.","hours":"Mo 12:00-16:00; Tu 12:00-16:00","title":"The Royal Oak (Tetbury) Ltd"},"type":"Feature"},
		{"geometry":{"coordinates":[-2.35400,51.63613],"type":"Point"},"properties":{"_source":"warm_welcome","address":"Wotton Baptist Church, Rope Walk, Wotton-under-Edge GL12 7RD","description":"Open from 14-11-2022. Supervised children welcome","hours":"Mo 09:00-16:00","title":"Wotton Baptist Church"},"type":"Feature"},
		{"geometry":{"coordinates":[-2.35759,51.63903],"type":"Point"},"properties":{"_source":"warm_welcome","address":"Bradley Street, Wotton under Edge, Gloucestershire GL12 7AR","description":" Children to be accompanied, please. ","hours":"We 12:00-16:30","title":"Wotton United Church"},"type":"Feature"},
		{"geometry":{"coordinates":[-2.28310,51.75062],"type":"Point"},"properties":{"_source":"warm_spaces","address":"12b Gloucester Road, Stonehouse, England, GL10 2PB","title":"Stonehouse Baptist Church","url":"https://www.stonehousebaptist.org.uk"},"type":"Feature"},
		{"geometry":{"coordinates":[-2.45035,51.80131],"type":"Point"},"properties":{"_source":"warm_spaces","address":"St Peter’s Church, High Street, Newnham, England, GL14 1AD","title":"St Peter's Church, Newnham","url":"https://www.achurchnearyou.com/church/14104/"},"type":"Feature"}
	]
}
