{
	"type": "FeatureCollection",
	"features": [
		{"geometry":{"coordinates":[-2.41756,51.54126],"type":"Point"},"properties":{"_source":"warm_welcome","address":"Station Road, Yate, South Gloucestershire BS37 4FW","description":"","hours":"Mo 10:00-12:00; Th 09:00-15:00; Sa 10:00-13:00","title":"Armadillo Youth Cafe"},"type":"Feature"},
		{"geometry":{"coordinates":[-2.25182,51.41532],"type":"Point"},"properties":{"_source":"warm_welcome","address":"The Parade, Box, Nr Corsham , Wiltshire SN13 8NX","description":" 9.30 to noon or 14:30 on Thursdays: Hearty soup lunches on alternate Thursdays. Services on 2nd,3rd & 4th Sundays, Check the website for dates","hours":"Mo 10:30-12:00; Th 09:30-14:30","title":"Box Methodist Church "},"type":"Feature"},
		{"geometry":{"coordinates":[-2.24937,51.41895],"type":"Point"},"properties":{"_source":"warm_welcome","address":"Brunel House, The Wharf,, Box, Corsham, Wiltshire SN13 8EP","description":"Open from 19/10/2022. we only cater for the over 55s we serve homemade soup with a roll","hours":"We 09:00-12:30","title":"Brunel House Care Home (Maria Mallaband Care Group)"},"type":"Feature"},
		{"geometry":{"coordinates":[-2.42325,51.54064],"type":"Point"},"properties":{"_source":"warm_welcome","address":"94 Station Road, Yate, Bristol BS37 4PH","description":"Open from 21/10/2022.","hours":"Mo 10:00-14:00; Th 10:00-14:00","title":"Gateway Elim Church"},"type":"Feature"},
		{"geometry":{"coordinates":[-2.40555,51.54020],"type":"Point"},"properties":{"_source":"warm_welcome","address":"250 Station Road, Yate, South Glos BS37 4AF","description":"","hours":"Fr 13:30-17:00","title":"Grace Church Yate"},"type":"Feature"},
		{"geometry":{"coordinates":[-2.41479,51.54068],"type":"Point"},"properties":{"_source":"warm_welcome","address":"Yate Shopping Centre, West Walk, South Gloucestershire BS37 4AX","description":"Dedicated space for over 50s only","hours":"Mo 10:00-14:30; Tu 10:00-14:30; We 10:00-14:30; Th 10:00-14:30; Fr 11:00-13:30","title":"Pop Inn Cafe (over 50s)"},"type":"Feature"},
		{"geometry":{"coordinates":[-2.42325,51.54536],"type":"Point"},"properties":{"_source":"warm_welcome","address":"Tyndale Primary School, Tyndale Avenue, Yate BS375EX","description":"Open from 07/11/22.","hours":"Mo 12:00-15:30; Tu 12:00-15:30; We 12:00-15:30; Th 12:00-15:30; Fr 12:00-15:30","title":"Tyndale Primary School"},"type":"Feature"},
		{"geometry":{"coordinates":[-2.41926,51.54065],"type":"Point"},"properties":{"_source":"warm_welcome","address":"Yate Heritage Centre, Yate, South Gloucestershire Yate Heritage Centre, Church Road, Yate","description":" There are exhibitions. artefacts and handling objects for people to enjoy. There are also research facilities for anyone interested in our local history.","hours":"Tu 10:00-16:00; We 10:00-16:00; Th 10:00-16:00; Sa 10:00-15:00","title":"Yate and District Heritage Centre"},"type":"Feature"},
		{"geometry":{"coordinates":[-2.41753,51.54270],"type":"Point"},"properties":{"_source":"warm_welcome","address":"Poole Court (Heron 2), Yate, South Gloucestershire BS37 5PP","description":"","hours":"Mo 13:00-17:00; Th 13:00-17:00; Fr 09:00-16:00","title":"Yate Town Council (Poole Court)"},"type":"Feature"}
	]
}
