{
	"type": "FeatureCollection",
	"features": [
		{"geometry":{"coordinates":[-2.35825,51.38124],"type":"Point"},"properties":{"_source":"warm_welcome","address":"9 Kingston Buildings, Bath, Avon BA1 1LT","description":"Our initial focus is on catering for students and older people but we will certainly give a warm welcome to all visitors. There will be: soup and a roll and hot drinks; books, newspapers, magazines; games and puzzles; optional fun art and craft activities; optional short guided tours of Bath Abbey","hours":"Tu 12:30-14:30","title":"Bath Abbey"},"type":"Feature"},
		{"geometry":{"coordinates":[-2.25148,51.34544],"type":"Point"},"properties":{"_source":"warm_welcome","address":"16 St. Margaret's Street, Bradford on Avon, Wiltshire BA15 1DA","description":" On Wednesdays mornings 10:30-12:00 we have a ladies meetings with craft activities. On Friday mornings 10:30-12:00 we have a men's gathering and at 12:30-14:00 serve soup & rolls to everyone who would like to drop in.","hours":"Mo 11:00-13:00; Tu 09:30-13:00; We 10:30-13:00; Th 09:30-13:00; Fr 10:30-14:00","title":"Bradford-on-Avon Community Church"},"type":"Feature"},
		{"geometry":{"coordinates":[-2.32008,51.23357],"type":"Point"},"properties":{"_source":"warm_welcome","address":"Frome Library, Justice Lane, Frome BA11 1BE","description":"Variety of weekly activities including Toddler Time Tuesdays 10am and Fridays 11am; Babie Boogie Tuesdays 11am, Toy Library Wednesdays 1pm (small charge), Knit and Natter Thursdays 2pm","hours":"Mo 09:30-17:00; Tu 09:30-17:00; We 09:30-17:00; Th 09:30-17:00; Fr 09:30-17:00; Sa 09:30-16:00","title":"Frome Library"},"type":"Feature"},
		{"geometry":{"coordinates":[-2.39485,51.39754],"type":"Point"},"properties":{"_source":"warm_welcome","address":"Weston Free Church High Street , Weston , Bath BA1 4DB","description":"All ages Children's play area","hours":"Fr 09:00-15:00","title":"Love Weston Community Cafe"},"type":"Feature"},
		{"geometry":{"coordinates":[-2.20679,51.32167],"type":"Point"},"properties":{"_source":"warm_welcome","address":"Church Street, Trowbridge, Wiltshire BA148DU","description":"","hours":"Mo 10:00-12:00; We 10:00-12:00; Sa 10:00-12:00","title":"St James Church Trowbridge"},"type":"Feature"},
		{"geometry":{"coordinates":[-2.36035,51.38447],"type":"Point"},"properties":{"_source":"warm_welcome","address":"Broad St, Bath BA1 5LJ","description":" We have a cafe in the space selling hot and cold food and drinks.","hours":"Mo 09:00-15:30; Tu 09:00-15:30; We 09:00-15:30; Th 09:00-15:30; Fr 09:00-15:30; Sa 09:00-15:30; Su 09:15-12:30","title":"St Michael's Church"},"type":"Feature"},
		{"geometry":{"coordinates":[-2.36582,51.38154],"type":"Point"},"properties":{"_source":"warm_welcome","address":"Green Park Road, Bath, Somerset BA1 1XE","description":"We cater for all - Free soup, bread roll, Tea and coffee is provided from 15:00 We also have a cafe open from 9:30am till 3pm that people are welcome to stay warm in","hours":"We 15:00-18:00; Th 15:00-18:00; Fr 15:00-18:00","title":"The Salvation Army Bath Citadel"},"type":"Feature"},
		{"geometry":{"coordinates":[-2.39264,51.39555],"type":"Point"},"properties":{"_source":"warm_welcome","address":"Penn Hill Road, Weston, Bath BA1 4EH","hours":"Mo 12:00-02:00","title":"Weston Welcome Cafe and Food Club"},"type":"Feature"}
	]
}
