{
	"type": "FeatureCollection",
	"features": [
		{"geometry":{"coordinates":[-2.40951,53.57415],"type":"Point"},"properties":{"_source":"warm_welcome","address":"Withins UCAN Centre, Bolton, Manchester BL2 5JG","description":"Adults","hours":"Mo 09:30-12:00, Tu 09:30-12:00, We 09:30-12:00, Th 09:30-12:00","title":"Bolton at Home"},"type":"Feature"},
		{"geometry":{"coordinates":[-2.38429,53.58236],"type":"Point"},"properties":{"_source":"warm_welcome","address":"Breightmet Medical Centre, Breightmet Fold Lane, Breightmet, Bolton BL2 6NT","description":"Everybody welcome Ask staff for more information about free sessions and activities ","hours":"Mo 10:00-13:00, Tu 10:00-19:00, We 10:00-13:00, Th 10:00-17:00, Fr 10:00-13:00, Sa 10:00-13:00","title":"Breightmet Library "},"type":"Feature"},
		{"geometry":{"coordinates":[-2.42761,53.57818],"type":"Point"},"properties":{"_source":"warm_welcome","address":"Crompton Place Shopping Centre, Bolton, Greater Manchester BL1 1DF","description":"All welcome Please see staff for more information about free activities and sessions","hours":"Mo 09:00-17:30, Tu 09:00-17:30, We 09:30-17:30, Th 09:00-17:30, Fr 09:00-17:30, Sa 09:00-17:00, Su 10:30-16:30","title":"Crompton Place Library "},"type":"Feature"},
		{"geometry":{"coordinates":[-2.39488,53.55164],"type":"Point"},"properties":{"_source":"warm_welcome","address":"The Well, Trafford Street, Farnworth, Bolton BL4 7PQ","description":"","hours":"Tu 10:00-14:00, We 09:30-14:00, Th 09:30-16:00, Fr 09:30-14:00, Su 10:30-12:30","title":"Farnworth Baptist Church"},"type":"Feature"},
		{"geometry":{"coordinates":[-2.39635,53.55087],"type":"Point"},"properties":{"_source":"warm_welcome","address":"Market Street, Farnworth, Bolton BL4 7PG","description":"All welcome Please see staff for more information about free activities and sessions","hours":"Mo 10:00-17:00, Tu 10:00-19:00, Th 10:00-17:00, Fr 10:00-17:00, Sa 10:00-17:00","title":"Farnworth Library"},"type":"Feature"}