{
	"type": "FeatureCollection",
	"features": [
		{"geometry":{"coordinates":[-3.13792,51.73132],"type":"Point"},"properties":{"_source":"warm_welcome","address":"Abertillery Library, Station Hill, Abertillery, Blaenau Gwent NP13 1TE","description":" We close for lunch between 13:00-14:00","hours":"Tu 09:00-17:30, We 09:00-17:30, Th 09:00-17:30, Fr 09:00-17:30, Sa 09:00-13:00","title":"Aneurin Leisure Trust/Blaenau Gwent Libraries"},"type":"Feature"},
		{"geometry":{"coordinates":[-3.14023,51.73446],"type":"Point"},"properties":{"_source":"warm_welcome","address":"Victoria Street, Abertillery , Blaenau Gwent NP131NJ","description":"","hours":"We 10:00-12:00","title":"Blaenau Gwent Baptist Church "},"type":"Feature"},
		{"geometry":{"coordinates":[-3.16113,51.76911],"type":"Point"},"properties":{"_source":"warm_welcome","address":"High Street, Blaina, Gwent Np13 3BN","description":" Blaina Library closed between 1pm and 2pm for lunch","hours":"Mo 09:30-17:30, Th 09:30-17:30, Fr 09:30-17:30","title":"Blaenau Gwent Libraries - Blaina"},"type":"Feature"},
		{"geometry":{"coordinates":[-3.13428,51.73115],"type":"Point"},"properties":{"_source":"warm_welcome","address":"Park Place, Abertillery, Gwent NP13 1ED","description":"","hours":"We 12:00-14:00, Th 12:00-14:00, Fr 12:00-14:00, Su 10:00-10:00","title":"Ebenezer Baptist Church"},"type":"Feature"}