{
	"type": "FeatureCollection",
	"features": [
		{"geometry":{"coordinates":[-2.12054,57.14063],"type":"Point"},"properties":{"_source":"warm_welcome","address":"168-174 Union Grove, Aberdeen, Aberdeen City AB10 6SR","hours":{"_text":"Wednesday: 13:00 - 15:00","opening":"We 13:00-15:00"},"title":"Aberdeen Christian Fellowship"},"type":"Feature"},
		{"geometry":{"coordinates":[-2.44025,57.23705],"type":"Point"},"properties":{"_source":"warm_welcome","address":"Church Centre Church Lane, Kemnay, Inverurie, Aberdeenshire AB51 5NH","description":"Open from October to March. Toys and games available","hours":{"_text":"Tuesday: 10:00 - 16:00, Wednesday: 10:00 - 16:00, Friday: 10:00 - 14:00","opening":"Tu 10:00-16:00; We 10:00-16:00; Fr 10:00-14:00"},"title":"Kemnay Parish Church"},"type":"Feature"},
		{"geometry":{"coordinates":[-2.34427,57.23705],"type":"Point"},"properties":{"_source":"warm_welcome","address":"Kintore Church Hall, Castle Hill, Kintore, Inverurie AB51 0TZ","description":"Tables to work at. Games, jigsaws, chat (if desired)","hours":{"_text":"Monday: 09:30 - 16:00, Thursday: 09:30 - 16:00","opening":"Mo 09:30-16:00; Th 09:30-16:00"},"title":"Kintore Warm Space"},"type":"Feature"},
		{"geometry":{"coordinates":[-2.31232,57.15673],"type":"Point"},"properties":{"_source":"warm_welcome","address":"Old Skene Rd, Westhill AB32 6AQ, Westhill, Aberdeenshire AB32 6AQ","hours":{"_text":"Monday: 13:00 - 15:00","opening":"Mo 13:00-15:00"},"title":"Oasis Creative Wellbeing Cafe"},"type":"Feature"},
		{"geometry":{"coordinates":[-2.12220,57.19935],"type":"Point"},"properties":{"_source":"warm_welcome","address":"Ashwood Park , Bridge of Don, Aberdeen AB228PR","hours":{"_text":"Wednesday: 12:00 - 14:00 / - Fortnightly, Friday: 12:00 - 14:00 / - Fortnightly","opening":"We 12:00-14:00; Fr 12:00-14:00"},"title":"Oldmachar Church of Scotland"},"type":"Feature"},
		{"geometry":{"coordinates":[-2.27734,57.15484],"type":"Point"},"properties":{"_source":"warm_welcome","address":"Trinity Church, Westhill Drive, Westhill, Aberdeenshire AB32 6FY","description":"Open from 02.11.2022.","hours":{"_text":"Wednesday: 12:00 - 16:00","opening":"We 12:00-16:00"},"title":"Skene Parish Church"},"type":"Feature"},
		{"geometry":{"coordinates":[-2.29144,57.15636],"type":"Point"},"properties":{"_source":"warm_welcome","address":"Hays Way, Westhill, Aberdeenshire AB32 6","description":"We cater for all adults 18+ Free Warm Place with friendly welcome, a free hot meal and a range of activities available.","hours":{"_text":"Tuesday: 11:00 - 15:00","opening":"Tu 11:00-15:00"},"title":"Westhill Men's Shed"},"type":"Feature"},
		{"geometry":{"coordinates":[-2.38083,57.27946],"type":"Point"},"properties":{"_source":"aberdeenshire_council","description":"The Pagoda, Clubhouse, Kellands Park, Inverurie. Every Friday 12pm - 2pm , free hot drinks and cake. With the cost of living rising and everyone feeling the pinch, the club are looking to help the community by providing a safe, warm, friendly environment for anyone who might need it.","hours":{"_text":"The Pagoda, Clubhouse, Kellands Park, Inverurie. Every Friday 12pm - 2pm , free hot drinks and cake. With the cost of living rising and everyone feeling the pinch, the club are looking to help the community by providing a safe, warm, friendly environment for anyone who might need it.","opening":"Fr 12:00-14:00"},"title":"Garioch RFC"},"type":"Feature"},
		{"geometry":{"coordinates":[-2.28148,57.15524],"type":"Point"},"properties":{"_source":"aberdeenshire_council","description":"Tuesdays, 11am-3pm Hot meal, teas, coffees (open to any adult aged 18+)","hours":{"_text":"Tuesdays, 11am-3pm Hot meal, teas, coffees (open to any adult aged 18+)","opening":"Tu 11:00-15:00"},"title":"Westhill Mens Shed"},"type":"Feature"},
		{"geometry":{"coordinates":[-2.44257,57.23378],"type":"Point"},"properties":{"_source":"aberdeenshire_council","description":"Soup, drinks and snacks Tuesdays 10am - 4pm Wednesdays 10am - 4pm Fridays 10am - 2pm Sundays 10.30am - 12pm 01467 643883","hours":{"_text":"Soup, drinks and snacks Tuesdays 10am - 4pm Wednesdays 10am - 4pm Fridays 10am - 2pm Sundays 10.30am - 12pm 01467 643883","opening":"Tu 10:00-16:00; We 10:00-16:00; Fr 10:00-14:00; Su 10:30-12:00"},"title":"Kemnay Church Centre"},"type":"Feature"},
		{"geometry":{"coordinates":[-2.37665,57.28429],"type":"Point"},"properties":{"_source":"aberdeenshire_council","description":"Inverurie Heat Hub Acorn Centre, Inverurie AB51 3SA Hot drinks and internet access Tuesdays to Saturdays, 9am - 4pm.","hours":{"_text":"Inverurie Heat Hub Acorn Centre, Inverurie AB51 3SA Hot drinks and internet access Tuesdays to Saturdays, 9am - 4pm.","opening":"Tu-Sa 09:00-16:00"},"title":"Inverurie West Parish Church"},"type":"Feature"},
		{"geometry":{"coordinates":[-2.34429,57.23715],"type":"Point"},"properties":{"_source":"aberdeenshire_council","description":"Kintore Church Hall, Castle Hill","hours":{"_text":"Kintore Church Hall, Castle Hill"},"title":"Kintore Warm Space"},"type":"Feature"},
		{"geometry":{"coordinates":[-2.27830,57.15530],"type":"Point"},"properties":{"_source":"aberdeenshire_council","description":"Westhill Drive, AB32 6FY. Open Wednesdays, 12-4pm. Soup and hot drinks available","hours":{"_text":"Westhill Drive, AB32 6FY. Open Wednesdays, 12-4pm. Soup and hot drinks available","opening":"We 12:00-16:00"},"title":"Trinity Church"},"type":"Feature"}
	]
}
