{
	"type": "FeatureCollection",
	"features": [
		{"geometry":{"coordinates":[-2.14161,57.15987],"type":"Point"},"properties":{"_source":"warm_welcome","address":"Cairncry Community Centre, Aberdeen, Aberdeenshire AB16 5HL","description":"Warm cafe setting offering free food & refreshments.","hours":{"_text":"Monday: 09:30 - 14:00, Tuesday: 09:30 - 14:00, Friday: 09:30 - 14:00","opening":"Mo 09:30-14:00; Tu 09:30-14:00; Fr 09:30-14:00"},"title":"Cairncry Community Centre Triple C Cafe"},"type":"Feature"},
		{"geometry":{"coordinates":[-2.44264,57.23377],"type":"Point"},"properties":{"_source":"warm_welcome","address":"Kemnay Church Centre, Aberdeenshire AB51 5QP","description":"SPACE OPENING ON 1st November 2023** Jigsaw club for jigsaw enthusiasts/non-enthusiasts alike. From 1 November 2023 till 29 March 2024 Wednesdays 2-4. Fridays 1-3 All welcome. Free hot/cold drinks and snacks","hours":{"_text":"Wednesday: 14:00 - 16:00, Friday: 13:00 - 15:00","opening":"We 14:00-16:00; Fr 13:00-15:00"},"title":"Jigsaw Club"},"type":"Feature"},
		{"geometry":{"coordinates":[-2.44264,57.23377],"type":"Point"},"properties":{"_source":"warm_welcome","address":"Kemnay Church Centre, Aberdeenshire AB51 5QP","description":"Jigsaw club for jigsaw enthusiasts/non-enthusiasts alike. From 1 November 2023 till 29 March 2024 Wednesdays 2-4. Fridays 1-3 All welcome. Free hot/cold drinks and snacks","hours":{"_text":"Wednesday: 14:00 - 16:00, Friday: 13:00 - 15:00","opening":"We 14:00-16:00; Fr 13:00-15:00"},"title":"Jigsaw Club"},"type":"Feature"},
		{"geometry":{"coordinates":[-2.12287,57.20006],"type":"Point"},"properties":{"_source":"warm_welcome","address":"Ashwood Park, Aberdeen, AB22 8PR","description":"A space to chat with friends, choose a book from our library/book exchange, or enjoy refreshments from our community cafe. Free WiFi available. We are on the no2 bus route (Ashwood) and have on site parking.","hours":{"_text":"Friday: 10:00 - 12:00","opening":"Fr 10:00-12:00"},"title":"Oldmachar Church of Scotland"},"type":"Feature"},
		{"geometry":{"coordinates":[-2.37849,57.28205],"type":"Point"},"properties":{"_source":"aberdeenshire_council","address":"West Church Hall, behind the West Church, Victoria Street, Inverurie, AB51 3QZ","description":"Open Door is a place where a hot drink, fine piece and other support services will be offered.","hours":{"_text":"Tuesdays 10:30am - 12:30pm ","opening":"Tu 10:30-12:30"},"loc_pcd":true,"title":"Catalyst Vineyard Church Community Campus"},"type":"Feature"},
		{"geometry":{"coordinates":[-2.38242,57.27854],"type":"Point"},"properties":{"_source":"aberdeenshire_council","address":"Kellands Park, Inverurie, AB51 3WG","description":"Winter Warmer for Inverurie and surrounding areas, free coffee and snacks.","hours":{"_text":"Every Friday 12noon - 2pm ","opening":"Fr 12:00-14:00"},"loc_pcd":true,"title":"Garioch Rugby Club"},"type":"Feature"},
		{"geometry":{"coordinates":[-2.44286,57.23418],"type":"Point"},"properties":{"_source":"aberdeenshire_council","address":"Church centre, Church Lane, Kemnay, AB51 5QP","contact":"Tel: 07476826846","description":"Soup, hot and cold drinks provided.","hours":{"_text":"October to March: Tuesday and Wednesday 10am - 4pm, Friday 10am - 2pm, Sunday 10.30am - 12pm ","opening":"Tu 10:00-16:00; We 10:00-16:00; Fr 10:00-14:00; Su 10:30-12:00"},"loc_pcd":true,"title":"Kemnay Parish Church","url":"https://kemnayparish.church/wp/contact/"},"type":"Feature"},
		{"geometry":{"coordinates":[-2.34226,57.23619],"type":"Point"},"properties":{"_source":"aberdeenshire_council","address":"Kingsfield Road, Kintore, Inverurie, AB51 0UB","description":"Soup and refreshments available. Come and use our Wi-Fi and charge up your devices.","hours":{"_text":"Thursdays 10am - 2pm","opening":"Th 10:00-14:00"},"loc_pcd":true,"title":"Kintore Parish Church Hall"},"type":"Feature"},
		{"geometry":{"coordinates":[-2.31230,57.15670],"type":"Point"},"properties":{"_source":"aberdeenshire_council","address":"Old Skene Road, Westhill, AB32 6AQ","contact":"Tel: 01224737380","description":"Simple free refreshments and table top activities and crafts.","hours":{"_text":"Mondays 1pm - 3pm","opening":"Mo 13:00-15:00"},"loc_pcd":true,"title":"Oasis Creative Wellbeing Cafe, Westhill Community Church","url":"https://www.westhillcommunitychurch.org/contact-us.html"},"type":"Feature"},
		{"geometry":{"coordinates":[-2.28236,57.15594],"type":"Point"},"properties":{"_source":"aberdeenshire_council","address":"Hay's Way, Westhill, AB32 6XZ","contact":"Tel: 01224917345","description":"Soup, tea, coffee and activities provided.","hours":{"_text":"Monday and Friday 10am - 4pm, Tuesday 10.30 am- 3.30pm, Wednesday 2pm - 8pm","opening":"Mo 10:00-16:00; Fr 10:00-16:00; Tu 10:30-15:30; We 14:00-20:00"},"loc_pcd":true,"title":"Westhill Men's Shed","url":"https://westhillmensshed.co.uk/contact/"},"type":"Feature"},
		{"geometry":{"coordinates":[-2.27838,57.15523],"type":"Point"},"properties":{"_source":"aberdeenshire_council","address":"Westhill Drive, Westhill, AB32 6FY","contact":"Tel: 012240742512; Email: scampbell@churchofscotland.org.uk","description":"All welcome. Soup, tea and coffee.","hours":{"_text":"Every Wednesday 12noon - 4pm","opening":"We 12:00-16:00"},"loc_pcd":true,"title":"Warm Wednesdays at Trinity Church, Westhill"},"type":"Feature"}
	]
}
