{
	"type": "FeatureCollection",
	"features": [
		{"geometry":{"coordinates":[-2.34052,52.99601],"type":"Point"},"properties":{"_source":"warm_welcome","address":"Bar Hill/Vicarage Lane, Madeley, Crewe CW3 9PH","description":"Our warm space is part of the Madeley Hub, hosted by All Saints Church. It includes the local Trussell Trust foodbank, a toddler craft and play corner, and a welcoming space to come and have a chat.","hours":{"_text":"Wednesday: 10:30 - 12:00","opening":"We 10:30-12:00"},"title":"All Saints Church"},"type":"Feature"},
		{"geometry":{"coordinates":[-2.34052,52.99601],"type":"Point"},"properties":{"_source":"warm_welcome","address":"All Saints' Church, Vicarage Lane, Madeley, Crewe CW3 9PH","description":"All welcome","hours":{"_text":"Wednesday: 10:30 - 12:00","opening":"We 10:30-12:00"},"title":"All Saints' Parish Church Madeley"},"type":"Feature"},
		{"geometry":{"coordinates":[-2.31176,53.09952],"type":"Point"},"properties":{"_source":"warm_welcome","address":"Sandbach Road North, Alsager, Stoke on Trent ST7 2QH","hours":{"_text":"Monday: 9:00 - 17:00, Tuesday: 9:00 - 19:00, Wednesday: 9:00 - 17:00, Thursday: 9:00 - 17:00, Friday: 9:00 - 17:00, Saturday: 9:00 - 13:00","opening":"Mo 09:00-17:00; Tu 09:00-19:00; We 09:00-17:00; Th 09:00-17:00; Fr 09:00-17:00; Sa 09:00-13:00"},"title":"Alsager Library"},"type":"Feature"},
		{"geometry":{"coordinates":[-2.12913,53.01316],"type":"Point"},"properties":{"_source":"warm_welcome","address":"Bentilee Library, Bentilee Neighbourhood Centre, Dawlish Drive, Stoke-on-Trent ST2 0EU","hours":{"_text":"Monday: 10:00 - 14:00, Tuesday: 09:00 - 12:30 / 13:30 - 17:00, Friday: 09:00 - 12:30 / 13:30 - 17:00, Saturday: 10:00 - 14:00 / - Fortnightly","opening":"Mo 10:00-14:00; Tu 09:00-12:30,13:30-17:00; Fr 09:00-12:30,13:30-17:00; Sa 10:00-14:00"},"title":"Bentilee Library"},"type":"Feature"},
		{"geometry":{"coordinates":[-2.36855,53.03523],"type":"Point"},"properties":{"_source":"warm_welcome","address":"The Reading Room, Main Road, Betley, Crewe, Staffordshire CW3 9AB","hours":{"_text":"Monday: 10:30 - 12:30, Thursday: 10:30 - 12:30, Saturday: 10:30 - 12:30","opening":"Mo 10:30-12:30; Th 10:30-12:30; Sa 10:30-12:30"},"title":"Betley Reading Room"},"type":"Feature"},
		{"geometry":{"coordinates":[-2.20281,52.99520],"type":"Point"},"properties":{"_source":"warm_welcome","address":"4 Woodberry Close, Stoke-on-Trent , Staffordshire ST4 5LU","description":"Open from 11-10-2022. on street parking, snacks available, baby changing facility","hours":{"_text":"Tuesday: 8:30 - 10:00, Wednesday: 9:00 - 11:30, Thursday: 10:00 - 12:30, Saturday: 10:30 - 13:00","opening":"Tu 08:30-10:00; We 09:00-11:30; Th 10:00-12:30; Sa 10:30-13:00"},"title":"Better Together Community Support Group for Stoke-on-Trent and NuL"},"type":"Feature"},
		{"geometry":{"coordinates":[-2.23310,53.04096],"type":"Point"},"properties":{"_source":"warm_welcome","address":"2 Cardway , Bradwell, Newcastle, Staffordshire ST5 8EB","description":"Open from 12 October 2022. Our focus is catering for adults. Warm space with chance to talk, knit, play board games","hours":{"_text":"Wednesday: 14:00 - 16:00","opening":"We 14:00-16:00"},"title":"Bradwell Methodist Church"},"type":"Feature"},
		{"geometry":{"coordinates":[-2.43962,53.09664],"type":"Point"},"properties":{"_source":"warm_welcome","address":"Crewe Library, Crewe Lifestyle Centre, Moss Square, Crewe, Cheshire CW1 2BB","hours":{"_text":"Monday: 9:00 - 18:00, Tuesday: 9:00 - 18:00, Wednesday: 9:00 - 18:00, Thursday: 9:00 - 18:00, Friday: 9:00 - 18:00, Saturday: 9:00 - 13:00","opening":"Mo 09:00-18:00; Tu 09:00-18:00; We 09:00-18:00; Th 09:00-18:00; Fr 09:00-18:00; Sa 09:00-13:00"},"title":"Cheshire East - Crewe Library"},"type":"Feature"},
		{"geometry":{"coordinates":[-2.21245,53.06331],"type":"Point"},"properties":{"_source":"warm_welcome","address":"Christ Church Hall, Tunstall, Stoke-on-Trent ST6 5EJ","hours":{"_text":"Thursday: 11:00 - 13:00","opening":"Th 11:00-13:00"},"title":"Christ Church Tunstall"},"type":"Feature"},
		{"geometry":{"coordinates":[-2.17677,53.02240],"type":"Point"},"properties":{"_source":"warm_welcome","address":"City Central Library, Bethesda Street, Hanley, Stoke-on-Trent ST1 3RS","hours":{"_text":"Monday: 09:00 - 14:00, Tuesday: 13:00 - 17:00, Wednesday: 09:00 - 14:00, Thursday: 13:00 - 18:00, Friday: 09:00 - 14:00, Saturday: 10:00 - 14:00","opening":"Mo 09:00-14:00; Tu 13:00-17:00; We 09:00-14:00; Th 13:00-18:00; Fr 09:00-14:00; Sa 10:00-14:00"},"title":"City Central Library"},"type":"Feature"},
		{"geometry":{"coordinates":[-2.27173,53.01500],"type":"Point"},"properties":{"_source":"warm_welcome","address":"High Street, Silverdale, Newcastle-under-Lyme, Staffordshire ST56LY","description":"Everyone is very welcome","hours":{"_text":"Friday: 10:00 - 13:00, Sunday: 10:00 - 12:00","opening":"Fr 10:00-13:00; Su 10:00-12:00"},"title":"Cornerstone Elim Church"},"type":"Feature"},
		{"geometry":{"coordinates":[-2.18600,53.07361],"type":"Point"},"properties":{"_source":"warm_welcome","address":"The Hub, Fegg Hayes, Stoke on Trent ST6 6QR","description":"Open from 01/11/22. From 1st November, on a Tuesday morning between 11:00 and 12.00 there is also a free community singing group.","hours":{"_text":"Tuesday: 10:00 - 12:00, Thursday: 10:00 - 12:00","opening":"Tu 10:00-12:00; Th 10:00-12:00"},"title":"Fegg Hayes Futures"},"type":"Feature"},
		{"geometry":{"coordinates":[-2.23176,53.00829],"type":"Point"},"properties":{"_source":"warm_welcome","address":"The Higherland Newcastle-under-Lyme Staffordshire ST5 2TF, Newcastle-under-Lyme , Staffordshire ST5 2TF","description":"Open from 08 12 2022. We are extremely sorry but due to lack of response we have closed down","title":"Higherland Methodist Church"},"type":"Feature"},
		{"geometry":{"coordinates":[-2.13808,53.02548],"type":"Point"},"properties":{"_source":"warm_welcome","address":"Kingsland C. E. Academy Werrington Road, Stoke-on-Trent, Staffordshire ST2 9AS","hours":{"_text":"Monday: 07:30 - 16:00, Tuesday: 07:30 - 16:00, Wednesday: 07:30 - 16:00, Thursday: 07:30 - 16:00, Friday: 07:30 - 15:00","opening":"Mo 07:30-16:00; Tu 07:30-16:00; We 07:30-16:00; Th 07:30-16:00; Fr 07:30-15:00"},"title":"Kingsland C of E Academy"},"type":"Feature"},
		{"geometry":{"coordinates":[-2.13292,52.98367],"type":"Point"},"properties":{"_source":"warm_welcome","address":"Longton Library, Lightwood Road, Longton, Stoke-on-Trent ST3 4HY","hours":{"_text":"Monday: 10:00 - 12:30 / 13:30 - 18:00, Tuesday: 09:00 - 12:30 / 13:30 - 17:00, Wednesday: 09:00 - 12:30 / 13:30 - 17:00, Friday: 09:00 - 12:30 / 13:30 - 17:00, Saturday: 10:00 - 14:00","opening":"Mo 10:00-12:30,13:30-18:00; Tu 09:00-12:30,13:30-17:00; We 09:00-12:30,13:30-17:00; Fr 09:00-12:30,13:30-17:00; Sa 10:00-14:00"},"title":"Longton Library"},"type":"Feature"},
		{"geometry":{"coordinates":[-2.21969,52.99471],"type":"Point"},"properties":{"_source":"warm_welcome","address":"35 Stafford Avenue, Newcastle-under-Lyme, Staffordshire ST5 3BN","description":" Open from 03-11-2022.","hours":{"_text":"Thursday: 10:00 - 12:00","opening":"Th 10:00-12:00"},"title":"Newcastle Baptist Church"},"type":"Feature"},
		{"geometry":{"coordinates":[-2.35685,53.08655],"type":"Point"},"properties":{"_source":"warm_welcome","address":"Butterton Lane, Oakhanger, Crewe, Cheshire CW15UU","description":"Wednesday afternoon is a Ladies Group offering support and social contact.","hours":{"_text":"Wednesday: 14:00 - 16:00, Sunday: 18:00 - 20:00 / - Fortnightly","opening":"We 14:00-16:00; Su 18:00-20:00"},"title":"Oakhanger church and community group"},"type":"Feature"},
		{"geometry":{"coordinates":[-2.26577,53.01458],"type":"Point"},"properties":{"_source":"warm_welcome","address":"Earl Street , Silverdale , Newcastle , Staffordshire ST5 6NF","description":"Open from May 2020.","hours":{"_text":"Wednesday: 14:45 - 15:45, Friday: 14:45 - 15:45, Sunday: 10:15 - 11:00","opening":"We 14:45-15:45; Fr 14:45-15:45; Su 10:15-11:00"},"title":"Silverdale Methodist Church"},"type":"Feature"},
		{"geometry":{"coordinates":[-2.15536,52.98270],"type":"Point"},"properties":{"_source":"warm_welcome","address":"131 Longton Hall Road, Stoke on Trent, Staffordshire ST3 2EL","hours":{"_text":"Wednesday: 09:30 - 12:00","opening":"We 09:30-12:00"},"title":"St Paul's Church"},"type":"Feature"},
		{"geometry":{"coordinates":[-2.18357,53.00281],"type":"Point"},"properties":{"_source":"warm_welcome","address":"Stoke Library, South Wolfe Street, Stoke, Stoke-on-Trent ST4 4SZ","hours":{"_text":"Monday: 09:00 - 12:30 / 13:30 - 17:00, Tuesday: 09:00 - 12:30 / 13:30 - 18:00, Wednesday: 09:00 - 12:30 / 13:30 - 17:00, Thursday: 09:00 - 12:30 / 13:30 - 17:00, Friday: 09:00 - 12:30 / 13:30 - 17:00, Saturday: 10:00 - 14:00","opening":"Mo 09:00-12:30,13:30-17:00; Tu 09:00-12:30,13:30-18:00; We 09:00-12:30,13:30-17:00; Th 09:00-12:30,13:30-17:00; Fr 09:00-12:30,13:30-17:00; Sa 10:00-14:00"},"title":"Stoke Library"},"type":"Feature"},
		{"geometry":{"coordinates":[-2.19590,53.04552],"type":"Point"},"properties":{"_source":"warm_welcome","address":"Swan Square, Burslem , Stoke-on-Trent ST6 2AA","hours":{"_text":"Monday: 09:30 - 17:00, Tuesday: 09:30 - 17:00, Wednesday: 09:30 - 17:00, Thursday: 09:30 - 17:00, Friday: 09:30 - 17:00","opening":"Mo 09:30-17:00; Tu 09:30-17:00; We 09:30-17:00; Th 09:30-17:00; Fr 09:30-17:00"},"title":"Swan Bank Methodist church"},"type":"Feature"},
		{"geometry":{"coordinates":[-2.16836,52.99932],"type":"Point"},"properties":{"_source":"warm_welcome","address":"Temple Street, Fenton, STOKE-ON-TRENT ST4 4NW","hours":{"_text":"Thursday: 10:00 - 12:00 / -","opening":"Th 10:00-12:00"},"title":"Temple Street Methodist Church & Community Centre"},"type":"Feature"},
		{"geometry":{"coordinates":[-2.21193,53.06020],"type":"Point"},"properties":{"_source":"warm_welcome","address":"Dunning Street, Tunstall, Stoke-on-Trent, Staffs ST6 5AP","description":"Open from Thursday 12th January 2023.","hours":{"_text":"Thursday: 13:00 - 15:00","opening":"Th 13:00-15:00"},"title":"The Salvation Army Tunstall Corps"},"type":"Feature"},
		{"geometry":{"coordinates":[-2.19373,52.97062],"type":"Point"},"properties":{"_source":"warm_welcome","address":"Community Learning Centre, Trentham Academy, Allerton Road, Trentham, Stoke-on-Trent ST4 8PQ","hours":{"_text":"Tuesday: 10:00 - 12:00 / 13:30 - 15:30","opening":"Tu 10:00-12:00,13:30-15:30"},"title":"Trentham Reads"},"type":"Feature"},
		{"geometry":{"coordinates":[-2.21014,53.05834],"type":"Point"},"properties":{"_source":"warm_welcome","address":"Tunstall Library, Tunstall Town Hall, 142 High Street, Tunstall, Stoke-on-Trent ST6 5TP","hours":{"_text":"Monday: 09:00 - 12:30 / 13:30 - 17:00, Tuesday: 09:00 - 12:30 / 13:30 - 18:00, Wednesday: 09:00 - 12:30 / 13:30 - 17:00, Thursday: 10:00 - 14:00, Friday: 09:00 - 12:30 / 13:30 - 17:00, Saturday: 10:00 - 14:00 / - Fortnightly","opening":"Mo 09:00-12:30,13:30-17:00; Tu 09:00-12:30,13:30-18:00; We 09:00-12:30,13:30-17:00; Th 10:00-14:00; Fr 09:00-12:30,13:30-17:00; Sa 10:00-14:00"},"title":"Tunstall Library"},"type":"Feature"},
		{"geometry":{"coordinates":[-2.19223,52.99478],"type":"Point"},"properties":{"_source":"warm_welcome","address":"405 London Rd , Stoke on Trent , Staffs ST4 5AW","title":"West End Methodist Church and Centre"},"type":"Feature"},
		{"geometry":{"coordinates":[-2.24140,53.08596],"type":"Point"},"properties":{"_source":"warm_spaces","address":"The Avenue, Stoke-on-Trent, England, ST7 1AG, United Kingdom","description":"Free Food/Drink, Device Charging, People to chat to, Space to work, Wheelchair Accessible, Toilets, Accessible Toilet, Parking, Child Friendly","hours":{"_text":"Fri, 10am - 4pm","opening":"Fr 10:00-16:00"},"title":"The Wade Centre, Kidsgrove","url":"https://www.stthomaskidsgrove.co.uk"},"type":"Feature"},
		{"geometry":{"coordinates":[-2.30197,53.05357],"type":"Point"},"properties":{"_source":"warm_spaces","address":"Church Street, Stoke-on-Trent, England, ST7, United Kingdom","description":"Free Food/Drink, People to chat to, Space to work, Wheelchair Accessible, Toilets, Accessible Toilet, Parking, Child Friendly, Pet Friendly","hours":{"_text":"9:30am-3pm"},"title":"Audley Pensioners Hall"},"type":"Feature"},
		{"geometry":{"coordinates":[-2.21916,52.99447],"type":"Point"},"properties":{"_source":"warm_spaces","address":"35 Stafford Avenue, Newcastle, England, ST5 3BN, United Kingdom","description":"Free Food/Drink, Free Wi-Fi, Device Charging, People to chat to, Space to work, Wheelchair Accessible, Toilets, Accessible Toilet, Parking","hours":{"_text":"Thursday 10am-12noon","opening":"Th 10:00-12:00"},"title":"Newcastle Baptist Church","url":"https://www.newcastlebaptist.org.uk"},"type":"Feature"},
		{"geometry":{"coordinates":[-2.34013,52.99574],"type":"Point"},"properties":{"_source":"warm_spaces","address":"Vicarage Ln &amp; Bar Hill, Crewe, England, CW3 9PH, United Kingdom","description":"Free Food/Drink, People to chat to, Wheelchair Accessible, Toilets, Parking, Child Friendly","hours":{"_text":"Wednesday 10.30am-12pm","opening":"We 10:30-12:00"},"title":"Madeley Hub, All Saints Church","url":"https://www.facebook.com/allsaintsmadeley/"},"type":"Feature"},
		{"geometry":{"coordinates":[-2.30135,53.05378],"type":"Point"},"properties":{"_source":"warm_spaces","address":"Audley Library, Hall Street, Stoke-on-Trent, England, ST7 8DB, United Kingdom","description":"Free Food/Drink, Advice, People to chat to, Space to work, Wheelchair Accessible, Toilets, Accessible Toilet, Parking, Child Friendly, Computer Access","hours":{"_text":"Mon 1pm-4pm, Tues, Thursday, Friday 10am-4pm, Sat 10am-1pm","opening":"Tu 10:00-16:00; Th 10:00-16:00; Fr 10:00-16:00; Mo 13:00-16:00; Sa 10:00-13:00"},"title":"Audley Library"},"type":"Feature"},
		{"geometry":{"coordinates":[-2.25967,53.08629],"type":"Point"},"properties":{"_source":"warm_spaces","address":"4 Church Street, Stoke-on-Trent, England, ST7 1NU, United Kingdom","description":"Free Food/Drink, Free Wi-Fi, Device Charging, People to chat to, Space to work, Reading, Jigsaws and Games","hours":{"_text":"11am-3pm"},"title":"Butt Lane Baptist Church","url":"https://en-gb.facebook.com/people/BUTT-LANE-Baptist-Church/100064378703431/"},"type":"Feature"},
		{"geometry":{"coordinates":[-2.31681,53.09779],"type":"Point"},"properties":{"_source":"cheshire_east_council","title":"Christ Church Alsager (Warm Place in CE)","url":"https://livewellservices.cheshireeast.gov.uk"},"type":"Feature"},
		{"geometry":{"coordinates":[-2.39468,53.10276],"type":"Point"},"properties":{"_source":"cheshire_east_council","title":"Haslington Gutterscroft Centre (Warm Place in CE)","url":"https://livewellservices.cheshireeast.gov.uk"},"type":"Feature"},
		{"geometry":{"coordinates":[-2.39485,53.09731],"type":"Point"},"properties":{"_source":"cheshire_east_council","title":"Haslington Yoxall Village Hall (Warm Place in CE)","url":"https://livewellservices.cheshireeast.gov.uk"},"type":"Feature"},
		{"geometry":{"coordinates":[-2.30328,53.09624],"type":"Point"},"properties":{"_source":"cheshire_east_council","title":"Home Coffee &amp; Studio Alsager (Warm Place in CE)","url":"https://livewellservices.cheshireeast.gov.uk"},"type":"Feature"},
		{"geometry":{"coordinates":[-2.30237,53.09644],"type":"Point"},"properties":{"_source":"cheshire_east_council","title":"Wesley Place Methodist Church Alsager (Warm Place in CE)","url":"https://livewellservices.cheshireeast.gov.uk"},"type":"Feature"},
		{"geometry":{"coordinates":[-2.44926,53.10109],"type":"Point"},"properties":{"_source":"cheshire_east_council","title":"Barnies (Warm Place in CE)","url":"https://livewellservices.cheshireeast.gov.uk"},"type":"Feature"},
		{"geometry":{"coordinates":[-2.30398,53.09643],"type":"Point"},"properties":{"_source":"cheshire_east_council","title":"Alsager Community Church (The Meeting Place Coffee Shop) (Warm Place in CE)","url":"https://livewellservices.cheshireeast.gov.uk"},"type":"Feature"},
		{"geometry":{"coordinates":[-2.45617,53.09856],"type":"Point"},"properties":{"_source":"cheshire_east_council","title":"Armed Forces &amp; Veterans Breakfast Club (Warm Place in CE)","url":"https://livewellservices.cheshireeast.gov.uk"},"type":"Feature"},
		{"geometry":{"coordinates":[-2.35988,53.08703],"type":"Point"},"properties":{"_source":"cheshire_east_council","title":"Oakhanger Church and Community Centre (Warm Place in CE)","url":"https://livewellservices.cheshireeast.gov.uk"},"type":"Feature"},
		{"geometry":{"coordinates":[-2.29262,53.11314],"type":"Point"},"properties":{"_source":"cheshire_east_council","title":"Good Shepherd Church (Warm Place in CE)","url":"https://livewellservices.cheshireeast.gov.uk"},"type":"Feature"},
		{"geometry":{"coordinates":[-2.45104,53.10054],"type":"Point"},"properties":{"_source":"cheshire_east_council","title":"West Street Christian Fellowship (Warm Place in CE)","url":"https://livewellservices.cheshireeast.gov.uk"},"type":"Feature"},
		{"geometry":{"coordinates":[-2.43525,53.08353],"type":"Point"},"properties":{"_source":"cheshire_east_council","title":"YMCA Crewe (Glo Cafe)","url":"https://livewellservices.cheshireeast.gov.uk"},"type":"Feature"},
		{"geometry":{"coordinates":[-2.44141,53.09587],"type":"Point"},"properties":{"_source":"cheshire_east_council","title":"The Wishing Well (Warm Place in CE)","url":"https://livewellservices.cheshireeast.gov.uk"},"type":"Feature"},
		{"geometry":{"coordinates":[-2.43228,53.09805],"type":"Point"},"properties":{"_source":"cheshire_east_council","title":"St. Peters Church (Warm Place in CE)","url":"https://livewellservices.cheshireeast.gov.uk"},"type":"Feature"},
		{"geometry":{"coordinates":[-2.44908,53.06281],"type":"Point"},"properties":{"_source":"cheshire_east_council","title":"Shavington-cum-Gresty Village Hall (Warm Place in CE)","url":"https://livewellservices.cheshireeast.gov.uk"},"type":"Feature"},
		{"geometry":{"coordinates":[-2.44419,53.08594],"type":"Point"},"properties":{"_source":"cheshire_east_council","title":"St Andrews Church Hall (Warm Place in CE)","url":"https://livewellservices.cheshireeast.gov.uk"},"type":"Feature"},
		{"geometry":{"coordinates":[-2.29440,53.09947],"type":"Point"},"properties":{"_source":"cheshire_east_council","title":"Alsager Social Club (Warm Place in CE)","url":"https://livewellservices.cheshireeast.gov.uk"},"type":"Feature"},
		{"geometry":{"coordinates":[-2.33963,52.99607],"type":"Point"},"properties":{"_source":"newcastle_under_lyme_council","address":"Vicarage Ln, Madeley, Crewe CW3 9PQ","description":"Free hot drinks and food available.","hours":{"_text":"Wednesday, 10.30am to 12 noon","opening":"We 10:30-12:00"},"title":"All Saints Church, Madeley","url":"https://www.facebook.com/allsaintsmadeley/?locale=en_GB"},"type":"Feature"},
		{"geometry":{"coordinates":[-2.30098,53.05365],"type":"Point"},"properties":{"_source":"newcastle_under_lyme_council","address":"Hall St, Audley, Stoke-on-Trent ST7 8DB","description":"Free hot drinks available.","hours":{"_text":"Monday, 1pm to 4pm Tuesday, 10am to 4pm Thursday, 10am to 4pm Friday, 10am to 4pm Saturday, 10am to 1pm","opening":"Mo 13:00-16:00; Tu 10:00-16:00; Th 10:00-16:00; Fr 10:00-16:00; Sa 10:00-13:00"},"title":"Audley Library","url":"https://www.staffordshire.gov.uk/Libraries/branchlibraries/AudleyLibrary/AudleyLibrary.aspx"},"type":"Feature"},
		{"geometry":{"coordinates":[-2.36878,53.03521],"type":"Point"},"properties":{"_source":"newcastle_under_lyme_council","address":"The Reading Room, Main Road, Betley CW3 9AB","description":"Â£1 for hot drinks and biscuits available.","hours":{"_text":"Monday, Thursday and Saturday, 10.30am to 12.30pm","opening":"Mo 10:30-12:30; Th 10:30-12:30; Sa 10:30-12:30"},"title":"Betley Reading Room","url":"https://en-gb.facebook.com/ReadingRoomBetley/"},"type":"Feature"},
		{"geometry":{"coordinates":[-2.23144,53.04049],"type":"Point"},"properties":{"_source":"newcastle_under_lyme_council","address":"2 Cardway, Newcastle-under-Lyme, Newcastle ST5 8JS","description":"Free hot drinks available.","hours":{"_text":"Wednesday, 2pm to 4pm","opening":"We 14:00-16:00"},"title":"Bradwell Methodist Church","url":"https://www.newcastle-staffs.gov.uk/directory-record/95624/bradwell-methodist-church"},"type":"Feature"},
		{"geometry":{"coordinates":[-2.21906,53.01680],"type":"Point"},"properties":{"_source":"newcastle_under_lyme_council","address":"Brampton Park, Newcastle-under-Lyme ST5 0QP","description":"Free wi-fi and free tickets to regular activities. Please enquire.","hours":{"_text":"Tuesday to Saturday, 10am to 5pm Sunday, 1:30pm to 5pm","opening":"Tu-Sa 10:00-17:00; Su 13:30-17:00"},"title":"Brampton Museum","url":"mailto:bramptonmuseum@newcastle-staffs.gov.uk"},"type":"Feature"},
		{"geometry":{"coordinates":[-2.26084,53.08704],"type":"Point"},"properties":{"_source":"newcastle_under_lyme_council","address":"4 Church St, Butt Lane, Talke, Stoke-on-Trent ST7 1NU","description":"Free hot drinks and food available.","hours":{"_text":"Monday, 11.30am to 2pm Friday, 11.30am to 2pm","opening":"Mo 11:30-14:00; Fr 11:30-14:00"},"title":"Butt Lane Baptist Church","url":"https://www.buttlanebaptistchurch.com/"},"type":"Feature"},
		{"geometry":{"coordinates":[-2.24785,53.03727],"type":"Point"},"properties":{"_source":"newcastle_under_lyme_council","address":"London Rd, Chesterton, Newcastle ST5 7JB","description":"Free hot drinks and food available.","hours":{"_text":"Open from 2 February to 30 March 2023. Friday, 10am to 12 noon","opening":"Fr 10:00-12:00"},"title":"Chesterton Community Centre","url":"https://www.newcastle-staffs.gov.uk/directory-record/95638/chesterton-community-centre"},"type":"Feature"},
		{"geometry":{"coordinates":[-2.26787,53.01487],"type":"Point"},"properties":{"_source":"newcastle_under_lyme_council","address":"High St, Silverdale, Newcastle ST5 6LY","hours":{"_text":"Friday, 10am to 1pm Sunday, 10am to 12 noon","opening":"Fr 10:00-13:00; Su 10:00-12:00"},"title":"Cornerstone Elim Church","url":"https://www.elim.family/"},"type":"Feature"},
		{"geometry":{"coordinates":[-2.29877,53.03730],"type":"Point"},"properties":{"_source":"newcastle_under_lyme_council","address":"High St, Stoke-on-Trent ST7 8AD","description":"Free hot drinks and food available.","hours":{"_text":"Open from 26 January to 30 March 2023. Thursday, 12 noon to 2pm","opening":"Th 12:00-14:00"},"title":"Halmer End Methodist Church","url":"https://www.halmerendmethodists.org.uk/"},"type":"Feature"},
		{"geometry":{"coordinates":[-2.23114,53.00836],"type":"Point"},"properties":{"_source":"newcastle_under_lyme_council","address":"Higherland, Newcastle-under-Lyme, Newcastle ST5 2TF","description":"Free hot drinks and food available.","hours":{"_text":"Thursday, 10am to 4pm","opening":"Th 10:00-16:00"},"title":"Higherland Methodist Church","url":"https://www.higherlandchurch.org/"},"type":"Feature"},
		{"geometry":{"coordinates":[-2.26034,53.08261],"type":"Point"},"properties":{"_source":"newcastle_under_lyme_council","address":"Hollins Grange, Talke, Stoke-on-Trent, ST7 1RL","hours":{"_text":"Open on Wednesday 8 February, 10am to 12 noon."},"title":"Hollins Grange (Aspire Housing, Community Living Scheme)","url":"https://www.aspirehousing.co.uk/"},"type":"Feature"},
		{"geometry":{"coordinates":[-2.23861,53.08701],"type":"Point"},"properties":{"_source":"newcastle_under_lyme_council","address":"The Labour Club, 52 Market St, Kidsgrove, Stoke-on-Trent, ST7 4AB","description":"Free hot drinks and food available.","hours":{"_text":"Tuesday to Friday, 11am to 1pm","opening":"Tu-Fr 11:00-13:00"},"title":"Kidsgrove Rotary Food Hub","url":"https://www.newcastle-staffs.gov.uk/directory-record/95640/kidsgrove-rotary-food-hub"},"type":"Feature"},
		{"geometry":{"coordinates":[-2.24641,53.08350],"type":"Point"},"properties":{"_source":"newcastle_under_lyme_council","address":"Fourth Ave, Kidsgrove, Stoke-on-Trent ST7 1DR","description":"Space to sit is available in reception and free hot drinks available.","hours":{"_text":"Please see centre website for opening times."},"title":"Kidsgrove Sports Centre","url":"https://kidsgrovesportscentre.co.uk/"},"type":"Feature"},
		{"geometry":{"coordinates":[-2.23866,53.08632],"type":"Point"},"properties":{"_source":"newcastle_under_lyme_council","address":"Liverpool Road, Kidsgrove, Stoke-on-Trent ST7 4EL","description":"Free hot drinks and food available.","hours":{"_text":"Tuesday, 9am to 1pm Thursday, 9am to 1pm","opening":"Tu 09:00-13:00; Th 09:00-13:00"},"title":"Kidsgrove Town Hall","url":"https://www.newcastle-staffs.gov.uk/directory-record/95639/kidsgrove-town-hall"},"type":"Feature"},
		{"geometry":{"coordinates":[-2.33969,53.00006],"type":"Point"},"properties":{"_source":"newcastle_under_lyme_council","address":"Poolside, Madeley, Crewe CW3 9DX","description":"Free hot drinks and food available.","hours":{"_text":"Wednesday, 11am to 1pm","opening":"We 11:00-13:00"},"title":"Madeley Methodist Church","url":"https://www.northstaffordshiremethodists.org.uk/churches/church-profiles/madeley-methodist-church.php"},"type":"Feature"},
		{"geometry":{"coordinates":[-2.21685,53.11275],"type":"Point"},"properties":{"_source":"newcastle_under_lyme_council","address":"71 Top Station Rd, Mow Cop, Stoke-on-Trent ST7 3NY","description":"Free hot drinks and food available for a small donation.","hours":{"_text":"Wednesday, 2pm to 4pm","opening":"We 14:00-16:00"},"title":"Mow Cop Community Church","url":"https://mowcopchurch.com/"},"type":"Feature"},
		{"geometry":{"coordinates":[-2.21454,53.01605],"type":"Point"},"properties":{"_source":"newcastle_under_lyme_council","address":"Etruria Rd, Newcastle-under-Lyme, Newcastle ST5 0JG","description":"Free hot drinks and food available.","hours":{"_text":"Tuesday and Friday, 10am to 11.30am","opening":"Tu 10:00-11:30; Fr 10:00-11:30"},"title":"New Vic Theatre","url":"https://www.newvictheatre.org.uk/"},"type":"Feature"},
		{"geometry":{"coordinates":[-2.21780,52.99450],"type":"Point"},"properties":{"_source":"newcastle_under_lyme_council","address":"35 Stafford Ave, Newcastle-under-Lyme, Newcastle ST5 3BN","description":"Free hot drinks available.","hours":{"_text":"Thursday, 10am to 12 noon","opening":"Th 10:00-12:00"},"title":"Newcastle Baptist Church","url":"https://www.newcastlebaptist.org.uk/"},"type":"Feature"},
		{"geometry":{"coordinates":[-2.26787,53.01487],"type":"Point"},"properties":{"_source":"newcastle_under_lyme_council","address":"High Street, Silverdale, Newcastle-under-Lyme, ST5 6LY","description":"Free hot drinks available.","hours":{"_text":"Monday, 9am to 4pm Tuesday, 9am to 4pm Thursday, 9am to 1pm Friday, 10am to 2pm","opening":"Mo 09:00-16:00; Tu 09:00-16:00; Th 09:00-13:00; Fr 10:00-14:00"},"title":"Silverdale Library","url":"https://www.staffordshire.gov.uk/Libraries/branchlibraries/SilverdaleLibrary/SilverdaleLibrary.aspx"},"type":"Feature"},
		{"geometry":{"coordinates":[-2.26550,53.01461],"type":"Point"},"properties":{"_source":"newcastle_under_lyme_council","address":"Earl St, Silverdale, Newcastle-under-Lyme ST5 6NF","description":"Free hot drinks and food available.","hours":{"_text":"Wednesday and Friday, 2.45pm to 3.45pm Sunday, 10.15am to 11am","opening":"We 14:45-15:45; Fr 14:45-15:45; Su 10:15-11:00"},"title":"Silverdale Methodist Church","url":"https://www.silverdalemethodistchurch.org.uk/"},"type":"Feature"},
		{"geometry":{"coordinates":[-2.22934,53.01134],"type":"Point"},"properties":{"_source":"newcastle_under_lyme_council","address":"Church St, Newcastle-under-Lyme, Newcastle ST5 1QS","description":"Free hot drinks and food available.","hours":{"_text":"Friday, 9.30am to 1.30pm","opening":"Fr 09:30-13:30"},"title":"St Giles Parish Church","url":"http://www.stgilesnewcastle.org.uk/"},"type":"Feature"},
		{"geometry":{"coordinates":[-2.30227,53.05471],"type":"Point"},"properties":{"_source":"newcastle_under_lyme_council","address":"16 Church St, Audley, Stoke-on-Trent ST7 8DE","description":"Free hot drinks and biscuits in the afternoon only.","hours":{"_text":"Friday, 9.30am to 3pm Open until 10 March 2023.","opening":"Fr 09:30-15:00"},"title":"St James Church Hall","url":"https://www.newcastle-staffs.gov.uk/directory-record/95618/st-james-church-hall"},"type":"Feature"},
		{"geometry":{"coordinates":[-2.22687,53.01077],"type":"Point"},"properties":{"_source":"newcastle_under_lyme_council","address":"The Guildhall, High St, Newcastle-under-Lyme, Newcastle ST5 1PW","description":"Free hot drinks and biscuits available.","hours":{"_text":"Monday to Friday, 10am to 4pm Saturday, 10am to 1pm Open until 31 March 2023.","opening":"Mo-Fr 10:00-16:00; Sa 10:00-13:00"},"title":"The Guildhall","url":"https://fotguildhall.org.uk/"},"type":"Feature"},
		{"geometry":{"coordinates":[-2.30058,53.05419],"type":"Point"},"properties":{"_source":"newcastle_under_lyme_council","address":"Church Street, Audley ST7 8EW","description":"Free hot drinks and biscuits available in the afternoon.","hours":{"_text":"Friday, 9.30am to 3pm","opening":"Fr 09:30-15:00"},"title":"The Pensioner's Hall, Audley","url":"https://www.facebook.com/PensionerHall/"},"type":"Feature"},
		{"geometry":{"coordinates":[-2.25101,53.04348],"type":"Point"},"properties":{"_source":"newcastle_under_lyme_council","address":"63 Brick-Kiln Ln, Newcastle ST5 7FA","description":"Free hot drinks and food available.","hours":{"_text":"Tuesday, 10am to 1pm","opening":"Tu 10:00-13:00"},"title":"The Salvation Army, Chesterton","url":"https://www.salvationarmy.org.uk/chesterton"},"type":"Feature"},
		{"geometry":{"coordinates":[-2.12130,52.98320],"type":"Point"},"properties":{"_source":"staffordshire_fire_and_rescue","address":"Uttoxeter Road, Longton, ST3 1NS","hours":{"_text":"Every Wednesday, 2pm - 4pm from 11 January","opening":"We 14:00-16:00"},"title":"Longton Community Fire Station","url":"https://www.staffordshirefire.gov.uk/fire-stations/longton/"},"type":"Feature"}
	]
}
