{
	"type": "FeatureCollection",
	"features": [
		{"geometry":{"coordinates":[-2.33900,52.99590],"type":"Point"},"properties":{"_source":"warm_welcome","address":"Bar Hill/Vicarage Lane, Madeley, Crewe","description":"Our church is open every Wednesday morning for a friendly welcome with free refreshments. Our warm space runs alongside our foodbank. We also have a children's corner and small toy library. All are welcome.","hours":{"_text":"Wednesday: 10:30 - 12:00","opening":"We 10:30-12:00"},"title":"All Saints Church"},"type":"Feature"},
		{"geometry":{"coordinates":[-2.30498,53.09650],"type":"Point"},"properties":{"_source":"warm_welcome","address":"Alsager Library, Cheshire ST7 2QH","description":"A local library offering a range of services and open to all. Located near shops and amenities.","hours":{"_text":"Monday: 09:00 - 17:00, Tuesday: 09:00 - 19:00, Wednesday: 09:00 - 17:00, Thursday: 09:00 - 17:00, Friday: 09:00 - 17:00, Saturday: 09:00 - 13:00","opening":"Mo 09:00-17:00; Tu 09:00-19:00; We 09:00-17:00; Th 09:00-17:00; Fr 09:00-17:00; Sa 09:00-13:00"},"title":"Alsager Library"},"type":"Feature"},
		{"geometry":{"coordinates":[-2.20277,52.99520],"type":"Point"},"properties":{"_source":"warm_welcome","address":"4 Woodberry Close, Staffordshire ST4 5LU","description":"A welcoming space for everyone. The kettle is always on and we have biscuits too :)","hours":{"_text":"Tuesday: 09:00 - 11:00, Wednesday: 09:00 - 11:00, Thursday: 19:00 - 21:00 Monthly, Saturday: 10:00 - 12:00","opening":"Tu 09:00-11:00; We 09:00-11:00; Th 19:00-21:00; Sa 10:00-12:00"},"title":"Better Together Community HQ"},"type":"Feature"},
		{"geometry":{"coordinates":[-2.43929,53.09646],"type":"Point"},"properties":{"_source":"warm_welcome","address":"Crewe Library, Cheshire CW1 2BB","description":"Large public library open to all. Offers a range of services. Located in the town centre, within the Crewe Lifestyle Centre.","hours":{"_text":"Monday: 09:00 - 18:00, Tuesday: 09:00 - 18:00, Wednesday: 09:00 - 18:00, Thursday: 09:00 - 18:00, Friday: 09:00 - 18:00, Saturday: 09:00 - 13:00","opening":"Mo 09:00-18:00; Tu 09:00-18:00; We 09:00-18:00; Th 09:00-18:00; Fr 09:00-18:00; Sa 09:00-13:00"},"title":"Crewe Library"},"type":"Feature"},
		{"geometry":{"coordinates":[-2.17274,53.02470],"type":"Point"},"properties":{"_source":"warm_welcome","address":"Hanley centre , hanley, Staffordshire st1 3jp","description":"We have a cafe which is very reasonable and on a Wednesday we have a community lounge which can help if you are struggling with any costs or need advise to or who to speak with regarding food banks.","hours":{"_text":"Monday: 10:00 - 15:30, Tuesday: 10:00 - 15:30, Wednesday: 10:00 - 15:30, Thursday: 10:00 - 15:30, Friday: 10:00 - 05:30","opening":"Mo 10:00-15:30; Tu 10:00-15:30; We 10:00-15:30; Th 10:00-15:30; Fr 10:00-05:30"},"title":"Mrs. Helen Podmore"},"type":"Feature"},
		{"geometry":{"coordinates":[-2.21969,52.99471],"type":"Point"},"properties":{"_source":"warm_welcome","address":"35 Stafford Avenue, Newcastle-under-Lyme, Staffordshire ST5 3BN","description":"A free, safe, and welcoming space with drinks, activities, and good conversation.","hours":{"_text":"Thursday: 10:00 - 12:00","opening":"Th 10:00-12:00"},"title":"Newcastle Baptist Church"},"type":"Feature"},
		{"geometry":{"coordinates":[-2.21780,52.99451],"type":"Point"},"properties":{"_source":"warm_welcome","address":"35 Stafford Avenue, Staffordshire ST5 3BN","description":"Open to all, for warmth, friendship and optional activities.","hours":{"_text":"Thursday: 10:00 - 12:00","opening":"Th 10:00-12:00"},"title":"Newcastle Baptist Church"},"type":"Feature"},
		{"geometry":{"coordinates":[-2.15536,52.98270],"type":"Point"},"properties":{"_source":"warm_welcome","address":"131 Longton Hall Road, Stoke on Trent, Staffordshire ST3 2EL","description":"Every Wednesday you can join us from 10.30am for ‘Open House’ which is a social time with tea, coffee and cake/biscuits. At 12.15pm ‘Chair Exercise’ takes place, this is a seated exercise session run by Stoke City Community Trust. Both sessions are FREE, refreshments are FREE and we even offer FREE WiFi. All sessions are in the main church building. You can join us for one or both sessions. Everyone is welcome!","hours":{"_text":"Wednesday: 10:30 - 13:00","opening":"We 10:30-13:00"},"title":"Open House & Seated Exercise"},"type":"Feature"},
		{"geometry":{"coordinates":[-2.16840,52.99930],"type":"Point"},"properties":{"_source":"warm_welcome","address":"Temple Street Methodist Church, Staffordshire ST4 4NW","description":"Every Thursday morning between 9.30am to 12 noon, our Place of Welcome Community Cafe is open offering free hot and cold drinks and free toast. We also have a Free Food event every Thursday providing bread and fruit & veg in partnership with Tesco and FareShare.","hours":{"_text":"Thursday: 09:30 - 12:00","opening":"Th 09:30-12:00"},"title":"Place of Welcome Community Cafe"},"type":"Feature"},
		{"geometry":{"coordinates":[-2.18541,53.07372],"type":"Point"},"properties":{"_source":"warm_welcome","address":"The Hub, Staffordshire ST6 6QR","description":"The space is open to all on a Tuesday morning between 9.30 and 12 noon (with a low cost hot meal afterwards). We are open at other times during the week for people to drop in for advice, support and a quick brew.","hours":{"_text":"Tuesday: 09:30 - 12:00","opening":"Tu 09:30-12:00"},"title":"The Hub@ST6"},"type":"Feature"},
		{"geometry":{"coordinates":[-2.19301,52.97107],"type":"Point"},"properties":{"_source":"warm_welcome","address":"Trentham Community Learning Centre, Trentham,, Stoke-on-Trent ST4 8PQ","description":"Community library offering book lending, craft sessions and other activities . Tea, coffee and biscuits available. Visitors are encouraged to stay and chat.","hours":{"_text":"Tuesday: 10:00 - 12:00 / 13:30 - 15:30, Saturday: 10:00 - 12:30 Monthly","opening":"Tu 10:00-12:00,13:30-15:30; Sa 10:00-12:30"},"title":"Trentham Reads"},"type":"Feature"},
		{"geometry":{"coordinates":[-2.24140,53.08596],"type":"Point"},"properties":{"_source":"warm_spaces","address":"The Avenue, Stoke-on-Trent, England, ST7 1AG, United Kingdom","description":"Free Food/Drink, Device Charging, People to chat to, Space to work, Wheelchair Accessible, Toilets, Accessible Toilet, Parking, Child Friendly","hours":{"_text":"Fri, 10am - 4pm","opening":"Fr 10:00-16:00"},"title":"The Wade Centre, Kidsgrove","url":"https://www.stthomaskidsgrove.co.uk"},"type":"Feature"},
		{"geometry":{"coordinates":[-2.30197,53.05357],"type":"Point"},"properties":{"_source":"warm_spaces","address":"Church Street, Stoke-on-Trent, England, ST7, United Kingdom","description":"Free Food/Drink, People to chat to, Space to work, Wheelchair Accessible, Toilets, Accessible Toilet, Parking, Child Friendly, Pet Friendly","hours":{"_text":"9:30am-3pm"},"title":"Audley Pensioners Hall"},"type":"Feature"},
		{"geometry":{"coordinates":[-2.21916,52.99447],"type":"Point"},"properties":{"_source":"warm_spaces","address":"35 Stafford Avenue, Newcastle, England, ST5 3BN, United Kingdom","description":"Free Food/Drink, Free Wi-Fi, Device Charging, People to chat to, Space to work, Wheelchair Accessible, Toilets, Accessible Toilet, Parking","hours":{"_text":"Thursday 10am-12noon","opening":"Th 10:00-12:00"},"title":"Newcastle Baptist Church","url":"https://www.newcastlebaptist.org.uk"},"type":"Feature"},
		{"geometry":{"coordinates":[-2.34013,52.99574],"type":"Point"},"properties":{"_source":"warm_spaces","address":"Vicarage Ln &amp; Bar Hill, Crewe, England, CW3 9PH, United Kingdom","description":"Free Food/Drink, People to chat to, Wheelchair Accessible, Toilets, Parking, Child Friendly","hours":{"_text":"Wednesday 10.30am-12pm","opening":"We 10:30-12:00"},"title":"Madeley Hub, All Saints Church","url":"https://www.facebook.com/allsaintsmadeley/"},"type":"Feature"},
		{"geometry":{"coordinates":[-2.30135,53.05378],"type":"Point"},"properties":{"_source":"warm_spaces","address":"Audley Library, Hall Street, Stoke-on-Trent, England, ST7 8DB, United Kingdom","description":"Free Food/Drink, Advice, People to chat to, Space to work, Wheelchair Accessible, Toilets, Accessible Toilet, Parking, Child Friendly, Computer Access","hours":{"_text":"Mon 1pm-4pm, Tues, Thursday, Friday 10am-4pm, Sat 10am-1pm","opening":"Tu 10:00-16:00; Th 10:00-16:00; Fr 10:00-16:00; Mo 13:00-16:00; Sa 10:00-13:00"},"title":"Audley Library"},"type":"Feature"},
		{"geometry":{"coordinates":[-2.25967,53.08629],"type":"Point"},"properties":{"_source":"warm_spaces","address":"4 Church Street, Stoke-on-Trent, England, ST7 1NU, United Kingdom","description":"Free Food/Drink, Free Wi-Fi, Device Charging, People to chat to, Space to work, Reading, Jigsaws and Games","hours":{"_text":"11am-3pm"},"title":"Butt Lane Baptist Church","url":"https://en-gb.facebook.com/people/BUTT-LANE-Baptist-Church/100064378703431/"},"type":"Feature"},
		{"geometry":{"coordinates":[-2.30498,53.09650],"type":"Point"},"properties":{"_source":"cheshire_east_council","title":"Alsager Library","url":"https://livewellservices.cheshireeast.gov.uk"},"type":"Feature"},
		{"geometry":{"coordinates":[-2.44382,53.10041],"type":"Point"},"properties":{"_source":"cheshire_east_council","title":"Crewe Library","url":"https://livewellservices.cheshireeast.gov.uk"},"type":"Feature"},
		{"geometry":{"coordinates":[-2.43525,53.08353],"type":"Point"},"properties":{"_source":"cheshire_east_council","title":"YMCA Crewe (Glo Cafe)","url":"https://livewellservices.cheshireeast.gov.uk"},"type":"Feature"},
		{"geometry":{"coordinates":[-2.12130,52.98320],"type":"Point"},"properties":{"_source":"staffordshire_fire_and_rescue","address":"Uttoxeter Road, Longton, ST3 1NS","hours":{"_text":"Every Wednesday, 2pm - 4pm from 11 January","opening":"We 14:00-16:00"},"title":"Longton Community Fire Station","url":"https://www.staffordshirefire.gov.uk/fire-stations/longton/"},"type":"Feature"}
	]
}
