{
	"type": "FeatureCollection",
	"features": [
		{"geometry":{"coordinates":[-2.24140,53.08596],"type":"Point"},"properties":{"_source":"warm_spaces","address":"The Avenue, Stoke-on-Trent, England, ST7 1AG, United Kingdom","description":"Free Food/Drink, Device Charging, People to chat to, Space to work, Wheelchair Accessible, Toilets, Accessible Toilet, Parking, Child Friendly","hours":{"_text":"Fri, 10am - 4pm","opening":"Fr 10:00-16:00"},"title":"The Wade Centre, Kidsgrove","url":"https://www.stthomaskidsgrove.co.uk"},"type":"Feature"},
		{"geometry":{"coordinates":[-2.30197,53.05357],"type":"Point"},"properties":{"_source":"warm_spaces","address":"Church Street, Stoke-on-Trent, England, ST7, United Kingdom","description":"Free Food/Drink, People to chat to, Space to work, Wheelchair Accessible, Toilets, Accessible Toilet, Parking, Child Friendly, Pet Friendly","hours":{"_text":"9:30am-3pm"},"title":"Audley Pensioners Hall"},"type":"Feature"},
		{"geometry":{"coordinates":[-2.21916,52.99447],"type":"Point"},"properties":{"_source":"warm_spaces","address":"35 Stafford Avenue, Newcastle, England, ST5 3BN, United Kingdom","description":"Free Food/Drink, Free Wi-Fi, Device Charging, People to chat to, Space to work, Wheelchair Accessible, Toilets, Accessible Toilet, Parking","hours":{"_text":"Thursday 10am-12noon","opening":"Th 10:00-12:00"},"title":"Newcastle Baptist Church","url":"https://www.newcastlebaptist.org.uk"},"type":"Feature"},
		{"geometry":{"coordinates":[-2.34013,52.99574],"type":"Point"},"properties":{"_source":"warm_spaces","address":"Vicarage Ln &amp; Bar Hill, Crewe, England, CW3 9PH, United Kingdom","description":"Free Food/Drink, People to chat to, Wheelchair Accessible, Toilets, Parking, Child Friendly","hours":{"_text":"Wednesday 10.30am-12pm","opening":"We 10:30-12:00"},"title":"Madeley Hub, All Saints Church","url":"https://www.facebook.com/allsaintsmadeley/"},"type":"Feature"},
		{"geometry":{"coordinates":[-2.30135,53.05378],"type":"Point"},"properties":{"_source":"warm_spaces","address":"Audley Library, Hall Street, Stoke-on-Trent, England, ST7 8DB, United Kingdom","description":"Free Food/Drink, Advice, People to chat to, Space to work, Wheelchair Accessible, Toilets, Accessible Toilet, Parking, Child Friendly, Computer Access","hours":{"_text":"Mon 1pm-4pm, Tues, Thursday, Friday 10am-4pm, Sat 10am-1pm","opening":"Tu 10:00-16:00; Th 10:00-16:00; Fr 10:00-16:00; Mo 13:00-16:00; Sa 10:00-13:00"},"title":"Audley Library"},"type":"Feature"},
		{"geometry":{"coordinates":[-2.25967,53.08629],"type":"Point"},"properties":{"_source":"warm_spaces","address":"4 Church Street, Stoke-on-Trent, England, ST7 1NU, United Kingdom","description":"Free Food/Drink, Free Wi-Fi, Device Charging, People to chat to, Space to work, Reading, Jigsaws and Games","hours":{"_text":"11am-3pm"},"title":"Butt Lane Baptist Church","url":"https://en-gb.facebook.com/people/BUTT-LANE-Baptist-Church/100064378703431/"},"type":"Feature"},
		{"geometry":{"coordinates":[-2.30498,53.09650],"type":"Point"},"properties":{"_source":"cheshire_east_council","title":"Alsager Library","url":"https://livewellservices.cheshireeast.gov.uk"},"type":"Feature"},
		{"geometry":{"coordinates":[-2.44382,53.10041],"type":"Point"},"properties":{"_source":"cheshire_east_council","title":"Crewe Library","url":"https://livewellservices.cheshireeast.gov.uk"},"type":"Feature"},
		{"geometry":{"coordinates":[-2.43525,53.08353],"type":"Point"},"properties":{"_source":"cheshire_east_council","title":"YMCA Crewe (Glo Cafe)","url":"https://livewellservices.cheshireeast.gov.uk"},"type":"Feature"},
		{"geometry":{"coordinates":[-2.12130,52.98320],"type":"Point"},"properties":{"_source":"staffordshire_fire_and_rescue","address":"Uttoxeter Road, Longton, ST3 1NS","hours":{"_text":"Every Wednesday, 2pm - 4pm from 11 January","opening":"We 14:00-16:00"},"title":"Longton Community Fire Station","url":"https://www.staffordshirefire.gov.uk/fire-stations/longton/"},"type":"Feature"}
	]
}
