{
	"type": "FeatureCollection",
	"features": [
		{"geometry":{"coordinates":[-2.43122,52.71439],"type":"Point"},"properties":{"_source":"warm_welcome","address":"Donnington Community Hub, St Matthews Road, Telford, Donnington Partnership Charitable Trust TF2 7PR","hours":{"_text":"Monday: 09:00 - 13:00, Tuesday: 09:00 - 14:00, Wednesday: 09:00 - 13:00, Thursday: 09:00 - 13:00, Friday: 09:00 - 14:00","opening":"Mo 09:00-13:00; Tu 09:00-14:00; We 09:00-13:00; Th 09:00-13:00; Fr 09:00-14:00"},"title":"Donnington Partnership CIO"},"type":"Feature"},
		{"geometry":{"coordinates":[-2.25415,52.85953],"type":"Point"},"properties":{"_source":"warm_welcome","address":"High street, Eccleshall, Staffordshire ST21 6BZ","description":"Everyone welcome","hours":{},"title":"Eccleshall library"},"type":"Feature"},
		{"geometry":{"coordinates":[-2.44598,52.70968],"type":"Point"},"properties":{"_source":"warm_welcome","address":"Church Road, Wrockwardine Wood, , Telford TF27AH","description":"There are toys available for children to play with. There is a library corner, puzzles, and jigsaws if you want to occupy your time here with us. There is always hot and cold refreshments, breakfast of cereal and toast each day","hours":{"_text":"Monday: 9:00 - 12:00, Tuesday: 9:00 - 12:00, Wednesday: 9:00 - 15:00, Thursday: 9:00 - 12:00, Friday: 9:00 - 12:00","opening":"Mo 09:00-12:00; Tu 09:00-12:00; We 09:00-15:00; Th 09:00-12:00; Fr 09:00-12:00"},"title":"Holy Trinity Church Wrockwardine Wood c/o"},"type":"Feature"},
		{"geometry":{"coordinates":[-2.13524,52.79154],"type":"Point"},"properties":{"_source":"warm_welcome","address":"Milton grove , Stafford , Staffordshire ST179tr","hours":{"_text":"Thursday: 17:00 - 19:00","opening":"Th 17:00-19:00"},"title":"Lifechurch stafford"},"type":"Feature"},
		{"geometry":{"coordinates":[-2.15245,52.90630],"type":"Point"},"properties":{"_source":"warm_welcome","address":"Rising Brook- Church at the Crossing, Station Approach, STONE, Stone ST15 8ER","description":"Open from 01-11-2022.","hours":{"_text":"Tuesday: 10:00 - 13:00, Thursday: 13:30 - 16:30","opening":"Tu 10:00-13:00; Th 13:30-16:30"},"title":"Rising Brook (Church at The Crossing)"},"type":"Feature"},
		{"geometry":{"coordinates":[-2.11839,52.78751],"type":"Point"},"properties":{"_source":"warm_welcome","address":"Rising Brook Community Church, Burton Square, Stafford ST17 9LT","description":"Open from 31/10/2022.","hours":{"_text":"Monday: 10:00 - 15:00, Tuesday: 10:00 - 15:00, Wednesday: 10:00 - 15:00, Thursday: 10:00 - 15:00, Friday: 10:00 - 15:00","opening":"Mo 10:00-15:00; Tu 10:00-15:00; We 10:00-15:00; Th 10:00-15:00; Fr 10:00-15:00"},"title":"Rising Brook Community Church"},"type":"Feature"},
		{"geometry":{"coordinates":[-2.38027,52.75834],"type":"Point"},"properties":{"_source":"warm_welcome","address":"5, Wallshead Way, Church Aston, Newport, Shropshire TF10 9JG","description":"Open from 07-12-2022. Community Cuppa+ Wednesdays 10.30-3pm in St Andrew's Church Hall, Church Aston. Pop in for a cuppa! You'll find a place of welcome, free hot drinks; cakes; Wifi; simple lunches; activities; charging points and more!","hours":{"_text":"Wednesday: 10:30 - 15:00","opening":"We 10:30-15:00"},"title":"St Andrew's, Church Aston"},"type":"Feature"},
		{"geometry":{"coordinates":[-2.15328,52.89703],"type":"Point"},"properties":{"_source":"warm_welcome","address":"Walton Community Centre, Whitemill Lane, Walton, Stone ST15 0EQ","description":"Focus is the elderly but all ages are welcome. We offer soup, a roll and a hot drink and cake. It is free to all and all are welcome.","hours":{"_text":"Thursday: 12:15 - 14:00","opening":"Th 12:15-14:00"},"title":"St John's (Methodist & URC) Church, Stone"},"type":"Feature"},
		{"geometry":{"coordinates":[-2.40255,52.73445],"type":"Point"},"properties":{"_source":"warm_welcome","address":"Church Road, Lilleshall, Shropshire TF10 9HE","hours":{"_text":"Thursday: 09:30 - 16:00","opening":"Th 09:30-16:00"},"title":"St Michael's Church"},"type":"Feature"},
		{"geometry":{"coordinates":[-2.11482,52.80316],"type":"Point"},"properties":{"_source":"warm_welcome","address":"The Green, Bailey Street, Stafford, Staffordshire ST17 4BG","description":"Open from 23-11-2022.","hours":{"_text":"Wednesday: 15:00 - 17:00, Thursday: 13:00 - 15:00","opening":"We 15:00-17:00; Th 13:00-15:00"},"title":"Stafford Baptist Church"},"type":"Feature"},
		{"geometry":{"coordinates":[-2.11180,52.81394],"type":"Point"},"properties":{"_source":"warm_welcome","address":"The Salvation army, Faraday Road, Stafford, Stafford, Staffordshire ST16 3NQ","description":"Whilst we are open as a Warm Welcome Space completely free of charge, we also have some other activities during the day that you would be more than welcome to attend. See our facebook page for more info!","hours":{"_text":"Wednesday: 9:30 - 16:00","opening":"We 09:30-16:00"},"title":"The Salvation Army in Stafford"},"type":"Feature"},
		{"geometry":{"coordinates":[-2.11823,52.80556],"type":"Point"},"properties":{"_source":"warm_spaces","address":"Church Lane, Stafford, England, ST16 2AW","hours":{"_text":"Monday 2pm-4pm, Tuesday 12pm-2pm","opening":"Mo 14:00-16:00; Tu 12:00-14:00"},"title":"Church Lane Church","url":"https://www.church-lane.org.uk"},"type":"Feature"},
		{"geometry":{"coordinates":[-2.11550,52.80365],"type":"Point"},"properties":{"_source":"warm_spaces","address":"Bailey Street, Stafford, England, ST17 4BG","hours":{"_text":"Wednesday 3pm-5pm, Thursday 1pm-3pm","opening":"We 15:00-17:00; Th 13:00-15:00"},"title":"Stafford Baptist Church","url":"https://www.staffordbaptistchurch.co.uk"},"type":"Feature"},
		{"geometry":{"coordinates":[-2.13275,52.79444],"type":"Point"},"properties":{"_source":"warm_spaces","address":"Auden Way, Stafford, England, ST17 9TX","hours":{"_text":"Tuesdays 10am-1pm","opening":"Tu 10:00-13:00"},"title":"Elevate Highfields","url":"https://risingbrook.org/elevate"},"type":"Feature"},
		{"geometry":{"coordinates":[-2.37996,52.75844],"type":"Point"},"properties":{"_source":"warm_spaces","address":"5 Wallshead Way, Church Aston, Newport, England, TF10 9JG","hours":{"_text":"Wednesdays 10:30am-3pm","opening":"We 10:30-15:00"},"title":"St Andrew's, Church Aston ‘Community Cuppa’","url":"https://www.churchastonstandrews.com"},"type":"Feature"},
		{"geometry":{"coordinates":[-2.13351,52.79477],"type":"Point"},"properties":{"_source":"stafford_borough_council","address":"Shakespeare Road, Stafford, ST17 9TY","hours":{"_text":" Wednesday to Friday 11.30am to 2.30pm ","opening":"We-Fr 11:30-14:30"},"loc_pcd":true,"title":"Care Plus","url":"https://www.care-plus.org.uk/news/warm-spaces"},"type":"Feature"},
		{"geometry":{"coordinates":[-2.14197,52.89892],"type":"Point"},"properties":{"_source":"stafford_borough_council","address":"Sycamore, Stone, ST15 8NJ","hours":{"_text":" Monday, Tuesday and Thursday 11.30am to 2.30pm","opening":"Mo 11:30-14:30; Tu 11:30-14:30; Th 11:30-14:30"},"loc_pcd":true,"title":"Care Plus","url":"https://www.care-plus.org.uk/news/warm-spaces"},"type":"Feature"},
		{"geometry":{"coordinates":[-2.12054,52.81700],"type":"Point"},"properties":{"_source":"stafford_borough_council","address":"Marsh and Hopton Court, Stafford,ST16 3BH","hours":{"_text":" Monday, Wednesday and Friday 11.30am to 2.30pm","opening":"Mo 11:30-14:30; We 11:30-14:30; Fr 11:30-14:30"},"loc_pcd":true,"title":"Care Plus","url":"https://www.care-plus.org.uk/news/warm-spaces"},"type":"Feature"},
		{"geometry":{"coordinates":[-2.26333,52.77830],"type":"Point"},"properties":{"_source":"stafford_borough_council","address":"Impstones, Gnosall, ST20 0DJ","hours":{"_text":" Monday and Friday 11.30am to 2.30pm","opening":"Mo 11:30-14:30; Fr 11:30-14:30"},"loc_pcd":true,"title":"Care Plus","url":"https://www.care-plus.org.uk/news/warm-spaces"},"type":"Feature"},
		{"geometry":{"coordinates":[-2.13114,52.82776],"type":"Point"},"properties":{"_source":"stafford_borough_council","address":"Gough and Crispin, Stafford, ST16 1LE","hours":{"_text":" Tuesday, Thursday and Friday 11.30am to 2.30pm","opening":"Tu 11:30-14:30; Th 11:30-14:30; Fr 11:30-14:30"},"loc_pcd":true,"title":"Care Plus","url":"https://www.care-plus.org.uk/news/warm-spaces"},"type":"Feature"},
		{"geometry":{"coordinates":[-2.12430,52.81764],"type":"Point"},"properties":{"_source":"stafford_borough_council","address":"Northfield Centre, Stafford, ST16 2RB","hours":{"_text":" Tuesday and Wednesday 11.30am to 3.30pm","opening":"Tu 11:30-15:30; We 11:30-15:30"},"loc_pcd":true,"title":"Cerebral Palsy Mid Staffordshire","url":"http://www.cpmidstaffs.co.uk/"},"type":"Feature"},
		{"geometry":{"coordinates":[-2.11822,52.80556],"type":"Point"},"properties":{"_source":"stafford_borough_council","address":"Church Lane, Stafford, ST16 2AW","hours":{"_text":" Monday and Tuesday 2pm to 4pm (Monday) and 12noon to 2pm (Tuesday)","opening":"Mo 14:00-16:00,12:00-14:00; Tu 14:00-16:00,12:00-14:00"},"loc_pcd":true,"title":"Church Lane Evangelical Church","url":"http://www.church-lane.org.uk/"},"type":"Feature"},
		{"geometry":{"coordinates":[-2.17717,52.83798],"type":"Point"},"properties":{"_source":"stafford_borough_council","address":"Great Bridgeford Village Hall, Newport Road, Seighford, ST18 9PR","hours":{"_text":" Monday (alternate weeks, w/c 28 November), Wednesday (alternate weeks, w/c 21 November) 12pm onwards (Monday), 11.30am onwards (Wednesday)"},"loc_pcd":true,"title":"Friends of Norton Bridge","url":"http://ranton.info/ranton/page.asp?code=villagehal"},"type":"Feature"},
		{"geometry":{"coordinates":[-2.21597,52.81668],"type":"Point"},"properties":{"_source":"stafford_borough_council","address":"Ranton Village Hall, Brook Lane, Ranton, ST18 9JF","hours":{"_text":" Tuesday 11am onwards"},"loc_pcd":true,"title":"Friends of Norton Bridge","url":"http://ranton.info/ranton/page.asp?code=villagehal"},"type":"Feature"},
		{"geometry":{"coordinates":[-2.17953,52.82257],"type":"Point"},"properties":{"_source":"stafford_borough_council","address":"Seighford Village Hall, Seighford, ST18 9PQ","hours":{"_text":" Friday 10.30am onwards"},"loc_pcd":true,"title":"Friends of Norton Bridge","url":"http://ranton.info/ranton/page.asp?code=villagehal"},"type":"Feature"},
		{"geometry":{"coordinates":[-2.18584,52.86200],"type":"Point"},"properties":{"_source":"stafford_borough_council","address":"Shallowford House, Norton Bridge and Chebsey, ST15 0NZ","hours":{"_text":" Thursday 10.30am onwards "},"loc_pcd":true,"title":"Friends of Norton Bridge","url":"http://ranton.info/ranton/page.asp?code=villagehal"},"type":"Feature"},
		{"geometry":{"coordinates":[-2.11571,52.80718],"type":"Point"},"properties":{"_source":"stafford_borough_council","address":"Eastgate Street, Stafford, ST16 2LT","hours":{"_text":" Monday to Friday10am to 3pm "},"loc_pcd":true,"title":"Gatehouse Theatre","url":"https://www.gatehousetheatre.co.uk/"},"type":"Feature"},
		{"geometry":{"coordinates":[-2.11972,52.81316],"type":"Point"},"properties":{"_source":"stafford_borough_council","address":"43 Browning Street, Stafford, ST16 3AX","hours":{"_text":" Monday to Friday 12noon to 5pm (Monday), 10am to 3pm (Tuesday and Friday), 9.30am to 5pm (Wednesday and Thursday)","opening":"Mo-Fr 12:00-17:00,10:00-15:00,09:30-17:00"},"loc_pcd":true,"title":"House of Bread","url":"https://hobstafford.co.uk/"},"type":"Feature"},
		{"geometry":{"coordinates":[-2.15243,52.90629],"type":"Point"},"properties":{"_source":"stafford_borough_council","address":"Station Approach, Stone, ST15 8ER","hours":{"_text":" Tuesday and Thursday 10am to 1pm (Tuesday) and 1.30pm to 4.30pm (Thursday)","opening":"Tu 10:00-13:00,13:30-16:30; Th 10:00-13:00,13:30-16:30"},"loc_pcd":true,"title":"Rising Brook Church at the Crossing","url":"https://risingbrook.org/thecrossing"},"type":"Feature"},
		{"geometry":{"coordinates":[-2.11896,52.78752],"type":"Point"},"properties":{"_source":"stafford_borough_council","address":"Burton Square, Stafford, ST17 9LT","hours":{"_text":" Monday to Friday 10am to 3pm ","opening":"Mo-Fr 10:00-15:00"},"loc_pcd":true,"title":"Rising Brook Community Church","url":"https://risingbrook.org/warmspaces"},"type":"Feature"},
		{"geometry":{"coordinates":[-2.11520,52.80347],"type":"Point"},"properties":{"_source":"stafford_borough_council","address":"The Green, Bailey Street, Stafford, ST17 4BG","hours":{"_text":" Wednesday and Thursday 3pm to 5pm (Wed) and 1pm-3pm (Thu)","opening":"We 15:00-17:00,13:00-15:00; Th 15:00-17:00,13:00-15:00"},"loc_pcd":true,"title":"Stafford Baptist Church","url":"https://www.staffordbaptistchurch.co.uk/"},"type":"Feature"},
		{"geometry":{"coordinates":[-2.14450,52.90101],"type":"Point"},"properties":{"_source":"stafford_borough_council","address":"The Frank Jordan Centre, Lichfield Street, Stone, ST15 8NA","hours":{"_text":" Tuesday and Friday 10am to 12noon","opening":"Tu 10:00-12:00; Fr 10:00-12:00"},"loc_pcd":true,"title":"Stone Community Hub","url":"https://stonecommunityhub.org/"},"type":"Feature"}
	]
}
