{
	"type": "FeatureCollection",
	"features": [
		{"geometry":{"coordinates":[-2.44598,52.70968],"type":"Point"},"properties":{"_source":"warm_welcome","address":"Church Road, Wrockwardine Wood,, Telford TF2 7AH","description":"We are a church in Telford who are open Wednesdays 8.45-11.00 as a drop in warm space where hot drinks are available free of charge We run a FoodBank (tinned and dried foods) and small parcels are available on request from the Church Warden on duty We are fortunate that we have a warm building and are happy to open for people to drop in for hot drinks, a chance to get warm, breakfast (cereal by request or toast). We also have a clothing bank with clothes available from kids to adults. There is always a volunteer available to chat to anyone who might pop in and we have lots of info to hand to help signpost visitors to someone who is best placed to offer any support if required.","hours":{"_text":"Wednesday: 09:00 - 12:00","opening":"We 09:00-12:00"},"title":"Holy Trinity Church Wrockwardine Wood"},"type":"Feature"},
		{"geometry":{"coordinates":[-2.43266,52.71370],"type":"Point"},"properties":{"_source":"warm_welcome","address":"Donnington Community Hub, St Matthews Road, Telford, Shropshire tf3 7pr","description":"a warm space to socialise and get hot drinks and snacks","hours":{"_text":"Monday: 09:30 - 12:30, Tuesday: 09:30 - 12:30, Wednesday: 09:30 - 12:30, Thursday: 09:30 - 12:30, Friday: 09:30 - 12:30","opening":"Mo 09:30-12:30; Tu 09:30-12:30; We 09:30-12:30; Th 09:30-12:30; Fr 09:30-12:30"},"title":"Meet & Eat"},"type":"Feature"},
		{"geometry":{"coordinates":[-2.14775,52.90214],"type":"Point"},"properties":{"_source":"warm_welcome","address":"Stone Library, Staffordshire ST15 8AT","description":"Stone library has two floors. There is a sofa area downstairs and a table upstairs and down. There is a public toilet with a baby change facility. A reading nook for children. Tables and chairs for little ones to colour in. Coffee and tea will be served Monday-Friday 10.00am-12.00pm & 2.00pm-4.00pm (apart from Wednesdays when we close at 1pm) Contact: 01785 895585 or visit our Instagram page @staffordstonelibraries","hours":{"_text":"Monday: 09:00 - 05:00, Tuesday: 09:00 - 06:00, Wednesday: 09:00 - 01:00, Thursday: 09:00 - 05:00, Friday: 09:00 - 06:00, Saturday: 09:00 - 04:00","opening":"Mo 09:00-17:00; Tu 09:00-18:00; We 09:00-13:00; Th 09:00-17:00; Fr 09:00-18:00; Sa 09:00-16:00"},"title":"Stone Library"},"type":"Feature"},
		{"geometry":{"coordinates":[-2.15243,52.90630],"type":"Point"},"properties":{"_source":"warm_welcome","address":"Rising Brook- Church at the Crossing, STONE, Stone ST15 8ER","description":"All welcome to drop in to our warm, welcoming space. Hot or cold drinks are provided, option to donate if you can. Join in with chat, games or craft, sit quietly if you prefer.","hours":{"_text":"Tuesday: 10:00 - 12:00, Thursday: 13:00 - 15:30","opening":"Tu 10:00-12:00; Th 13:00-15:30"},"title":"The Crossing Welcome Space"},"type":"Feature"},
		{"geometry":{"coordinates":[-2.15279,52.89696],"type":"Point"},"properties":{"_source":"warm_welcome","address":"Walton Community Centre,, STONE, Stone ST15 0EQ","description":"With focus is the elderly, but all ages are welcome. It is an opportunity to meet and have a chat whilst enjoying a hot soup. We offer soup, a roll and a hot drink and cake. It is free to all and all are welcome.","hours":{"_text":"Thursday: 12:15 - 14:00","opening":"Th 12:15-14:00"},"title":"Warm Spaces Soup Lunches at the WCC"},"type":"Feature"},
		{"geometry":{"coordinates":[-2.13483,52.79234],"type":"Point"},"properties":{"_source":"warm_welcome","address":"lifechurch, Stafford, Staffordshire St179tr","description":"Warm welcome space to just be or chat. Hot drinks and food available for free.","hours":{"_text":"Sunday: 11:00 - 12:30","opening":"Su 11:00-12:30"},"title":"Welcome Cafe"},"type":"Feature"},
		{"geometry":{"coordinates":[-2.11896,52.78753],"type":"Point"},"properties":{"_source":"stafford_borough_council","address":"Burton Square, Stafford, ST17 9LT","hours":{"_text":" Monday, Wednesday and Thursday 9.30am to 12.30pm and 1.30pm to 4pm","opening":"Mo 09:30-12:30,13:30-16:00; We 09:30-12:30,13:30-16:00; Th 09:30-12:30,13:30-16:00"},"loc_pcd":true,"title":"Burton Square Community Hub","url":"https://www.homesplus.co.uk/help-and-advice/plus-services/drop-in-and-see-us/"},"type":"Feature"},
		{"geometry":{"coordinates":[-2.11975,52.81873],"type":"Point"},"properties":{"_source":"stafford_borough_council","address":"Northfield Centre, Stafford, ST16 3BZ","hours":{"_text":" Tuesday and Wednesday 10am to 4pm","opening":"Tu 10:00-16:00; We 10:00-16:00"},"loc_pcd":true,"title":"Cerebral Palsy Mid Staffordshire","url":"https://www.facebook.com/cerebralpalsymid/"},"type":"Feature"},
		{"geometry":{"coordinates":[-2.16413,52.80080],"type":"Point"},"properties":{"_source":"stafford_borough_council","address":"Billington Lane, Derrington, ST18 9LR","loc_pcd":true,"title":"Derrington Village Hall","url":"https://www.derringtonvillagehall.co.uk/home"},"type":"Feature"},
		{"geometry":{"coordinates":[-2.12093,52.81552],"type":"Point"},"properties":{"_source":"stafford_borough_council","address":"Rowley Street, Stafford, ST16 2RH","loc_pcd":true,"title":"Mount Peniel Church","url":"https://mountpeniel.org/Contact-Us/"},"type":"Feature"},
		{"geometry":{"coordinates":[-2.11356,52.78925],"type":"Point"},"properties":{"_source":"stafford_borough_council","address":"Thirlmere Way Community Centre, Thirlmere Way, Stafford, ST17 9EJ","loc_pcd":true,"title":"Penkside Community Champions","url":"https://www.penkside.com/warm-spaces"},"type":"Feature"},
		{"geometry":{"coordinates":[-2.11896,52.78753],"type":"Point"},"properties":{"_source":"stafford_borough_council","address":"Burton Square, Stafford, ST17 9LT","loc_pcd":true,"title":"Rising Brook Community Church","url":"https://risingbrook.org/warmspaces"},"type":"Feature"},
		{"geometry":{"coordinates":[-2.20279,52.89085],"type":"Point"},"properties":{"_source":"stafford_borough_council","address":"Yarnfield Village Hall, Yarnfield, ST15 0NJ","loc_pcd":true,"title":"Yarnfield and Cold Meece Parish Council","url":"https://www.ycm-pc.org.uk/"},"type":"Feature"}
	]
}
