{
	"type": "FeatureCollection",
	"features": [
		{"geometry":{"coordinates":[-2.43122,52.71439],"type":"Point"},"properties":{"_source":"warm_welcome","address":"Donnington Community Hub, St Matthews Road, Telford, Donnington Partnership Charitable Trust TF2 7PR","hours":{"_text":"Monday: 09:00 - 13:00, Tuesday: 09:00 - 14:00, Wednesday: 09:00 - 13:00, Thursday: 09:00 - 13:00, Friday: 09:00 - 14:00","opening":"Mo 09:00-13:00; Tu 09:00-14:00; We 09:00-13:00; Th 09:00-13:00; Fr 09:00-14:00"},"title":"Donnington Partnership CIO"},"type":"Feature"},
		{"geometry":{"coordinates":[-2.25415,52.85953],"type":"Point"},"properties":{"_source":"warm_welcome","address":"High street, Eccleshall, Staffordshire ST21 6BZ","description":"Everyone welcome","hours":{},"title":"Eccleshall library"},"type":"Feature"},
		{"geometry":{"coordinates":[-2.44598,52.70968],"type":"Point"},"properties":{"_source":"warm_welcome","address":"Church Road, Wrockwardine Wood, , Telford TF27AH","description":"There are toys available for children to play with. There is a library corner, puzzles, and jigsaws if you want to occupy your time here with us. There is always hot and cold refreshments, breakfast of cereal and toast each day","hours":{"_text":"Monday: 9:00 - 12:00, Tuesday: 9:00 - 12:00, Wednesday: 9:00 - 15:00, Thursday: 9:00 - 12:00, Friday: 9:00 - 12:00","opening":"Mo 09:00-12:00; Tu 09:00-12:00; We 09:00-15:00; Th 09:00-12:00; Fr 09:00-12:00"},"title":"Holy Trinity Church Wrockwardine Wood c/o"},"type":"Feature"},
		{"geometry":{"coordinates":[-2.13524,52.79154],"type":"Point"},"properties":{"_source":"warm_welcome","address":"Milton grove , Stafford , Staffordshire ST179tr","hours":{"_text":"Thursday: 17:00 - 19:00","opening":"Th 17:00-19:00"},"title":"Lifechurch stafford"},"type":"Feature"},
		{"geometry":{"coordinates":[-2.15245,52.90630],"type":"Point"},"properties":{"_source":"warm_welcome","address":"Rising Brook- Church at the Crossing, Station Approach, STONE, Stone ST15 8ER","description":"Open from 01-11-2022.","hours":{"_text":"Tuesday: 10:00 - 13:00, Thursday: 13:30 - 16:30","opening":"Tu 10:00-13:00; Th 13:30-16:30"},"title":"Rising Brook (Church at The Crossing)"},"type":"Feature"},
		{"geometry":{"coordinates":[-2.11839,52.78751],"type":"Point"},"properties":{"_source":"warm_welcome","address":"Rising Brook Community Church, Burton Square, Stafford ST17 9LT","description":"Open from 31/10/2022.","hours":{"_text":"Monday: 10:00 - 15:00, Tuesday: 10:00 - 15:00, Wednesday: 10:00 - 15:00, Thursday: 10:00 - 15:00, Friday: 10:00 - 15:00","opening":"Mo 10:00-15:00; Tu 10:00-15:00; We 10:00-15:00; Th 10:00-15:00; Fr 10:00-15:00"},"title":"Rising Brook Community Church"},"type":"Feature"},
		{"geometry":{"coordinates":[-2.38027,52.75834],"type":"Point"},"properties":{"_source":"warm_welcome","address":"5, Wallshead Way, Church Aston, Newport, Shropshire TF10 9JG","description":"Open from 07-12-2022. Community Cuppa+ Wednesdays 10.30-3pm in St Andrew's Church Hall, Church Aston. Pop in for a cuppa! You'll find a place of welcome, free hot drinks; cakes; Wifi; simple lunches; activities; charging points and more!","hours":{"_text":"Wednesday: 10:30 - 15:00","opening":"We 10:30-15:00"},"title":"St Andrew's, Church Aston"},"type":"Feature"},
		{"geometry":{"coordinates":[-2.15328,52.89703],"type":"Point"},"properties":{"_source":"warm_welcome","address":"Walton Community Centre, Whitemill Lane, Walton, Stone ST15 0EQ","description":"Focus is the elderly but all ages are welcome. We started on Thursday 8th December 2022 and offer soup, a roll and a hot drink and cake. No charge although donations are welcome.","hours":{"_text":"Thursday: 12:15 - 14:00","opening":"Th 12:15-14:00"},"title":"St John's (Methodist & URC) Church, Stone"},"type":"Feature"},
		{"geometry":{"coordinates":[-2.11482,52.80316],"type":"Point"},"properties":{"_source":"warm_welcome","address":"The Green, Bailey Street, Stafford, Staffordshire ST17 4BG","description":"Open from 23-11-2022.","hours":{"_text":"Wednesday: 15:00 - 17:00, Thursday: 13:00 - 15:00","opening":"We 15:00-17:00; Th 13:00-15:00"},"title":"Stafford Baptist Church"},"type":"Feature"},
		{"geometry":{"coordinates":[-2.11180,52.81394],"type":"Point"},"properties":{"_source":"warm_welcome","address":"The Salvation army, Faraday Road, Stafford, Stafford, Staffordshire ST16 3NQ","description":"Whilst we are open as a Warm Welcome Space completely free of charge, we also have some other activities during the day that you would be more than welcome to attend. See our facebook page for more info!","hours":{"_text":"Wednesday: 9:30 - 16:00","opening":"We 09:30-16:00"},"title":"The Salvation Army in Stafford"},"type":"Feature"},
		{"geometry":{"coordinates":[-2.11823,52.80556],"type":"Point"},"properties":{"_source":"warm_spaces","address":"Church Lane, Stafford, England, ST16 2AW","hours":{"_text":"Monday 2pm-4pm, Tuesday 12pm-2pm","opening":"Mo 14:00-16:00; Tu 12:00-14:00"},"title":"Church Lane Church","url":"https://www.church-lane.org.uk"},"type":"Feature"},
		{"geometry":{"coordinates":[-2.11550,52.80365],"type":"Point"},"properties":{"_source":"warm_spaces","address":"Bailey Street, Stafford, England, ST17 4BG","hours":{"_text":"Wednesday 3pm-5pm, Thursday 1pm-3pm","opening":"We 15:00-17:00; Th 13:00-15:00"},"title":"Stafford Baptist Church","url":"https://www.staffordbaptistchurch.co.uk"},"type":"Feature"},
		{"geometry":{"coordinates":[-2.13275,52.79444],"type":"Point"},"properties":{"_source":"warm_spaces","address":"Auden Way, Stafford, England, ST17 9TX","hours":{"_text":"Tuesdays 10am-1pm","opening":"Tu 10:00-13:00"},"title":"Elevate Highfields","url":"https://risingbrook.org/elevate"},"type":"Feature"},
		{"geometry":{"coordinates":[-2.37996,52.75844],"type":"Point"},"properties":{"_source":"warm_spaces","address":"5 Wallshead Way, Church Aston, Newport, England, TF10 9JG","hours":{"_text":"Wednesdays 10:30am-3pm","opening":"We 10:30-15:00"},"title":"St Andrew's, Church Aston ‘Community Cuppa’","url":"https://www.churchastonstandrews.com"},"type":"Feature"}
	]
}
