{
	"type": "FeatureCollection",
	"features": [
		{"geometry":{"coordinates":[-2.25185,51.41531],"type":"Point"},"properties":{"_source":"warm_welcome","address":"The Parade, Box, Nr Corsham , Wiltshire SN18 8NX","description":"Individual comfy chairs, space is heated to 18 degrees, tea, coffee and biccies with hot soup on alternate Thursdays. 9.30 to noon or 14:30 on Thursdays: Hearty soup lunches on alternate Thursdays. Services on 2nd,3rd & 4th Sundays, Check the website for dates","hours":{"_text":"Monday: 10:30 - 12:00, Thursday: 09:30 - 12:00 / 09:30 - 13:15","opening":"Mo 10:30-12:00; Th 09:30-12:00,09:30-13:15"},"title":"Box Methodist Church"},"type":"Feature"},
		{"geometry":{"coordinates":[-2.42433,51.54049],"type":"Point"},"properties":{"_source":"warm_welcome","address":"88 Station Road, Yate, South Glos BS37 4PH","description":"We are a community run cafe open Wednesday's between 1pm and 3pm. All are welcome. We serve hot drinks and cake, and soup and a roll during the colder months. There are puzzles and games for any children who visit and you are welcome to borrow a book from our little library shelves. We regularly have folk sharing skills, for example, during the last few months we have painted rocks, made Christmas decorations, and learned how to make some stunning mosaics. We've also had a local choir visit and have other exciting things planned.","hours":{"_text":"Wednesday: 13:00 - 1500","opening":"We 13:00-15:00"},"title":"Candle Community Cafe"},"type":"Feature"},
		{"geometry":{"coordinates":[-2.11694,51.45839],"type":"Point"},"properties":{"_source":"warm_welcome","address":"Chippenham Community Hub , Wiltshire SN15 3WL SN15 3WL","description":"A stranger is a friend you are yet to meet and this cosy room is just the place.","title":"Chippenham Peoples Place"},"type":"Feature"},
		{"geometry":{"coordinates":[-2.12706,51.45916],"type":"Point"},"properties":{"_source":"warm_welcome","address":"Sheldon Road Methodist Church, Audley Road, CHIPPENHAM, Wiltshire SN14 0DU","description":"In the church","hours":{"_text":"Monday: 10:00 - 12:00, Saturday: 11:00 - 14:00","opening":"Mo 10:00-12:00; Sa 11:00-14:00"},"title":"Sheldon Road Methodist Church"},"type":"Feature"},
		{"geometry":{"coordinates":[-2.18967,51.43511],"type":"Point"},"properties":{"_source":"warm_welcome","address":"priory street, corsham, wiltshire sn13 0as","description":"Everyone welcome we provide a warm welcome to anyone looking for somewhere to spend some time with others in a warm and friendly environment. We don't charge for our hot drinks and we also serve fresh homemade soup and a roll.","hours":{"_text":"Friday: 10:00 - 13:00","opening":"Fr 10:00-13:00"},"title":"souper friday"},"type":"Feature"},
		{"geometry":{"coordinates":[-2.39509,51.53791],"type":"Point"},"properties":{"_source":"warm_welcome","address":"Chipping Sodbury Baptist Church, Chipping Sodbury, South Gloucestershire BS37 6AH","description":"The Oasis at CSBC is a community wellbeing space where everyone is welcome. It is hosted by Chipping Sodbury Baptist Church (CSBC). Come in for coffee and a chat, share a hobby, join an activity and perhaps make a new friend. A variety of activities take place on a regular basis throughout the week/month - please see our website for more details The Oasis will be closed between Christmas and New Year (Fri 22 December 2023 to Tues 2 January 2024.","hours":{"_text":"Monday: 10:00 - 14:00, Tuesday: 10:00 - 14:00, Wednesday: 10:00 - 14:00, Thursday: 10:00 - 14:00, Friday: 10:00 - 14:00","opening":"Mo 10:00-14:00; Tu 10:00-14:00; We 10:00-14:00; Th 10:00-14:00; Fr 10:00-14:00"},"title":"Steph Green"},"type":"Feature"},
		{"geometry":{"coordinates":[-2.41212,51.54343],"type":"Point"},"properties":{"_source":"warm_welcome","address":"Yate Heritage Centre, Avon BS37 5BG","description":"Open to all","hours":{"_text":"Tuesday: 10:00 - 16:00, Wednesday: 10:00 - 16:00, Thursday: 10:00 - 16:00, Saturday: 10:00 - 13:00","opening":"Tu 10:00-16:00; We 10:00-16:00; Th 10:00-16:00; Sa 10:00-13:00"},"title":"Yate heritage Center"},"type":"Feature"},
		{"geometry":{"coordinates":[-2.11457,51.45703],"type":"Point"},"properties":{"_source":"warm_spaces","address":"Timber Street, Chippenham, England, SN15 3EJ, United Kingdom","description":"Free Wi-Fi, Device Charging, Advice, Space to work, Wheelchair Accessible, Child Friendly, Computer Access, Games, jigsaws, books, magazines.","hours":{"_text":"Monday 10am-7pm; Tuesday 9am-5pm; Wednesday 9am-1pm; Thursday 9am-7pm; Friday 9am-7pm; Saturday 9am-5pm","opening":"Mo 10:00-19:00; Tu 09:00-17:00; We 09:00-13:00; Th 09:00-19:00; Fr 09:00-19:00; Sa 09:00-17:00"},"title":"Chippenham Library","url":"https://www.wiltshire.gov.uk/libraries"},"type":"Feature"},
		{"geometry":{"coordinates":[-2.19271,51.43176],"type":"Point"},"properties":{"_source":"warm_spaces","address":"Beechfield Road, Corsham, England, SN13 9DN, United Kingdom","description":"Free Wi-Fi, Device Charging, Advice, Space to work, Food/Drink for sale, Wheelchair Accessible, Toilets, Accessible Toilet, Parking, Child Friendly, Computer Access, books, colouring and jigsaws","hours":{"_text":"Monday, Friday 9am-7pm, Tues/Wed/Thurs/Sat 9am-5pm","opening":"Mo 09:00-19:00; Fr 09:00-19:00; Tu 09:00-17:00; We 09:00-17:00; Th 09:00-17:00; Sa 09:00-17:00"},"title":"Corsham Library","url":"https://wiltshire.gov.uk"},"type":"Feature"},
		{"geometry":{"coordinates":[-2.30139,51.40057],"type":"Point"},"properties":{"_source":"bath_and_north_east_somerset_council","address":"54 Bathford Hill, Bathford, Bath, BA1 7SN, United Kingdom","title":"Bathford Village Shop and Cafe","url":"https://livewell.bathnes.gov.uk/cost-living-crisis/warm-places-list/bathford-village-shop-and-cafe-1"},"type":"Feature"},
		{"geometry":{"coordinates":[-2.24969,51.41897],"type":"Point"},"properties":{"_source":"wiltshire_council","title":"Brunel House - Corsham","url":"https://directory.hertfordshire.gov.uk/Services/221"},"type":"Feature"},
		{"geometry":{"coordinates":[-2.12706,51.45916],"type":"Point"},"properties":{"_source":"wiltshire_council","title":"Wednesday Lunch Club - Chippenham","url":"https://directory.hertfordshire.gov.uk/Services/78"},"type":"Feature"},
		{"geometry":{"coordinates":[-2.18402,51.42847],"type":"Point"},"properties":{"_source":"wiltshire_council","description":"A chair-based dancing workshop aimed at improving fitness and mobility","title":"Dancing Through Time - Corsham","url":"https://directory.hertfordshire.gov.uk/Services/1974"},"type":"Feature"},
		{"geometry":{"coordinates":[-2.11694,51.45840],"type":"Point"},"properties":{"_source":"wiltshire_council","title":"Chippenham Community Hub","url":"https://directory.hertfordshire.gov.uk/Services/1885"},"type":"Feature"},
		{"geometry":{"coordinates":[-2.18402,51.42847],"type":"Point"},"properties":{"_source":"wiltshire_council","description":"A singing workshop for older people","title":"Goldies - Corsham","url":"https://directory.hertfordshire.gov.uk/Services/414"},"type":"Feature"},
		{"geometry":{"coordinates":[-2.12706,51.45916],"type":"Point"},"properties":{"_source":"wiltshire_council","description":"Meet weekly at Sheldon Road Methodist Church","title":"Allsorts Community Choir - Chippenham","url":"https://directory.hertfordshire.gov.uk/Services/1973"},"type":"Feature"},
		{"geometry":{"coordinates":[-2.12706,51.45916],"type":"Point"},"properties":{"_source":"wiltshire_council","title":"Free Community Lunch - Chippenham","url":"https://directory.hertfordshire.gov.uk/Services/2099"},"type":"Feature"},
		{"geometry":{"coordinates":[-2.11899,51.45995],"type":"Point"},"properties":{"_source":"wiltshire_council","title":"Salvation Army Coffee Morning - Chippenham","url":"https://directory.hertfordshire.gov.uk/Services/920"},"type":"Feature"},
		{"geometry":{"coordinates":[-2.18402,51.42847],"type":"Point"},"properties":{"_source":"wiltshire_council","description":"A group for women to improve physical and mental health","title":"Movement for Wellbeing - Corsham","url":"https://directory.hertfordshire.gov.uk/Services/1904"},"type":"Feature"},
		{"geometry":{"coordinates":[-2.18402,51.42847],"type":"Point"},"properties":{"_source":"wiltshire_council","description":"Dance and art sessions for older adults","title":"Studio 64 - Corsham","url":"https://directory.hertfordshire.gov.uk/Services/1979"},"type":"Feature"},
		{"geometry":{"coordinates":[-2.12706,51.45916],"type":"Point"},"properties":{"_source":"wiltshire_council","title":"BOCBOF - Bit of Cake, Bit of Fun","url":"https://directory.hertfordshire.gov.uk/Services/2011"},"type":"Feature"},
		{"geometry":{"coordinates":[-2.18973,51.43510],"type":"Point"},"properties":{"_source":"wiltshire_council","title":"Souper Friday Caf&#233; - Corsham","url":"https://directory.hertfordshire.gov.uk/Services/1449"},"type":"Feature"},
		{"geometry":{"coordinates":[-2.19311,51.43254],"type":"Point"},"properties":{"_source":"wiltshire_council","title":"Corsham Community Club","url":"https://directory.hertfordshire.gov.uk/Services/1971"},"type":"Feature"}
	]
}
