{
	"type": "FeatureCollection",
	"features": [
		{"geometry":{"coordinates":[-2.41756,51.54126],"type":"Point"},"properties":{"_source":"warm_welcome","address":"Station Road, Yate, South Gloucestershire BS37 4FW","hours":{"_text":"Monday: 10:00 - 12:00, Thursday: 09:00 - 15:00, Saturday: 10:00 - 13:00","opening":"Mo 10:00-12:00; Th 09:00-15:00; Sa 10:00-13:00"},"title":"Armadillo Youth Cafe"},"type":"Feature"},
		{"geometry":{"coordinates":[-2.25182,51.41532],"type":"Point"},"properties":{"_source":"warm_welcome","address":"The Parade, Box, Nr Corsham , Wiltshire SN13 8NX","description":"9.30 to noon or 14:30 on Thursdays: Hearty soup lunches on alternate Thursdays. Services on 2nd,3rd & 4th Sundays, Check the website for dates","hours":{"_text":"Monday: 10:30 - 12:00, Thursday: 9:30 - 14:30","opening":"Mo 10:30-12:00; Th 09:30-14:30"},"title":"Box Methodist Church"},"type":"Feature"},
		{"geometry":{"coordinates":[-2.24937,51.41895],"type":"Point"},"properties":{"_source":"warm_welcome","address":"Brunel House, The Wharf,, Box, Corsham, Wiltshire SN13 8EP","description":"Open from 19/10/2022. we only cater for the over 55s we serve homemade soup with a roll","hours":{"_text":"Wednesday: 09:00 - 12:30","opening":"We 09:00-12:30"},"title":"Brunel House Care Home (Maria Mallaband Care Group)"},"type":"Feature"},
		{"geometry":{"coordinates":[-2.42325,51.54064],"type":"Point"},"properties":{"_source":"warm_welcome","address":"94 Station Road, Yate, Bristol BS37 4PH","description":"Open from 21 October 2022. We can cater for most demographic groups","hours":{"_text":"Monday: 10:00 - 14:00, Thursday: 10:00 - 14:00","opening":"Mo 10:00-14:00; Th 10:00-14:00"},"title":"Gateway Elim Church"},"type":"Feature"},
		{"geometry":{"coordinates":[-2.41479,51.54068],"type":"Point"},"properties":{"_source":"warm_welcome","address":"Yate Shopping Centre, West Walk, South Gloucestershire BS37 4AX","description":"Dedicated space for over 50s only","hours":{"_text":"Monday: 10:00 - 14:30, Tuesday: 10:00 - 14:30, Wednesday: 10:00 - 14:30, Thursday: 10:00 - 14:30, Friday: 11:00 - 13:30","opening":"Mo 10:00-14:30; Tu 10:00-14:30; We 10:00-14:30; Th 10:00-14:30; Fr 11:00-13:30"},"title":"Pop Inn Cafe (over 50s)"},"type":"Feature"},
		{"geometry":{"coordinates":[-2.39463,51.53814],"type":"Point"},"properties":{"_source":"warm_welcome","address":"Chipping Sodbury Baptist Church, High Street, Chipping Sodbury BS37 6AH","description":"Open from Already open, but closed from 24 December to 2 January inclusive.. This community wellbeing space is hosted by CSBC, where everyone is welcome! A variety of activities take place on a regular basis throughout the week - please see our website for more details","hours":{"_text":"Monday: 10:00 - 14:00, Tuesday: 10:00 - 14:00, Wednesday: 10:00 - 14:00, Thursday: 10:00 - 14:00, Friday: 10:00 - 14:00","opening":"Mo 10:00-14:00; Tu 10:00-14:00; We 10:00-14:00; Th 10:00-14:00; Fr 10:00-14:00"},"title":"the Oasis at CSBC"},"type":"Feature"},
		{"geometry":{"coordinates":[-2.42325,51.54536],"type":"Point"},"properties":{"_source":"warm_welcome","address":"Tyndale Primary School, Tyndale Avenue, Yate BS375EX","description":"Open from 07/11/22.","hours":{"_text":"Monday: 12:00 - 15:30, Tuesday: 12:00 - 15:30, Wednesday: 12:00 - 15:30, Thursday: 12:00 - 15:30, Friday: 12:00 - 15:30","opening":"Mo 12:00-15:30; Tu 12:00-15:30; We 12:00-15:30; Th 12:00-15:30; Fr 12:00-15:30"},"title":"Tyndale Primary School"},"type":"Feature"},
		{"geometry":{"coordinates":[-2.41926,51.54065],"type":"Point"},"properties":{"_source":"warm_welcome","address":"Yate Heritage Centre, Yate, South Gloucestershire Yate Heritage Centre, Church Road, Yate","description":"There are exhibitions. artefacts and handling objects for people to enjoy. There are also research facilities for anyone interested in our local history.","hours":{"_text":"Tuesday: 10:00 - 16:00, Wednesday: 10:00 - 16:00, Thursday: 10:00 - 16:00, Saturday: 10:00 - 15:00","opening":"Tu 10:00-16:00; We 10:00-16:00; Th 10:00-16:00; Sa 10:00-15:00"},"title":"Yate and District Heritage Centre"},"type":"Feature"},
		{"geometry":{"coordinates":[-2.41753,51.54270],"type":"Point"},"properties":{"_source":"warm_welcome","address":"Poole Court (Heron 2), Yate, South Gloucestershire BS37 5PP","hours":{"_text":"Monday: 13:00 - 17:00, Thursday: 13:00 - 17:00, Friday: 09:00 - 16:00","opening":"Mo 13:00-17:00; Th 13:00-17:00; Fr 09:00-16:00"},"title":"Yate Town Council (Poole Court)"},"type":"Feature"},
		{"geometry":{"coordinates":[-2.11457,51.45703],"type":"Point"},"properties":{"_source":"warm_spaces","address":"Timber Street, Chippenham, England, SN15 3EJ, United Kingdom","description":"Free Wi-Fi, Device Charging, Advice, Space to work, Wheelchair Accessible, Child Friendly, Computer Access, Games, jigsaws, books, magazines.","hours":{"_text":"Monday 10am-7pm; Tuesday 9am-5pm; Wednesday 9am-1pm; Thursday 9am-7pm; Friday 9am-7pm; Saturday 9am-5pm","opening":"Mo 10:00-19:00; Tu 09:00-17:00; We 09:00-13:00; Th 09:00-19:00; Fr 09:00-19:00; Sa 09:00-17:00"},"title":"Chippenham Library","url":"https://www.wiltshire.gov.uk/libraries"},"type":"Feature"},
		{"geometry":{"coordinates":[-2.19271,51.43176],"type":"Point"},"properties":{"_source":"warm_spaces","address":"Beechfield Road, Corsham, England, SN13 9DN, United Kingdom","description":"Free Wi-Fi, Device Charging, Advice, Space to work, Food/Drink for sale, Wheelchair Accessible, Toilets, Accessible Toilet, Parking, Child Friendly, Computer Access, books, colouring and jigsaws","hours":{"_text":"Monday, Friday 9am-7pm, Tues/Wed/Thurs/Sat 9am-5pm","opening":"Mo 09:00-19:00; Fr 09:00-19:00; Tu 09:00-17:00; We 09:00-17:00; Th 09:00-17:00; Sa 09:00-17:00"},"title":"Corsham Library","url":"https://wiltshire.gov.uk"},"type":"Feature"},
		{"geometry":{"coordinates":[-2.24969,51.41897],"type":"Point"},"properties":{"_source":"wiltshire_council","title":"Brunel House - Corsham","url":"https://directory.hertfordshire.gov.uk/Services/221"},"type":"Feature"},
		{"geometry":{"coordinates":[-2.12706,51.45916],"type":"Point"},"properties":{"_source":"wiltshire_council","title":"Wednesday Lunch Club - Chippenham","url":"https://directory.hertfordshire.gov.uk/Services/78"},"type":"Feature"},
		{"geometry":{"coordinates":[-2.18402,51.42847],"type":"Point"},"properties":{"_source":"wiltshire_council","description":"A chair-based dancing workshop aimed at improving fitness and mobility","title":"Dancing Through Time - Corsham","url":"https://directory.hertfordshire.gov.uk/Services/1974"},"type":"Feature"},
		{"geometry":{"coordinates":[-2.11899,51.45995],"type":"Point"},"properties":{"_source":"wiltshire_council","title":"Salvation Army Coffee Morning - Chippenham","url":"https://directory.hertfordshire.gov.uk/Services/920"},"type":"Feature"},
		{"geometry":{"coordinates":[-2.12706,51.45916],"type":"Point"},"properties":{"_source":"wiltshire_council","title":"Free Community Lunch - Chippenham","url":"https://directory.hertfordshire.gov.uk/Services/2099"},"type":"Feature"},
		{"geometry":{"coordinates":[-2.12706,51.45916],"type":"Point"},"properties":{"_source":"wiltshire_council","description":"Meet weekly at Sheldon Road Methodist Church","title":"Allsorts Community Choir - Chippenham","url":"https://directory.hertfordshire.gov.uk/Services/1973"},"type":"Feature"},
		{"geometry":{"coordinates":[-2.11694,51.45840],"type":"Point"},"properties":{"_source":"wiltshire_council","title":"Chippenham Community Hub","url":"https://directory.hertfordshire.gov.uk/Services/1885"},"type":"Feature"},
		{"geometry":{"coordinates":[-2.18402,51.42847],"type":"Point"},"properties":{"_source":"wiltshire_council","description":"A singing workshop for older people","title":"Goldies - Corsham","url":"https://directory.hertfordshire.gov.uk/Services/414"},"type":"Feature"},
		{"geometry":{"coordinates":[-2.18402,51.42847],"type":"Point"},"properties":{"_source":"wiltshire_council","description":"A group for women to improve physical and mental health","title":"Movement for Wellbeing - Corsham","url":"https://directory.hertfordshire.gov.uk/Services/1904"},"type":"Feature"},
		{"geometry":{"coordinates":[-2.18973,51.43510],"type":"Point"},"properties":{"_source":"wiltshire_council","title":"Souper Friday Caf&#233; - Corsham","url":"https://directory.hertfordshire.gov.uk/Services/1449"},"type":"Feature"},
		{"geometry":{"coordinates":[-2.18402,51.42847],"type":"Point"},"properties":{"_source":"wiltshire_council","description":"Dance and art sessions for older adults","title":"Studio 64 - Corsham","url":"https://directory.hertfordshire.gov.uk/Services/1979"},"type":"Feature"},
		{"geometry":{"coordinates":[-2.12706,51.45916],"type":"Point"},"properties":{"_source":"wiltshire_council","title":"BOCBOF - Bit of Cake, Bit of Fun","url":"https://directory.hertfordshire.gov.uk/Services/2011"},"type":"Feature"},
		{"geometry":{"coordinates":[-2.19311,51.43254],"type":"Point"},"properties":{"_source":"wiltshire_council","title":"Corsham Community Club","url":"https://directory.hertfordshire.gov.uk/Services/1971"},"type":"Feature"}
	]
}
