{
	"type": "FeatureCollection",
	"features": [
		{"geometry":{"coordinates":[-2.11457,51.45703],"type":"Point"},"properties":{"_source":"warm_spaces","address":"Timber Street, Chippenham, England, SN15 3EJ, United Kingdom","description":"Free Wi-Fi, Device Charging, Advice, Space to work, Wheelchair Accessible, Child Friendly, Computer Access, Games, jigsaws, books, magazines.","hours":{"_text":"Monday 10am-7pm; Tuesday 9am-5pm; Wednesday 9am-1pm; Thursday 9am-7pm; Friday 9am-7pm; Saturday 9am-5pm","opening":"Mo 10:00-19:00; Tu 09:00-17:00; We 09:00-13:00; Th 09:00-19:00; Fr 09:00-19:00; Sa 09:00-17:00"},"title":"Chippenham Library","url":"https://www.wiltshire.gov.uk/libraries"},"type":"Feature"},
		{"geometry":{"coordinates":[-2.19271,51.43176],"type":"Point"},"properties":{"_source":"warm_spaces","address":"Beechfield Road, Corsham, England, SN13 9DN, United Kingdom","description":"Free Wi-Fi, Device Charging, Advice, Space to work, Food/Drink for sale, Wheelchair Accessible, Toilets, Accessible Toilet, Parking, Child Friendly, Computer Access, books, colouring and jigsaws","hours":{"_text":"Monday, Friday 9am-7pm, Tues/Wed/Thurs/Sat 9am-5pm","opening":"Mo 09:00-19:00; Fr 09:00-19:00; Tu 09:00-17:00; We 09:00-17:00; Th 09:00-17:00; Sa 09:00-17:00"},"title":"Corsham Library","url":"https://wiltshire.gov.uk"},"type":"Feature"},
		{"geometry":{"coordinates":[-2.24969,51.41897],"type":"Point"},"properties":{"_source":"wiltshire_council","title":"Brunel House - Corsham","url":"https://directory.hertfordshire.gov.uk/Services/221"},"type":"Feature"},
		{"geometry":{"coordinates":[-2.12706,51.45916],"type":"Point"},"properties":{"_source":"wiltshire_council","title":"Wednesday Lunch Club - Chippenham","url":"https://directory.hertfordshire.gov.uk/Services/78"},"type":"Feature"},
		{"geometry":{"coordinates":[-2.18402,51.42847],"type":"Point"},"properties":{"_source":"wiltshire_council","description":"A chair-based dancing workshop aimed at improving fitness and mobility","title":"Dancing Through Time - Corsham","url":"https://directory.hertfordshire.gov.uk/Services/1974"},"type":"Feature"},
		{"geometry":{"coordinates":[-2.11899,51.45995],"type":"Point"},"properties":{"_source":"wiltshire_council","title":"Salvation Army Coffee Morning - Chippenham","url":"https://directory.hertfordshire.gov.uk/Services/920"},"type":"Feature"},
		{"geometry":{"coordinates":[-2.12706,51.45916],"type":"Point"},"properties":{"_source":"wiltshire_council","title":"Free Community Lunch - Chippenham","url":"https://directory.hertfordshire.gov.uk/Services/2099"},"type":"Feature"},
		{"geometry":{"coordinates":[-2.12706,51.45916],"type":"Point"},"properties":{"_source":"wiltshire_council","description":"Meet weekly at Sheldon Road Methodist Church","title":"Allsorts Community Choir - Chippenham","url":"https://directory.hertfordshire.gov.uk/Services/1973"},"type":"Feature"},
		{"geometry":{"coordinates":[-2.18402,51.42847],"type":"Point"},"properties":{"_source":"wiltshire_council","description":"A singing workshop for older people","title":"Goldies - Corsham","url":"https://directory.hertfordshire.gov.uk/Services/414"},"type":"Feature"},
		{"geometry":{"coordinates":[-2.11694,51.45840],"type":"Point"},"properties":{"_source":"wiltshire_council","title":"Chippenham Community Hub","url":"https://directory.hertfordshire.gov.uk/Services/1885"},"type":"Feature"},
		{"geometry":{"coordinates":[-2.18402,51.42847],"type":"Point"},"properties":{"_source":"wiltshire_council","description":"A group for women to improve physical and mental health","title":"Movement for Wellbeing - Corsham","url":"https://directory.hertfordshire.gov.uk/Services/1904"},"type":"Feature"},
		{"geometry":{"coordinates":[-2.18973,51.43510],"type":"Point"},"properties":{"_source":"wiltshire_council","title":"Souper Friday Caf&#233; - Corsham","url":"https://directory.hertfordshire.gov.uk/Services/1449"},"type":"Feature"},
		{"geometry":{"coordinates":[-2.18402,51.42847],"type":"Point"},"properties":{"_source":"wiltshire_council","description":"Dance and art sessions for older adults","title":"Studio 64 - Corsham","url":"https://directory.hertfordshire.gov.uk/Services/1979"},"type":"Feature"},
		{"geometry":{"coordinates":[-2.12706,51.45916],"type":"Point"},"properties":{"_source":"wiltshire_council","title":"BOCBOF - Bit of Cake, Bit of Fun","url":"https://directory.hertfordshire.gov.uk/Services/2011"},"type":"Feature"},
		{"geometry":{"coordinates":[-2.19311,51.43254],"type":"Point"},"properties":{"_source":"wiltshire_council","title":"Corsham Community Club","url":"https://directory.hertfordshire.gov.uk/Services/1971"},"type":"Feature"}
	]
}
