{
	"type": "FeatureCollection",
	"features": [
		{"geometry":{"coordinates":[-2.37945,51.37749],"type":"Point"},"properties":{"_source":"warm_welcome","address":"9, Bath, Somerset BA2 3PL BA2 3PL","description":"Working office in high street location with space to sit, enjoy a hot drink and warm up","hours":{"_text":"Monday: 09:00 - 18:00, Tuesday: 09:00 - 18:00, Wednesday: 09:00 - 18:00, Thursday: 09:00 - 18:00, Friday: 09:00 - 18:00","opening":"Mo 09:00-18:00; Tu 09:00-18:00; We 09:00-18:00; Th 09:00-18:00; Fr 09:00-18:00"},"title":"Madison Oakley"},"type":"Feature"},
		{"geometry":{"coordinates":[-2.39351,51.39481],"type":"Point"},"properties":{"_source":"warm_welcome","address":"Weston Hub, Bath, Avon BA1 4EH","description":"Free 3-course lunch, and join the Food Club to take food home Open on Mondays from 11am to 2pm","hours":{"_text":"Monday: 11:00 - 14:00","opening":"Mo 11:00-14:00"},"title":"Weston Welcome Cafe and Food Club"},"type":"Feature"},
		{"geometry":{"coordinates":[-2.20456,51.29654],"type":"Point"},"properties":{"_source":"warm_spaces","address":"1a Westbury Road, Trowbridge, England, BA14 0TN, United Kingdom","description":"Free Food/Drink, Device Charging, Advice, People to chat to, Wheelchair Accessible, Toilets, Accessible Toilet, Parking, Child Friendly, Fill hot water bottles and flask","hours":{"_text":"Mondays 10am-4pm","opening":"Mo 10:00-16:00"},"title":"North Bradley Baptist Church","url":"Www.nbbc.org.uk"},"type":"Feature"},
		{"geometry":{"coordinates":[-2.17959,51.20596],"type":"Point"},"properties":{"_source":"warm_spaces","address":"Three Horseshoes Walk, Warminster, England, BA12 9BT, United Kingdom","description":"Free Wi-Fi, Device Charging, Space to work, Wheelchair Accessible, Child Friendly","hours":{"_text":"Mondays 10am-7pm, Tuesdays 9.30am-5pm, Wednesdays 9.30am-12.30pm, Thursdays 9.30am-7pm, Fridays 9.30am-5pm, Saturdays 9.30am-4pm","opening":"Mo 10:00-19:00; Tu 09:30-17:00; We 09:30-12:30; Th 09:30-19:00; Fr 09:30-17:00; Sa 09:30-16:00"},"title":"Warminster Library and Museum","url":"https://wiltshire.gov.uk"},"type":"Feature"},
		{"geometry":{"coordinates":[-2.25035,51.34631],"type":"Point"},"properties":{"_source":"warm_spaces","address":"Bridge Street, Bradford-on-Avon, England, BA15 1BY, United Kingdom","description":"Free Wi-Fi, Device Charging, Advice, People to chat to, Space to work, Wheelchair Accessible, Accessible Toilet, Parking, Child Friendly, Computer Access","hours":{"_text":"Mon 10am-7pm, Tuesday- Closed, Wed 9.30am-5pm, Thursday 9.30am-7pm, Friday 9.30am-5pm, Saturday 9.30am-7pm","opening":"Mo 10:00-19:00; We 09:30-17:00; Th 09:30-19:00; Fr 09:30-17:00; Sa 09:30-19:00"},"title":"Bradford on Avon Library","url":"https://libraries.wiltshire.gov.uk"},"type":"Feature"},
		{"geometry":{"coordinates":[-2.18355,51.26148],"type":"Point"},"properties":{"_source":"warm_spaces","address":"Edward Street, Westbury, England, BA13 3BD, United Kingdom","description":"Free Wi-Fi, Device Charging, People to chat to, Space to work, Wheelchair Accessible, Toilets, Child Friendly, Computer Access","hours":{"_text":"Monday 2pm-7pm, Tuesday 9:30am-5pm, Thursday 9:30am-7pm, Friday 9:30am-5pm, Saturday 9:30am-1pm","opening":"Mo 14:00-19:00; Tu 09:30-17:00; Th 09:30-19:00; Fr 09:30-17:00; Sa 09:30-13:00"},"title":"Westbury Library (Wiltshire)","url":"https://www.wiltshire.gov.uk/libraries"},"type":"Feature"},
		{"geometry":{"coordinates":[-2.20985,51.31648],"type":"Point"},"properties":{"_source":"warm_spaces","address":"484 Bythesea Road, Trowbridge, England, BA14 8BS, United Kingdom","description":"Free Wi-Fi, Device Charging, People to chat to, Space to work, Wheelchair Accessible, Toilets, Accessible Toilet, Parking, Child Friendly, Computer Access, Shower Facilities","hours":{"_text":"Monday to Saturday 9am-5pm, late night till 7pm on Monday and Thursday","opening":"Mo-Sa 09:00-17:00"},"title":"Trowbridge Library","url":"https://www.wiltshire.gov.uk/libraries"},"type":"Feature"},
		{"geometry":{"coordinates":[-2.37916,51.37734],"type":"Point"},"properties":{"_source":"warm_spaces","address":"9 Moorland Road, Bath, England, BA2 3PL, United Kingdom","description":"Free Wi-Fi, Device Charging, People to chat to","hours":{"_text":"Mon-Fri 9am-6pm","opening":"Mo-Fr 09:00-18:00"},"title":"Madison Oakley","url":"https://www.madisonoakley.co.uk"},"type":"Feature"},
		{"geometry":{"coordinates":[-2.19630,51.33977],"type":"Point"},"properties":{"_source":"warm_spaces","address":"Staverton Club, Marsh Road, Trowbridge, England, BA14, United Kingdom","description":"Free Food/Drink, Free Wi-Fi, People to chat to, Space to work, Food/Drink for sale, Toilets, Parking, Child Friendly","hours":{"_text":"Alternate Fridays 10am-12pm","opening":"Fr 10:00-12:00"},"title":"Cornerstone Coffee and Cake","url":"https://cornerstonefellowship-trowbridge.co.uk"},"type":"Feature"},
		{"geometry":{"coordinates":[-2.39805,51.38087],"type":"Point"},"properties":{"_source":"warm_spaces","address":"The Lighthouse Centre, Watery Lane, Bath, England, BA2, United Kingdom","description":"Free Food/Drink, Free Wi-Fi, People to chat to, Wheelchair Accessible, Toilets, Accessible Toilet, Child Friendly","hours":{"_text":"Wednesdays 4pm-7pm (starting 23 November 2022)","opening":"We 16:00-19:00"},"title":"Twerton Warm Space","url":"https://www.stmichaelstwerton.com"},"type":"Feature"},
		{"geometry":{"coordinates":[-2.20767,51.32146],"type":"Point"},"properties":{"_source":"warm_spaces","address":"Church Street, Trowbridge, England, BA14 8RU, United Kingdom","description":"Free Food/Drink, Free Wi-Fi, Device Charging, People to chat to, Space to work, Food/Drink for sale, Wheelchair Accessible, Toilets","hours":{"_text":"Monday, Wednesday, Saturday 10am-12noon","opening":"Mo 10:00-12:00; We 10:00-12:00; Sa 10:00-12:00"},"title":"St James Church Trowbridge","url":"https://www.stjamestrowbridge.co.uk"},"type":"Feature"},
		{"geometry":{"coordinates":[-2.20827,51.31992],"type":"Point"},"properties":{"_source":"warm_spaces","address":"Court Hall, Castle Street, Trowbridge, England, BA14 8AR, United Kingdom","description":"Free Food/Drink, Free Wi-Fi, Device Charging, Space to work","hours":{"_text":"Monday-Friday, 9am-5:30pm","opening":"Mo-Fr 09:00-17:30"},"title":"ElevateOM","url":"https://www.elevateom.com"},"type":"Feature"},
		{"geometry":{"coordinates":[-2.13041,51.37172],"type":"Point"},"properties":{"_source":"warm_spaces","address":"Queensway Chapel, Pembroke Road, Melksham, England, SN12 7NB, United Kingdom","description":"Free Wi-Fi, Device Charging, People to chat to, Space to work, Food/Drink for sale. A hot meal is available at a low cost","hours":{"_text":"Tuesdays, 9:30am-2pm","opening":"Tu 09:30-14:00"},"title":"Queensway Chapel - Open Lunch","url":"https://www.queenswaychapel.co.uk"},"type":"Feature"},
		{"geometry":{"coordinates":[-2.35972,51.38359],"type":"Point"},"properties":{"_source":"warm_spaces","address":"St Michael&#39;s Church, Broad Street, Bath, England, BA1 5LJ, United Kingdom","description":"Free Wi-Fi, Device Charging, People to chat to, Pay it forward scheme, Space to work, Food/Drink for sale","hours":{"_text":"9am-3.30pm"},"title":"St. Michael's Without","url":"https://stmichaelsbath.org.uk"},"type":"Feature"},
		{"geometry":{"coordinates":[-2.32264,51.23046],"type":"Point"},"properties":{"_source":"warm_spaces","address":"The Good Heart, 7 Palmer Street, Frome, England, BA11 1DS, United Kingdom","description":"Free Food/Drink, Free Wi-Fi, Device Charging, Pay it forward scheme, Space to work, Food/Drink for sale, Books, music, some activities","hours":{"_text":"Tue-Sun, 12pm-7pm","opening":"Tu-Su 12:00-19:00"},"title":"The Good Heart","url":"https://www.thegoodheart.uk"},"type":"Feature"},
		{"geometry":{"coordinates":[-2.32092,51.23247],"type":"Point"},"properties":{"_source":"warm_spaces","address":"Frome Library, Justice Lane, Frome, England, BA11 1BE, United Kingdom","description":"Free Wi-Fi, Device Charging, Space to work, various drop-in activities for children and adults during opening hours","hours":{"_text":"Mon-Fri 9.30am-5pm, Sat 9.30am-4pm","opening":"Mo-Fr 09:30-17:00; Sa 09:30-16:00"},"title":"Frome Library","url":"https://www.somerset.gov.uk/libraries-leisure-and-communities/libraries/"},"type":"Feature"},
		{"geometry":{"coordinates":[-2.20951,51.32033],"type":"Point"},"properties":{"_source":"warm_spaces","address":"Trowbridge Museum, The Shires Shopping Centre, Trowbridge, England, BA14 8AT, United Kingdom","description":"Free Wi-Fi, Device Charging, People to chat to, Space to work, Food/Drink for sale, Museum exhibitions","hours":{"_text":"10am-4pm, Monday - Saturday","opening":"Mo-Sa 10:00-16:00"},"title":"Trowbridge Museum","url":"https://Trowbridgemuseum.co.uk"},"type":"Feature"},
		{"geometry":{"coordinates":[-2.32074,51.23245],"type":"Point"},"properties":{"_source":"spark_somerset","address":"Justice Lane, Frome, BA11 1BE","contact":"Email: frolib@somerset.gov.uk","hours":{"_text":"Mon-Fri 9:30am-5pm, Sat 9:30am-4pm","opening":"Mo-Fr 09:30-17:00; Sa 09:30-16:00"},"title":"Frome Library"},"type":"Feature"},
		{"geometry":{"coordinates":[-2.32224,51.23043],"type":"Point"},"properties":{"_source":"spark_somerset","address":"7 Palmer Street, Frome, BA11 1DS","contact":"Telephone: 0708139244; Email: info@thegoodheart.com","hours":{"_text":"From Dec 27th until Jan 3rd - 3-5pm ( free drinks and cake for sale 3rd Jan onwards back to usual hours ( Tues -Sun 12 -7pm) Hot food and drinks 9th Jan pilot for Mums and tots - 9am -11am Mon to Friday","opening":"Mo-Fr 09:00-11:00"},"loc_pcd":true,"title":"The Good Heart"},"type":"Feature"},
		{"geometry":{"coordinates":[-2.21065,51.31721],"type":"Point"},"properties":{"_source":"wiltshire_council","description":"Reading group for people with memory loss and their carers","title":"Library Shared Reading Group - Trowbridge","url":"https://directory.hertfordshire.gov.uk/Services/4"},"type":"Feature"},
		{"geometry":{"coordinates":[-2.18005,51.20530],"type":"Point"},"properties":{"_source":"wiltshire_council","description":"Reading group for people with memory loss and their carers","title":"Library Shared Reading Group - Warminster","url":"https://directory.hertfordshire.gov.uk/Services/2314"},"type":"Feature"},
		{"geometry":{"coordinates":[-2.18385,51.26175],"type":"Point"},"properties":{"_source":"wiltshire_council","description":"Reading group for people with memory loss and their carers","title":"Library Shared Reading Group - Westbury","url":"https://directory.hertfordshire.gov.uk/Services/2315"},"type":"Feature"},
		{"geometry":{"coordinates":[-2.18337,51.26173],"type":"Point"},"properties":{"_source":"wiltshire_council","description":"Reading aloud, crochet, knit and natter, getting help with your kindle, or read with the group. Join a group at the library.","title":"Westbury Library - regular groups","url":"https://directory.hertfordshire.gov.uk/Services/2267"},"type":"Feature"},
		{"geometry":{"coordinates":[-2.21860,51.24766],"type":"Point"},"properties":{"_source":"wiltshire_council","description":"Jigsaws, games, colouring and crafts. 1st Monday of the month. 2-4pm","title":"Soul Space cafe - Dilton Marsh","url":"https://directory.hertfordshire.gov.uk/Services/2122"},"type":"Feature"},
		{"geometry":{"coordinates":[-2.12531,51.35791],"type":"Point"},"properties":{"_source":"wiltshire_council","title":"Melksham Community Dining","url":"https://directory.hertfordshire.gov.uk/Services/1983"},"type":"Feature"},
		{"geometry":{"coordinates":[-2.18322,51.26173],"type":"Point"},"properties":{"_source":"wiltshire_council","title":"Tea, Cake and Company - Westbury","url":"https://directory.hertfordshire.gov.uk/Services/2123"},"type":"Feature"}
	]
}
