{
	"type": "FeatureCollection",
	"features": [
		{"geometry":{"coordinates":[-2.39011,51.39599],"type":"Point"},"properties":{"_source":"warm_welcome","address":"All Saints Church, Bath, Somerset BA1 4BU","description":"A big warm open space for afternoon activities for young people","hours":{"_text":"Monday: 14:30 - 17:00","opening":"Mo 14:30-17:00"},"title":"All Saints Church, Weston, Bath"},"type":"Feature"},
		{"geometry":{"coordinates":[-2.25035,51.34633],"type":"Point"},"properties":{"_source":"warm_welcome","address":"Wiltshire County Council, Bradford-on-Avon, Wiltshire BA15 1BY","description":"Spaces to sit and keep warm. • Free access to Wi-Fi and free computer access with a Library membership • Places to charge your devices • Signposting to advice and support • Check out regular groups, activities and events To find out more about what we offer, visit www.wiltshire.gov.uk/libraries. Library membership is free - join online or visit your local library to sign up.","hours":{"_text":"Monday: 10:00 - 19:00, Wednesday: 09:30 - 17:00, Thursday: 09:30 - 19:00, Friday: 09:30 - 17:00, Saturday: 09:30 - 16:00","opening":"Mo 10:00-19:00; We 09:30-17:00; Th 09:30-19:00; Fr 09:30-17:00; Sa 09:30-16:00"},"title":"Bradford on Avon Library"},"type":"Feature"},
		{"geometry":{"coordinates":[-2.32007,51.23356],"type":"Point"},"properties":{"_source":"warm_welcome","address":"Frome Library, Somerset BA11 1BE","description":"Library in the centre of Frome with wifi, public computers, activities and groups. Study area, books, magazines and newspapers, council help point, CAB phone line and comfy chairs. Everyone is welcome. Memebership is free and items to borrow include books, ebooks, audio books, BP monitors, iPads and smart watches.","hours":{"_text":"Monday: 09:30 - 17:00, Tuesday: 09:30 - 17:00, Wednesday: 09:30 - 17:00, Thursday: 09:30 - 17:00, Friday: 09:30 - 17:00, Saturday: 09:30 - 16:00, Sunday: 0:00","opening":"Mo 09:30-17:00; Tu 09:30-17:00; We 09:30-17:00; Th 09:30-17:00; Fr 09:30-17:00; Sa 09:30-16:00"},"title":"Frome Library"},"type":"Feature"},
		{"geometry":{"coordinates":[-2.37945,51.37749],"type":"Point"},"properties":{"_source":"warm_welcome","address":"9, Bath, Somerset BA2 3PL BA2 3PL","description":"Working office in high street location with space to sit, enjoy a hot drink and warm up","hours":{"_text":"Monday: 09:00 - 18:00, Tuesday: 09:00 - 18:00, Wednesday: 09:00 - 18:00, Thursday: 09:00 - 18:00, Friday: 09:00 - 18:00","opening":"Mo 09:00-18:00; Tu 09:00-18:00; We 09:00-18:00; Th 09:00-18:00; Fr 09:00-18:00"},"title":"Madison Oakley"},"type":"Feature"},
		{"geometry":{"coordinates":[-2.11821,51.36072],"type":"Point"},"properties":{"_source":"warm_welcome","address":"Melksham Community Campus, Melksham, Wiltshire SN12 6ES","description":"Spaces to sit and keep warm. • Free access to Wi-Fi and free computer access with a Library membership • Places to charge your devices • Signposting to advice and support • Check out regular groups, activities and events To find out more about what we offer, visit www.wiltshire.gov.uk/libraries. Library membership is free - join online or visit your local library to sign up.","hours":{"_text":"Monday: 06:30 - 22:00, Tuesday: 06:30 - 22:00, Wednesday: 06:30 - 22:00, Thursday: 06:30 - 22:00, Friday: 06:30 - 21:00, Saturday: 08:00 - 18:00, Sunday: 08:00 - 18:00","opening":"Mo 06:30-22:00; Tu 06:30-22:00; We 06:30-22:00; Th 06:30-22:00; Fr 06:30-21:00; Sa 08:00-18:00; Su 08:00-18:00"},"title":"Melksham Library"},"type":"Feature"},
		{"geometry":{"coordinates":[-2.37503,51.35965],"type":"Point"},"properties":{"_source":"warm_welcome","address":"Odd Down Sports Pavilion, Bath, Avon BA2 2PR","description":"SPACE OPENING ON 18th November 2024** Cafe area at Odd Down Sports Ground","hours":{"_text":"Monday: 13:00 - 15:00, Tuesday: 13:00 - 15:00","opening":"Mo 13:00-15:00; Tu 13:00-15:00"},"title":"Odd Down Sports Ground"},"type":"Feature"},
		{"geometry":{"coordinates":[-2.18354,51.32376],"type":"Point"},"properties":{"_source":"warm_welcome","address":"Paxcroft Mead Community Centre, Trowbridge, Wiltshire BA14 7GW","description":"SPACE OPENING ON 2nd October 2024** Warm hall where we will provide free soup, sandwiches and a hot drink. Wednesday 12 - 2pm (beginning October 2nd 2024)","hours":{"_text":"Wednesday: 12:00 - 14:00","opening":"We 12:00-14:00"},"title":"Paxcroft Mead Community Centre"},"type":"Feature"},
		{"geometry":{"coordinates":[-2.39011,51.39599],"type":"Point"},"properties":{"_source":"warm_welcome","address":"All Saints Church, Church Road, Weston, Bath, Bath, Somerset BA1 4BU","description":"A warm place for small children to play together, with refreshments for all","hours":{"_text":"Wednesday: 09:30 - 11:30","opening":"We 09:30-11:30"},"title":"Small Saints"},"type":"Feature"},
		{"geometry":{"coordinates":[-2.39891,51.37106],"type":"Point"},"properties":{"_source":"warm_welcome","address":"Southdown Methodist Church, Bath, Somerset BA2 1NJ","description":"Wednesdays 3.30pm - 5pm Space open to families with Primary school age children. Games and crafts available and free family friendly meal. Thursdays 10am - 2pm space open to all with hot drinks and snacks available plus optional 2 course lunch (£5 per person)","hours":{"_text":"Wednesday: 03:30 - 05:00, Thursday: 10:00 - 02:00","opening":"We 03:30-05:00; Th 10:00-02:00"},"title":"Southdown Methodist Church Centre"},"type":"Feature"},
		{"geometry":{"coordinates":[-2.20650,51.32245],"type":"Point"},"properties":{"_source":"warm_welcome","address":"St. James Church, Trowbridge, Wiltshire BA14 8RU","description":"The space is open to all. A warm welcome, hot cuppa and friendly is chat waiting for you!","hours":{"_text":"Monday: 10:00 - 12:00, Wednesday: 10:00 - 12:00, Saturday: 10:00 - 12:00","opening":"Mo 10:00-12:00; We 10:00-12:00; Sa 10:00-12:00"},"title":"St James' Church, Trowbridge"},"type":"Feature"},
		{"geometry":{"coordinates":[-2.35828,51.38115],"type":"Point"},"properties":{"_source":"warm_welcome","address":"Bath Abbey, Somerset BA1 1LT","description":"SPACE OPENING ON 7th November 2023** Hot drinks, soup and a roll plus friendly chat in the Vaults learning room.","hours":{"_text":"Tuesday: 12:30 - 14:00","opening":"Tu 12:30-14:00"},"title":"The Cosy Place"},"type":"Feature"},
		{"geometry":{"coordinates":[-2.32225,51.23043],"type":"Point"},"properties":{"_source":"warm_welcome","address":"The Good Heart, Somerset BA11 1DS","description":"We are a cafe and community space that offers free hot drinks all year round and pay it forward meals. We are open every day except Sunday. We are mainly run by volunteers and offer free drop in groups, both weekly and monthly.","hours":{"_text":"Monday: 11:30 - 15:00, Tuesday: 11:30 - 15:00 / 17:00 - 19:00, Wednesday: 11:30 - 15:00 / 17:00 - 19:00, Thursday: 11:30 - 15:00 / 17:00 - 19:00, Friday: 11:30 - 15:00 / 15:00 - 19:00, Saturday: 12:00 - 15:00 / 17:00 - 19:00","opening":"Mo 11:30-15:00; Tu 11:30-15:00,17:00-19:00; We 11:30-15:00,17:00-19:00; Th 11:30-15:00,17:00-19:00; Fr 11:30-15:00,15:00-19:00; Sa 12:00-15:00,17:00-19:00"},"title":"The Good Heart Cafe"},"type":"Feature"},
		{"geometry":{"coordinates":[-2.18017,51.20457],"type":"Point"},"properties":{"_source":"warm_welcome","address":"5 Wilson & Kennard Yard, Warminster, Wiltshire BA12 9AN BA12 9AN","hours":{"_text":"Tuesday: 10:00 - 02:00, Wednesday: 10:00 - 02:00, Thursday: 10:00 - 02:00","opening":"Tu 10:00-02:00; We 10:00-02:00; Th 10:00-02:00"},"title":"The WAG House"},"type":"Feature"},
		{"geometry":{"coordinates":[-2.39012,51.39560],"type":"Point"},"properties":{"_source":"warm_welcome","address":"All Saints Church Centre, Bath, Somerset BA1 4BX","description":"A warm lunch for older people, together with a talk. A time to keep warm and make new friends.","hours":{"_text":"Tuesday: 11:00 - 14:00 Monthly","opening":"Tu 11:00-14:00"},"title":"Third Tuesday Lunch"},"type":"Feature"},
		{"geometry":{"coordinates":[-2.21048,51.31706],"type":"Point"},"properties":{"_source":"warm_welcome","address":"Wiltshire Council, Trowbridge, Wiltshire BA14 4YZ","description":"Spaces to sit and keep warm. • Free access to Wi-Fi and free computer access with a Library membership • Places to charge your devices • Signposting to advice and support • Check out regular groups, activities and events To find out more about what we offer, visit www.wiltshire.gov.uk/libraries. Library membership is free - join online or visit your local library to sign up.","hours":{"_text":"Monday: 09:00 - 19:00, Tuesday: 09:00 - 17:00, Wednesday: 09:00 - 17:00, Thursday: 09:00 - 19:00, Friday: 09:00 - 17:00, Saturday: 09:00 - 17:00","opening":"Mo 09:00-19:00; Tu 09:00-17:00; We 09:00-17:00; Th 09:00-19:00; Fr 09:00-17:00; Sa 09:00-17:00"},"title":"Trowbridge Library"},"type":"Feature"},
		{"geometry":{"coordinates":[-2.18034,51.20462],"type":"Point"},"properties":{"_source":"warm_welcome","address":"Warminster Action Group, Warminster, Wiltshire BA12 9AN","description":"Open to all, Tuesday, Wednesday, Thursday from 10am. Provides warm drinks and snacks. Learn new skills or just sit and chat. Run completely by volunteers","hours":{"_text":"Tuesday: 10:00 - 14:00, Wednesday: 10:00 - 15:00, Thursday: 10:00 - 14:00","opening":"Tu 10:00-14:00; We 10:00-15:00; Th 10:00-14:00"},"title":"WAG house"},"type":"Feature"},
		{"geometry":{"coordinates":[-2.18012,51.20527],"type":"Point"},"properties":{"_source":"warm_welcome","address":"Wiltshire County Council, Warminster, Wiltshire BA12 9BT","description":"Spaces to sit and keep warm. • Free access to Wi-Fi and free computer access with a Library membership • Places to charge your devices • Signposting to advice and support • Check out regular groups, activities and events To find out more about what we offer, visit www.wiltshire.gov.uk/libraries. Library membership is free - join online or visit your local library to sign up.","hours":{"_text":"Monday: 10:00 - 19:00, Tuesday: 09:30 - 17:00, Wednesday: 09:30 - 12:30, Thursday: 09:30 - 19:00, Friday: 09:30 - 17:00, Saturday: 09:30 - 16:00","opening":"Mo 10:00-19:00; Tu 09:30-17:00; We 09:30-12:30; Th 09:30-19:00; Fr 09:30-17:00; Sa 09:30-16:00"},"title":"Warminster Library"},"type":"Feature"},
		{"geometry":{"coordinates":[-2.18385,51.26176],"type":"Point"},"properties":{"_source":"warm_welcome","address":"Wiltshire County Council, Westbury, Wiltshire BA13 3BD","description":"Spaces to sit and keep warm. • Free access to Wi-Fi and free computer access with a Library membership • Places to charge your devices • Signposting to advice and support • Check out regular groups, activities and events To find out more about what we offer, visit www.wiltshire.gov.uk/libraries. Library membership is free - join online or visit your local library to sign up.","hours":{"_text":"Monday: 14:00 - 19:00, Tuesday: 09:30 - 17:00, Thursday: 09:30 - 19:00, Friday: 09:30 - 17:00, Saturday: 09:30 - 13:00","opening":"Mo 14:00-19:00; Tu 09:30-17:00; Th 09:30-19:00; Fr 09:30-17:00; Sa 09:30-13:00"},"title":"Westbury Library"},"type":"Feature"},
		{"geometry":{"coordinates":[-2.39132,51.39590],"type":"Point"},"properties":{"_source":"warm_welcome","address":"Weston Library, Town Hall, Somerset, Somerset BS23 1UJ","description":"Huge range of books to browse and borrow. Space to read and study. Free events and activities are available, including knit and natter, board games, story time, rhymetime, crafts, digital support, reading group, volunteering opportunities. Access to PC's & Wi-Fi. Help available to access council services. Sessions for adults who want to learn to read. Full details on www.n-somerset.gov.uk/libraryevents","hours":{"_text":"Monday: 09:00 - 18:00, Tuesday: 09:00 - 18:00, Wednesday: 09:00 - 18:00, Thursday: 09:00 - 18:00, Friday: 09:00 - 18:00, Saturday: 09:00 - 16:00","opening":"Mo 09:00-18:00; Tu 09:00-18:00; We 09:00-18:00; Th 09:00-18:00; Fr 09:00-18:00; Sa 09:00-16:00"},"title":"Weston super Mare Library"},"type":"Feature"},
		{"geometry":{"coordinates":[-2.39351,51.39481],"type":"Point"},"properties":{"_source":"warm_welcome","address":"Weston Hub, Bath, Avon BA1 4EH","description":"Free 3-course lunch, and join the Food Club to take food home Open on Mondays from 11am to 2pm","hours":{"_text":"Monday: 11:00 - 14:00","opening":"Mo 11:00-14:00"},"title":"Weston Welcome Cafe and Food Club"},"type":"Feature"},
		{"geometry":{"coordinates":[-2.38006,51.36051],"type":"Point"},"properties":{"_source":"bath_and_north_east_somerset_council","address":"35 Frome Rd, Odd Down, Bath, BA2 2QF, United Kingdom","title":"St Philip & St James Church Warm Space","url":"https://livewell.bathnes.gov.uk/cost-living-crisis/warm-places-list/st-philip-st-james-church-warm-space"},"type":"Feature"},
		{"geometry":{"coordinates":[-2.39000,51.39583],"type":"Point"},"properties":{"_source":"bath_and_north_east_somerset_council","address":"Church Street, Weston, Bath, BA1 4BU, United Kingdom","title":"Small Saints at All Saints Church","url":"https://livewell.bathnes.gov.uk/cost-living-crisis/warm-places-list/small-saints-all-saints-church"},"type":"Feature"},
		{"geometry":{"coordinates":[-2.39011,51.39575],"type":"Point"},"properties":{"_source":"bath_and_north_east_somerset_council","address":"High Street, Weston, Bath, BA1 4BX, United Kingdom","title":"All Saints Centre","url":"https://livewell.bathnes.gov.uk/cost-living-crisis/warm-places-list/all-saints-centre"},"type":"Feature"},
		{"geometry":{"coordinates":[-2.36607,51.38249],"type":"Point"},"properties":{"_source":"bath_and_north_east_somerset_council","address":"Percy Community Centre, New King Street, Bath, BA1 2BN, United Kingdom","title":"Percy Community Centre - Free Warm Space","url":"https://livewell.bathnes.gov.uk/cost-living-crisis/warm-places-list/percy-community-centre-free-warm-space"},"type":"Feature"},
		{"geometry":{"coordinates":[-2.35669,51.37882],"type":"Point"},"properties":{"_source":"bath_and_north_east_somerset_council","address":"Baptist Church, Manvers St, Bath, BA1 1JW, United Kingdom","title":"Manvers Street Baptist Church Cafe","url":"https://livewell.bathnes.gov.uk/cost-living-crisis/warm-places-list/manvers-street-baptist-church-cafe"},"type":"Feature"},
		{"geometry":{"coordinates":[-2.35395,51.36051],"type":"Point"},"properties":{"_source":"bath_and_north_east_somerset_council","address":"Mulberry Way, Mulberry Park, Combe Down, Bath, BA2 5BU, United Kingdom","title":"Mulberry Park Hub Warm Space","url":"https://livewell.bathnes.gov.uk/cost-living-crisis/warm-places-list/mulberry-park-hub-warm-space"},"type":"Feature"},
		{"geometry":{"coordinates":[-2.39479,51.36976],"type":"Point"},"properties":{"_source":"bath_and_north_east_somerset_council","address":"Mount View, Southdown, Bath, BA2 1JX, United Kingdom","title":"Barney’s Community Cafe at St Barnabas Church","url":"https://livewell.bathnes.gov.uk/cost-living-crisis/warm-places-list/barneys-community-cafe-st-barnabas-church"},"type":"Feature"},
		{"geometry":{"coordinates":[-2.35718,51.37981],"type":"Point"},"properties":{"_source":"bath_and_north_east_somerset_council","address":"3 to 4 Manvers Street, Bath, BA1 1JQ, United Kingdom","title":"Bath Housing, Welfare and Advice Service","url":"https://livewell.bathnes.gov.uk/cost-living-crisis/warm-places-list/bath-housing-welfare-and-advice-service"},"type":"Feature"},
		{"geometry":{"coordinates":[-2.39499,51.37517],"type":"Point"},"properties":{"_source":"bath_and_north_east_somerset_council","address":"Bath City Farm, Kelston View, Bath, BA2 1NW, United Kingdom","title":"Roots to Work Cafe at Bath City Farm","url":"https://livewell.bathnes.gov.uk/cost-living-crisis/warm-places-list/roots-work-cafe-bath-city-farm"},"type":"Feature"},
		{"geometry":{"coordinates":[-2.36045,51.36009],"type":"Point"},"properties":{"_source":"bath_and_north_east_somerset_council","address":"Hawthorn Grove, Foxhill, Bath, BA2 5QA, United Kingdom","title":"St Andrew's Community Church","url":"https://livewell.bathnes.gov.uk/cost-living-crisis/warm-places-list/st-andrews-community-church"},"type":"Feature"},
		{"geometry":{"coordinates":[-2.35887,51.38145],"type":"Point"},"properties":{"_source":"bath_and_north_east_somerset_council","address":"Bath Abbey, Bath, BA1 1LT, United Kingdom","title":"Bath Abbey's Cosy Place","url":"https://livewell.bathnes.gov.uk/cost-living-crisis/warm-places-list/bath-abbeys-cosy-place"},"type":"Feature"},
		{"geometry":{"coordinates":[-2.44728,51.29130],"type":"Point"},"properties":{"_source":"bath_and_north_east_somerset_council","address":"Radstock Community Hub and Library, Radstock, BA3 3PR, United Kingdom","title":"Radstock Community Hub and Library","url":"https://livewell.bathnes.gov.uk/cost-living-crisis/warm-places-list/radstock-community-hub-and-library"},"type":"Feature"},
		{"geometry":{"coordinates":[-2.35921,51.38344],"type":"Point"},"properties":{"_source":"bath_and_north_east_somerset_council","address":"Bath Central Library, 19 - 23 The Podium, Bath, BA1 5AN, United Kingdom","title":"Bath Central Library","url":"https://livewell.bathnes.gov.uk/cost-living-crisis/warm-places-list/bath-central-library"},"type":"Feature"},
		{"geometry":{"coordinates":[-2.43013,51.31426],"type":"Point"},"properties":{"_source":"bath_and_north_east_somerset_council","address":"The Hive Community Centre, Bath Road, Peasedown St John, BA2 8DH, United Kingdom","title":"The Hive Community Centre","url":"https://livewell.bathnes.gov.uk/cost-living-crisis/warm-places-list/hive-community-centre"},"type":"Feature"},
		{"geometry":{"coordinates":[-2.39203,51.39639],"type":"Point"},"properties":{"_source":"bath_and_north_east_somerset_council","address":"Weston Free Church (Moravian), High Street Weston, Bath, BA1 4DB, United Kingdom","title":"Love Weston Community Cafe","url":"https://livewell.bathnes.gov.uk/cost-living-crisis/warm-places-list/love-weston-community-cafe"},"type":"Feature"},
		{"geometry":{"coordinates":[-2.39351,51.39469],"type":"Point"},"properties":{"_source":"bath_and_north_east_somerset_council","address":"Weston Hub, Penn Hill Road,Weston, Bath, BA1 4EH, United Kingdom","title":"Weston Welcome Cafe and Food Club","url":"https://livewell.bathnes.gov.uk/cost-living-crisis/warm-places-list/weston-welcome-cafe-and-food-club"},"type":"Feature"},
		{"geometry":{"coordinates":[-2.32006,51.23356],"type":"Point"},"properties":{"_source":"frome_council","address":"Justice Lane, BA11 1BE","hours":{"_text":"FREQ=WEEKLY;BYDAY=FR,MO,TH,TU,WE\nDTSTART;TZID=Europe/London:20231016T0930\nDTEND;TZID=Europe/London:20231016T1700","opening":"Fr 09:30-17:00; Mo 09:30-17:00; Th 09:30-17:00; Tu 09:30-17:00; We 09:30-17:00"},"loc_pcd":true,"title":"Frome Library"},"type":"Feature"},
		{"geometry":{"coordinates":[-2.32006,51.23356],"type":"Point"},"properties":{"_source":"frome_council","address":"Cheese and Grain, BA11 1BE","hours":{"_text":"FREQ=WEEKLY;BYDAY=MO\nDTSTART;TZID=Europe/London:20231016T1000\nDTEND;TZID=Europe/London:20231016T1130","opening":"Mo 10:00-11:30"},"loc_pcd":true,"title":"Talking Café - Cheese & Grain"},"type":"Feature"},
		{"geometry":{"coordinates":[-2.32155,51.23200],"type":"Point"},"properties":{"_source":"frome_council","address":"Coffee #1, BA11 1BS","hours":{"_text":"FREQ=WEEKLY;BYDAY=TH\nDTSTART;TZID=Europe/London:20231019T1300\nDTEND;TZID=Europe/London:20231019T1400","opening":"Th 13:00-14:00"},"loc_pcd":true,"title":"Talking Café - Coffee #1"},"type":"Feature"},
		{"geometry":{"coordinates":[-2.32224,51.23043],"type":"Point"},"properties":{"_source":"frome_council","address":"7 Palmer Street, BA11 1DS","hours":{"_text":"FREQ=WEEKLY;WKST=SU;BYDAY=MO,TU,WE,TH,FR,SA\nDTSTART;TZID=Europe/London:20231016T1200\nDTEND;TZID=Europe/London:20231016T1500","opening":"Mo 12:00-15:00; Tu 12:00-15:00; We 12:00-15:00; Th 12:00-15:00; Fr 12:00-15:00; Sa 12:00-15:00"},"loc_pcd":true,"title":"The Good Heart - Palmer Street"},"type":"Feature"},
		{"geometry":{"coordinates":[-2.32224,51.23043],"type":"Point"},"properties":{"_source":"frome_council","address":"7 Palmer Street, BA11 1DS","hours":{"_text":"FREQ=WEEKLY;WKST=SU;BYDAY=TU,WE,TH,FR,SA\nDTSTART;TZID=Europe/London:20231017T1700\nDTEND;TZID=Europe/London:20231017T1900","opening":"Tu 17:00-19:00; We 17:00-19:00; Th 17:00-19:00; Fr 17:00-19:00; Sa 17:00-19:00"},"loc_pcd":true,"title":"The Good Heart - Palmer Street"},"type":"Feature"},
		{"geometry":{"coordinates":[-2.32639,51.23298],"type":"Point"},"properties":{"_source":"frome_council","address":"43 Selwood Rd, BA11 3BS","hours":{"_text":"FREQ=WEEKLY;WKST=SU;BYDAY=TU,WE,TH,FR\nDTSTART;TZID=Europe/London:20231017T1100\nDTEND;TZID=Europe/London:20231017T1330","opening":"Tu 11:00-13:30; We 11:00-13:30; Th 11:00-13:30; Fr 11:00-13:30"},"loc_pcd":true,"title":"The Bridge Café - Selwood Rd"},"type":"Feature"},
		{"geometry":{"coordinates":[-2.31760,51.21982],"type":"Point"},"properties":{"_source":"frome_council","address":"Key Centre, BA11 5AJ","hours":{"_text":"FREQ=WEEKLY;BYDAY=MO\nDTSTART;TZID=Europe/London:20231016T1630\nDTEND;TZID=Europe/London:20231016T1830","opening":"Mo 16:30-18:30"},"loc_pcd":true,"title":"Food at Five - Key Centre"},"type":"Feature"},
		{"geometry":{"coordinates":[-2.31395,51.23610],"type":"Point"},"properties":{"_source":"frome_council","address":"Cricket Club, BA11 2AH","hours":{"_text":"FREQ=WEEKLY;BYDAY=WE\nDTSTART;TZID=Europe/London:20231018T1630\nDTEND;TZID=Europe/London:20231018T1830","opening":"We 16:30-18:30"},"loc_pcd":true,"title":"Food at Five - Cricket Club"},"type":"Feature"},
		{"geometry":{"coordinates":[-2.32736,51.23349],"type":"Point"},"properties":{"_source":"frome_council","address":"Trinity Church, BA11 3DE","hours":{"_text":"FREQ=WEEKLY;BYDAY=TH\nDTSTART;TZID=Europe/London:20231019T1630\nDTEND;TZID=Europe/London:20231019T1830","opening":"Th 16:30-18:30"},"loc_pcd":true,"title":"Food at Five - Trinity Church"},"type":"Feature"},
		{"geometry":{"coordinates":[-2.32006,51.23356],"type":"Point"},"properties":{"_source":"frome_council","address":"Justice Lane, BA11 1BE","hours":{"_text":"FREQ=WEEKLY;BYDAY=SA\nDTSTART;TZID=Europe/London:20231021T0930\nDTEND;TZID=Europe/London:20231021T1600","opening":"Sa 09:30-16:00"},"loc_pcd":true,"title":"Frome Library"},"type":"Feature"},
		{"geometry":{"coordinates":[-2.25906,51.20129],"type":"Point"},"properties":{"_source":"_helpandkindness","address":"Gillingham Library, Chantry Fields, Gillingham SP8 4UA","contact":"Tel: 01747 822180; Email: gillingillinghamlibrary@dorsetcouncil.gov.uk","description":"Bridge Club for experienced players. Come and join this friendly group....","title":"Bridge Club","url":"https://www.helpandkindness.co.uk/service/5828/Bridge-Club"},"type":"Feature"},
		{"geometry":{"coordinates":[-2.32074,51.23245],"type":"Point"},"properties":{"_source":"spark_somerset","address":"Justice Lane, Frome, BA11 1BE","contact":"Email: frolib@somerset.gov.uk","hours":{"_text":"Mon-Fri 9:30am-5pm, Sat 9:30am-4pm","opening":"Mo-Fr 09:30-17:00; Sa 09:30-16:00"},"title":"Frome Library"},"type":"Feature"},
		{"geometry":{"coordinates":[-2.32224,51.23043],"type":"Point"},"properties":{"_source":"spark_somerset","address":"7 Palmer Street, Frome, BA11 1DS","contact":"Telephone: 0708139244; Email: info@thegoodheart.com","hours":{"_text":"From Dec 27th until Jan 3rd - 3-5pm ( free drinks and cake for sale 3rd Jan onwards back to usual hours ( Tues -Sun 12 -7pm) Hot food and drinks 9th Jan pilot for Mums and tots - 9am -11am Mon to Friday","opening":"Mo-Fr 09:00-11:00"},"loc_pcd":true,"title":"The Good Heart"},"type":"Feature"},
		{"geometry":{"coordinates":[-2.18005,51.20530],"type":"Point"},"properties":{"_source":"wiltshire_council","description":"Reading group for people with memory loss and their carers","title":"Library Shared Reading Group - Warminster","url":"https://directory.hertfordshire.gov.uk/Services/2314"},"type":"Feature"},
		{"geometry":{"coordinates":[-2.18385,51.26175],"type":"Point"},"properties":{"_source":"wiltshire_council","description":"Reading group for people with memory loss and their carers","title":"Library Shared Reading Group - Westbury","url":"https://directory.hertfordshire.gov.uk/Services/2315"},"type":"Feature"},
		{"geometry":{"coordinates":[-2.21065,51.31721],"type":"Point"},"properties":{"_source":"wiltshire_council","description":"Reading group for people with memory loss and their carers","title":"Library Shared Reading Group - Trowbridge","url":"https://directory.hertfordshire.gov.uk/Services/4"},"type":"Feature"},
		{"geometry":{"coordinates":[-2.13904,51.37088],"type":"Point"},"properties":{"_source":"wiltshire_council","description":"Weekly social group for anyone feeling lonely or isolated","title":"The Chatty Cafe - Melksham","url":"https://directory.hertfordshire.gov.uk/Services/2497"},"type":"Feature"},
		{"geometry":{"coordinates":[-2.18337,51.26173],"type":"Point"},"properties":{"_source":"wiltshire_council","description":"Crochet, reading aloud, tech support and more","title":"Westbury Library regular groups","url":"https://directory.hertfordshire.gov.uk/Services/2267"},"type":"Feature"},
		{"geometry":{"coordinates":[-2.24987,51.34732],"type":"Point"},"properties":{"_source":"wiltshire_council","description":"Weekly social group for anyone feeling lonely or isolated","title":"The Chatty Cafe - Bradford on Avon","url":"https://directory.hertfordshire.gov.uk/Services/2448"},"type":"Feature"},
		{"geometry":{"coordinates":[-2.25165,51.34788],"type":"Point"},"properties":{"_source":"wiltshire_council","title":"Community Hub - Bradford on Avon","url":"https://directory.hertfordshire.gov.uk/Services/162"},"type":"Feature"},
		{"geometry":{"coordinates":[-2.22438,51.24659],"type":"Point"},"properties":{"_source":"wiltshire_council","title":"Dilton Marsh Coffee Morning","url":"https://directory.hertfordshire.gov.uk/Services/2122"},"type":"Feature"},
		{"geometry":{"coordinates":[-2.25383,51.34864],"type":"Point"},"properties":{"_source":"wiltshire_council","title":"Coffee morning and free soup lunch - Bradford on Avon","url":"https://directory.hertfordshire.gov.uk/Services/2425"},"type":"Feature"}
	]
}
