{
	"type": "FeatureCollection",
	"features": [
		{"geometry":{"coordinates":[-2.39011,51.39599],"type":"Point"},"properties":{"_source":"warm_welcome","address":"All Saints Church, Bath, Somerset BA1 4BU","description":"A big warm open space for afternoon activities for young people","hours":{"_text":"Monday: 14:30 - 17:00","opening":"Mo 14:30-17:00"},"title":"All Saints Church, Weston, Bath"},"type":"Feature"},
		{"geometry":{"coordinates":[-2.25035,51.34633],"type":"Point"},"properties":{"_source":"warm_welcome","address":"Wiltshire County Council, Bradford-on-Avon, Wiltshire BA15 1BY","description":"Spaces to sit and keep warm. • Free access to Wi-Fi and free computer access with a Library membership • Places to charge your devices • Signposting to advice and support • Check out regular groups, activities and events To find out more about what we offer, visit www.wiltshire.gov.uk/libraries. Library membership is free - join online or visit your local library to sign up.","hours":{"_text":"Monday: 10:00 - 19:00, Wednesday: 09:30 - 17:00, Thursday: 09:30 - 19:00, Friday: 09:30 - 17:00, Saturday: 09:30 - 16:00","opening":"Mo 10:00-19:00; We 09:30-17:00; Th 09:30-19:00; Fr 09:30-17:00; Sa 09:30-16:00"},"title":"Bradford on Avon Library"},"type":"Feature"},
		{"geometry":{"coordinates":[-2.32007,51.23356],"type":"Point"},"properties":{"_source":"warm_welcome","address":"Frome Library, Somerset BA11 1BE","description":"Library in the centre of Frome with wifi, public computers, activities and groups. Study area, books, magazines and newspapers, council help point, CAB phone line and comfy chairs. Everyone is welcome. Memebership is free and items to borrow include books, ebooks, audio books, BP monitors, iPads and smart watches.","hours":{"_text":"Monday: 09:30 - 17:00, Tuesday: 09:30 - 17:00, Wednesday: 09:30 - 17:00, Thursday: 09:30 - 17:00, Friday: 09:30 - 17:00, Saturday: 09:30 - 16:00, Sunday: 0:00","opening":"Mo 09:30-17:00; Tu 09:30-17:00; We 09:30-17:00; Th 09:30-17:00; Fr 09:30-17:00; Sa 09:30-16:00"},"title":"Frome Library"},"type":"Feature"},
		{"geometry":{"coordinates":[-2.39713,51.38079],"type":"Point"},"properties":{"_source":"warm_welcome","address":"Lighthouse Centre, Avon BA2 1DQ","description":"A delicious 3-course meal every Thursday at 6.30pm. Open to all and free (people can donate if they wish).","hours":{"_text":"Thursday: 18:15 - 20:00","opening":"Th 18:15-20:00"},"title":"Lighthouse Centre"},"type":"Feature"},
		{"geometry":{"coordinates":[-2.37945,51.37749],"type":"Point"},"properties":{"_source":"warm_welcome","address":"9, Bath, Somerset BA2 3PL BA2 3PL","description":"Working office in high street location with space to sit, enjoy a hot drink and warm up","hours":{"_text":"Monday: 09:00 - 18:00, Tuesday: 09:00 - 18:00, Wednesday: 09:00 - 18:00, Thursday: 09:00 - 18:00, Friday: 09:00 - 18:00","opening":"Mo 09:00-18:00; Tu 09:00-18:00; We 09:00-18:00; Th 09:00-18:00; Fr 09:00-18:00"},"title":"Madison Oakley"},"type":"Feature"},
		{"geometry":{"coordinates":[-2.11821,51.36072],"type":"Point"},"properties":{"_source":"warm_welcome","address":"Melksham Community Campus, Melksham, Wiltshire SN12 6ES","description":"Spaces to sit and keep warm. • Free access to Wi-Fi and free computer access with a Library membership • Places to charge your devices • Signposting to advice and support • Check out regular groups, activities and events To find out more about what we offer, visit www.wiltshire.gov.uk/libraries. Library membership is free - join online or visit your local library to sign up.","hours":{"_text":"Monday: 06:30 - 22:00, Tuesday: 06:30 - 22:00, Wednesday: 06:30 - 22:00, Thursday: 06:30 - 22:00, Friday: 06:30 - 21:00, Saturday: 08:00 - 18:00, Sunday: 08:00 - 18:00","opening":"Mo 06:30-22:00; Tu 06:30-22:00; We 06:30-22:00; Th 06:30-22:00; Fr 06:30-21:00; Sa 08:00-18:00; Su 08:00-18:00"},"title":"Melksham Library"},"type":"Feature"},
		{"geometry":{"coordinates":[-2.18354,51.32376],"type":"Point"},"properties":{"_source":"warm_welcome","address":"Paxcroft Mead Community Centre, Trowbridge, Wiltshire BA14 7GW","description":"SPACE OPENING ON 2nd October 2024** Warm hall where we will provide free soup, sandwiches and a hot drink. Wednesday 12 - 2pm (beginning October 2nd 2024)","hours":{"_text":"Wednesday: 12:00 - 14:00","opening":"We 12:00-14:00"},"title":"Paxcroft Mead Community Centre"},"type":"Feature"},
		{"geometry":{"coordinates":[-2.39011,51.39599],"type":"Point"},"properties":{"_source":"warm_welcome","address":"All Saints Church, Church Road, Weston, Bath, Bath, Somerset BA1 4BU","description":"A warm place for small children to play together, with refreshments for all","hours":{"_text":"Wednesday: 09:30 - 11:30","opening":"We 09:30-11:30"},"title":"Small Saints"},"type":"Feature"},
		{"geometry":{"coordinates":[-2.39891,51.37106],"type":"Point"},"properties":{"_source":"warm_welcome","address":"Southdown Methodist Church, Bath, Somerset BA2 1NJ","description":"Wednesdays 3.30pm - 5pm Space open to families with Primary school age children. Games and crafts available and free family friendly meal. Thursdays 10am - 2pm space open to all with hot drinks and snacks available plus optional 2 course lunch (£5 per person)","hours":{"_text":"Wednesday: 03:30 - 05:00, Thursday: 10:00 - 02:00","opening":"We 03:30-05:00; Th 10:00-14:00"},"title":"Southdown Methodist Church Centre"},"type":"Feature"},
		{"geometry":{"coordinates":[-2.20650,51.32245],"type":"Point"},"properties":{"_source":"warm_welcome","address":"St. James Church, Trowbridge, Wiltshire BA14 8RU","description":"The space is open to all. A warm welcome, hot cuppa and friendly is chat waiting for you!","hours":{"_text":"Monday: 10:00 - 12:00, Wednesday: 10:00 - 12:00, Saturday: 10:00 - 12:00","opening":"Mo 10:00-12:00; We 10:00-12:00; Sa 10:00-12:00"},"title":"St James' Church, Trowbridge"},"type":"Feature"},
		{"geometry":{"coordinates":[-2.35828,51.38115],"type":"Point"},"properties":{"_source":"warm_welcome","address":"Bath Abbey, Somerset BA1 1LT","description":"SPACE OPENING ON 7th November 2023** Hot drinks, soup and a roll plus friendly chat in the Vaults learning room.","hours":{"_text":"Tuesday: 12:30 - 14:00","opening":"Tu 12:30-14:00"},"title":"The Cosy Place"},"type":"Feature"},
		{"geometry":{"coordinates":[-2.32225,51.23043],"type":"Point"},"properties":{"_source":"warm_welcome","address":"The Good Heart, Somerset BA11 1DS","description":"We are a cafe and community space that offers free hot drinks all year round and pay it forward meals. We are open every day except Sunday. We are mainly run by volunteers and offer free drop in groups, both weekly and monthly.","hours":{"_text":"Monday: 11:30 - 15:00, Tuesday: 11:30 - 15:00 / 17:00 - 19:00, Wednesday: 11:30 - 15:00 / 17:00 - 19:00, Thursday: 11:30 - 15:00 / 17:00 - 19:00, Friday: 11:30 - 15:00 / 15:00 - 19:00, Saturday: 12:00 - 15:00 / 17:00 - 19:00","opening":"Mo 11:30-15:00; Tu 11:30-15:00,17:00-19:00; We 11:30-15:00,17:00-19:00; Th 11:30-15:00,17:00-19:00; Fr 11:30-15:00,15:00-19:00; Sa 12:00-15:00,17:00-19:00"},"title":"The Good Heart Cafe"},"type":"Feature"},
		{"geometry":{"coordinates":[-2.18017,51.20457],"type":"Point"},"properties":{"_source":"warm_welcome","address":"5 Wilson & Kennard Yard, Warminster, Wiltshire BA12 9AN BA12 9AN","hours":{"_text":"Tuesday: 10:00 - 02:00, Wednesday: 10:00 - 02:00, Thursday: 10:00 - 02:00","opening":"Tu 10:00-14:00; We 10:00-14:00; Th 10:00-14:00"},"title":"The WAG House"},"type":"Feature"},
		{"geometry":{"coordinates":[-2.39012,51.39560],"type":"Point"},"properties":{"_source":"warm_welcome","address":"All Saints Church Centre, Bath, Somerset BA1 4BX","description":"A warm lunch for older people, together with a talk. A time to keep warm and make new friends.","hours":{"_text":"Tuesday: 11:00 - 14:00 Monthly","opening":"Tu 11:00-14:00"},"title":"Third Tuesday Lunch"},"type":"Feature"},
		{"geometry":{"coordinates":[-2.21048,51.31706],"type":"Point"},"properties":{"_source":"warm_welcome","address":"Wiltshire Council, Trowbridge, Wiltshire BA14 4YZ","description":"Spaces to sit and keep warm. • Free access to Wi-Fi and free computer access with a Library membership • Places to charge your devices • Signposting to advice and support • Check out regular groups, activities and events To find out more about what we offer, visit www.wiltshire.gov.uk/libraries. Library membership is free - join online or visit your local library to sign up.","hours":{"_text":"Monday: 09:00 - 19:00, Tuesday: 09:00 - 17:00, Wednesday: 09:00 - 17:00, Thursday: 09:00 - 19:00, Friday: 09:00 - 17:00, Saturday: 09:00 - 17:00","opening":"Mo 09:00-19:00; Tu 09:00-17:00; We 09:00-17:00; Th 09:00-19:00; Fr 09:00-17:00; Sa 09:00-17:00"},"title":"Trowbridge Library"},"type":"Feature"},
		{"geometry":{"coordinates":[-2.18034,51.20462],"type":"Point"},"properties":{"_source":"warm_welcome","address":"Warminster Action Group, Warminster, Wiltshire BA12 9AN","description":"Open to all, Tuesday, Wednesday, Thursday from 10am. Provides warm drinks and snacks. Learn new skills or just sit and chat. Run completely by volunteers","hours":{"_text":"Tuesday: 10:00 - 14:00, Wednesday: 10:00 - 15:00, Thursday: 10:00 - 14:00","opening":"Tu 10:00-14:00; We 10:00-15:00; Th 10:00-14:00"},"title":"WAG house"},"type":"Feature"},
		{"geometry":{"coordinates":[-2.37003,51.36727],"type":"Point"},"properties":{"_source":"bath_and_north_east_somerset_council","address":"Bear Flat Area, Bath, BA2 2AT","loc_pcd":true,"title":"Wellbeing House Bath","url":"https://livewell.bathnes.gov.uk/cost-living-crisis/warm-places-list/wellbeing-house-bath"},"type":"Feature"},
		{"geometry":{"coordinates":[-2.39594,51.38006],"type":"Point"},"properties":{"_source":"bath_and_north_east_somerset_council","address":"86 High Street, Twerton, Bath, BA2 1DE","loc_pcd":true,"title":"Timebank Plus","url":"https://livewell.bathnes.gov.uk/cost-living-crisis/warm-places-list/timebank-plus"},"type":"Feature"},
		{"geometry":{"coordinates":[-2.42861,51.31501],"type":"Point"},"properties":{"_source":"bath_and_north_east_somerset_council","address":"Bath Road, Peasedown St John, Bath, BA2 8DH","loc_pcd":true,"title":"The Hive Community Centre","url":"https://livewell.bathnes.gov.uk/cost-living-crisis/warm-places-list/hive-community-centre-0"},"type":"Feature"},
		{"geometry":{"coordinates":[-2.37504,51.35963],"type":"Point"},"properties":{"_source":"bath_and_north_east_somerset_council","address":"Odd Down Sports Ground, Chelwood Drive, Bath, BA2 2PR","loc_pcd":true,"title":"Odd Down Sports Ground","url":"https://livewell.bathnes.gov.uk/cost-living-crisis/warm-places-list/odd-down-sports-ground-1"},"type":"Feature"},
		{"geometry":{"coordinates":[-2.42861,51.31501],"type":"Point"},"properties":{"_source":"bath_and_north_east_somerset_council","address":"The Hive, Bath Road, Bath, BA2 8DH","loc_pcd":true,"title":"Peasedown Community Library","url":"https://livewell.bathnes.gov.uk/cost-living-crisis/warm-places-list/peasedown-community-library"},"type":"Feature"},
		{"geometry":{"coordinates":[-2.36306,51.35970],"type":"Point"},"properties":{"_source":"bath_and_north_east_somerset_council","address":"Hawthorn Grove, Foxhill, Bath, BA2 5QA","loc_pcd":true,"title":"St Andrew's Community Church","url":"https://livewell.bathnes.gov.uk/cost-living-crisis/warm-places-list/st-andrews-community-church-0"},"type":"Feature"},
		{"geometry":{"coordinates":[-2.34795,51.37433],"type":"Point"},"properties":{"_source":"bath_and_north_east_somerset_council","address":"St Matthew’s Churches, Church Street, Bath, BA2 6AZ","loc_pcd":true,"title":"Roots and Shoots at St Matthews Church","url":"https://livewell.bathnes.gov.uk/cost-living-crisis/warm-places-list/roots-and-shoots-st-matthews-church"},"type":"Feature"},
		{"geometry":{"coordinates":[-2.39012,51.39559],"type":"Point"},"properties":{"_source":"bath_and_north_east_somerset_council","address":"All Saints Church Centre, High Street, Weston, Bath, BA1 4BX","loc_pcd":true,"title":"All Saints Centre Weston","url":"https://livewell.bathnes.gov.uk/cost-living-crisis/warm-places-list/all-saints-centre-weston"},"type":"Feature"},
		{"geometry":{"coordinates":[-2.36694,51.38272],"type":"Point"},"properties":{"_source":"bath_and_north_east_somerset_council","address":"Percy Community Centre, New King Street, Bath, BA1 2BN","loc_pcd":true,"title":"Percy Community Centre - Free Warm Space","url":"https://livewell.bathnes.gov.uk/cost-living-crisis/warm-places-list/percy-community-centre-free-warm-space"},"type":"Feature"},
		{"geometry":{"coordinates":[-2.35385,51.36084],"type":"Point"},"properties":{"_source":"bath_and_north_east_somerset_council","address":"Mulberry Way, Mulberry Park, Combe Down, Bath, BA2 5BU","loc_pcd":true,"title":"Mulberry Park Hub Warm Space","url":"https://livewell.bathnes.gov.uk/cost-living-crisis/warm-places-list/mulberry-park-hub-warm-space"},"type":"Feature"},
		{"geometry":{"coordinates":[-2.39426,51.36953],"type":"Point"},"properties":{"_source":"bath_and_north_east_somerset_council","address":"Mount View, Southdown, Bath, BA2 1JX","loc_pcd":true,"title":"Barney’s Community Cafe at St Barnabas Church","url":"https://livewell.bathnes.gov.uk/cost-living-crisis/warm-places-list/barneys-community-cafe-st-barnabas-church"},"type":"Feature"},
		{"geometry":{"coordinates":[-2.36184,51.38111],"type":"Point"},"properties":{"_source":"bath_and_north_east_somerset_council","address":"1-2 St Michael's Road, Bath, BA1 1SG","loc_pcd":true,"title":"Age UK Bath & North East Somerset: Snack & Chat","url":"https://livewell.bathnes.gov.uk/cost-living-crisis/warm-places-list/age-uk-bath-north-east-somerset-snack-chat"},"type":"Feature"},
		{"geometry":{"coordinates":[-2.36555,51.38129],"type":"Point"},"properties":{"_source":"bath_and_north_east_somerset_council","address":"James Street West, Bath, BA1 1XE","loc_pcd":true,"title":"The Sally Ann Cafe","url":"https://livewell.bathnes.gov.uk/cost-living-crisis/warm-places-list/sally-ann-cafe"},"type":"Feature"},
		{"geometry":{"coordinates":[-2.35725,51.37914],"type":"Point"},"properties":{"_source":"bath_and_north_east_somerset_council","address":"3 to 4 Manvers Street, Bath, BA1 1JQ","loc_pcd":true,"title":"Bath Housing, Welfare and Advice Service","url":"https://livewell.bathnes.gov.uk/cost-living-crisis/warm-places-list/bath-housing-welfare-and-advice-service"},"type":"Feature"},
		{"geometry":{"coordinates":[-2.37944,51.37748],"type":"Point"},"properties":{"_source":"bath_and_north_east_somerset_council","address":"9 Moorland Road, Oldfield Park, Bath, BA2 3PL","loc_pcd":true,"title":"Madison Oakley","url":"https://livewell.bathnes.gov.uk/cost-living-crisis/warm-places-list/madison-oakley"},"type":"Feature"},
		{"geometry":{"coordinates":[-2.39757,51.37580],"type":"Point"},"properties":{"_source":"bath_and_north_east_somerset_council","address":"Bath City Farm, Kelston View, Bath, BA2 1NW","loc_pcd":true,"title":"Roots to Work Cafe at Bath City Farm","url":"https://livewell.bathnes.gov.uk/cost-living-crisis/warm-places-list/roots-work-cafe-bath-city-farm"},"type":"Feature"},
		{"geometry":{"coordinates":[-2.35827,51.38114],"type":"Point"},"properties":{"_source":"bath_and_north_east_somerset_council","address":"Bath Abbey, Bath, BA1 1LT","loc_pcd":true,"title":"Bath Abbey's Cosy Place","url":"https://livewell.bathnes.gov.uk/cost-living-crisis/warm-places-list/bath-abbeys-cosy-place"},"type":"Feature"},
		{"geometry":{"coordinates":[-2.35898,51.38352],"type":"Point"},"properties":{"_source":"bath_and_north_east_somerset_council","address":"Bath Central Library, 19 - 23 The Podium, Bath, BA1 5AN","loc_pcd":true,"title":"Bath Central Library","url":"https://livewell.bathnes.gov.uk/cost-living-crisis/warm-places-list/bath-central-library"},"type":"Feature"},
		{"geometry":{"coordinates":[-2.37110,51.35586],"type":"Point"},"properties":{"_source":"bath_and_north_east_somerset_council","address":"3 Cafe Kitchen, 180 Frome Road, Bath, BA2 5RF","loc_pcd":true,"title":"3 Café Kitchen","url":"https://livewell.bathnes.gov.uk/cost-living-crisis/warm-places-list/3-cafe-kitchen"},"type":"Feature"},
		{"geometry":{"coordinates":[-2.39498,51.39724],"type":"Point"},"properties":{"_source":"bath_and_north_east_somerset_council","address":"Weston Free Church (Moravian), High Street Weston, Bath, BA1 4DB","loc_pcd":true,"title":"Love Weston Community Cafe","url":"https://livewell.bathnes.gov.uk/cost-living-crisis/warm-places-list/love-weston-community-cafe"},"type":"Feature"},
		{"geometry":{"coordinates":[-2.39351,51.39481],"type":"Point"},"properties":{"_source":"bath_and_north_east_somerset_council","address":"Weston Hub, Penn Hill Road,Weston, Bath, BA1 4EH","loc_pcd":true,"title":"Weston Welcome Cafe and Food Club","url":"https://livewell.bathnes.gov.uk/cost-living-crisis/warm-places-list/weston-welcome-cafe-and-food-club"},"type":"Feature"},
		{"geometry":{"coordinates":[-2.39891,51.37105],"type":"Point"},"properties":{"_source":"bath_and_north_east_somerset_council","address":"Southdown Methodist Church Centre, The Hollow, Bath, BA2 1NJ","loc_pcd":true,"title":"Southdown Methodist Church Centre","url":"https://livewell.bathnes.gov.uk/cost-living-crisis/warm-places-list/southdown-methodist-church-centre"},"type":"Feature"},
		{"geometry":{"coordinates":[-2.25906,51.20129],"type":"Point"},"properties":{"_source":"_helpandkindness","address":"Gillingham Library, Chantry Fields, Gillingham SP8 4UA","contact":"Tel: 01747 822180","description":"Bridge Club for experienced players. Come and join this friendly group....","title":"Bridge Club","url":"https://www.helpandkindness.co.uk/service/5828/Bridge-Club"},"type":"Feature"},
		{"geometry":{"coordinates":[-2.31760,51.21981],"type":"Point"},"properties":{"_source":"spark_somerset","address":"Key Centre, BA11 5AJ","description":"Facilities: Accessible venue, Baby changing facilities, Car parking, Disabled toilets, Hot meals, Refreshments, Toilets; Other support: Volunteers can signpost to other Fair Frome projects and other organisation's services","hours":{"_text":"Mondays 4.30-6.30pm","opening":"Mo 16:30-18:30"},"loc_pcd":true,"title":"Fair Frome Food at 5 @ Key Centre","url":"https://www.fairfrome.org"},"type":"Feature"},
		{"geometry":{"coordinates":[-2.31394,51.23610],"type":"Point"},"properties":{"_source":"spark_somerset","address":"Frome Cricket Club, BA11 2AH","description":"Facilities: Accessible venue, Baby changing facilities, Car parking, Disabled toilets, Hot meals, Refreshments, Toilets; Other support: Volunteers can signpost to other Fair Frome projects and other organisation's services","hours":{"_text":"Wednesdays 4.30-6.30pm","opening":"We 16:30-18:30"},"loc_pcd":true,"title":"Fair Frome Food at 5 @ Frome Cricket Club","url":"https://www.fairfrome.org"},"type":"Feature"},
		{"geometry":{"coordinates":[-2.32736,51.23349],"type":"Point"},"properties":{"_source":"spark_somerset","address":"Trinity Church Hall, BA11 3DE","contact":"info@fairfrome.org","description":"Facilities: Accessible venue, Baby changing facilities, Car parking, Disabled toilets, Hot meals, Refreshments, Toilets; Other support: Volunteers can signpost to other Fair Frome projects and other organisation's services","hours":{"_text":"Thursdays 4.30-6.30pm","opening":"Th 16:30-18:30"},"loc_pcd":true,"title":"Fair Frome Food at 5 @ Holy Trinity Church","url":"https://www.fairfrome.org"},"type":"Feature"},
		{"geometry":{"coordinates":[-2.32224,51.23043],"type":"Point"},"properties":{"_source":"spark_somerset","address":"7 Palmer Street, Frome, BA11 1DS, BA11 1DS","contact":"welcome@thegoodheart.uk","description":"Facilities: Accessible venue, Baby changing facilities, Play equipment, Refreshments, Toilets, Wi-Fi; Other support: Yes we run a range of groups and have notice boards https://www.thegoodheart.uk/wellbeing-spacesThe Good Heart is also a low cost place for venue hire","hours":{"_text":"Monday 11:30-2:30\nTuesday 11:30-2:30\n\nWe'd like to open more days if we can","opening":"Mo 11:30-14:30; Tu 11:30-14:30"},"loc_pcd":true,"title":"The Good Heart","url":"https://www.thegoodheart.uk/"},"type":"Feature"}
	]
}
