{
	"type": "FeatureCollection",
	"features": [
		{"geometry":{"coordinates":[-2.32007,51.23356],"type":"Point"},"properties":{"_source":"warm_welcome","address":"Frome Library, Somerset BA11 1BE","description":"Library in the centre of Frome with wifi, public computers, activities and groups. Study area, books, magazines and newspapers, council help point, CAB phone line and comfy chairs. Everyone is welcome. Memebership is free and items to borrow include books, ebooks, audio books, BP monitors, iPads and smart watches.","hours":{"_text":"Monday: 09:30 - 17:00, Tuesday: 09:30 - 17:00, Wednesday: 09:30 - 17:00, Thursday: 09:30 - 17:00, Friday: 09:30 - 17:00, Saturday: 09:30 - 16:00, Sunday: 0:00","opening":"Mo 09:30-17:00; Tu 09:30-17:00; We 09:30-17:00; Th 09:30-17:00; Fr 09:30-17:00; Sa 09:30-16:00"},"title":"Frome Library"},"type":"Feature"},
		{"geometry":{"coordinates":[-2.37945,51.37749],"type":"Point"},"properties":{"_source":"warm_welcome","address":"9, Bath, Somerset BA2 3PL BA2 3PL","description":"Working office in high street location with space to sit, enjoy a hot drink and warm up","hours":{"_text":"Monday: 09:00 - 18:00, Tuesday: 09:00 - 18:00, Wednesday: 09:00 - 18:00, Thursday: 09:00 - 18:00, Friday: 09:00 - 18:00","opening":"Mo 09:00-18:00; Tu 09:00-18:00; We 09:00-18:00; Th 09:00-18:00; Fr 09:00-18:00"},"title":"Madison Oakley"},"type":"Feature"},
		{"geometry":{"coordinates":[-2.39891,51.37106],"type":"Point"},"properties":{"_source":"warm_welcome","address":"Southdown Methodist Church, Bath, Somerset BA2 1NJ","description":"Wednesdays 3.30pm - 5pm Space open to families with Primary school age children. Games and crafts available and free family friendly meal. Thursdays 10am - 2pm space open to all with hot drinks and snacks available plus optional 2 course lunch (£5 per person)","hours":{"_text":"Wednesday: 03:30 - 05:00, Thursday: 10:00 - 02:00","opening":"We 03:30-05:00; Th 10:00-02:00"},"title":"Southdown Methodist Church Centre"},"type":"Feature"},
		{"geometry":{"coordinates":[-2.35828,51.38115],"type":"Point"},"properties":{"_source":"warm_welcome","address":"Bath Abbey, Somerset BA1 1LT","description":"SPACE OPENING ON 7th November 2023** Hot drinks, soup and a roll plus friendly chat in the Vaults learning room.","hours":{"_text":"Tuesday: 12:30 - 14:00","opening":"Tu 12:30-14:00"},"title":"The Cosy Place"},"type":"Feature"},
		{"geometry":{"coordinates":[-2.18017,51.20457],"type":"Point"},"properties":{"_source":"warm_welcome","address":"5 Wilson & Kennard Yard , Warminster, Wiltshire BA12 9AN BA12 9AN","hours":{"_text":"Tuesday: 10:00 - 02:00, Wednesday: 10:00 - 02:00, Thursday: 10:00 - 02:00","opening":"Tu 10:00-02:00; We 10:00-02:00; Th 10:00-02:00"},"title":"The WAG House"},"type":"Feature"},
		{"geometry":{"coordinates":[-2.39351,51.39481],"type":"Point"},"properties":{"_source":"warm_welcome","address":"Weston Hub, Bath, Avon BA1 4EH","description":"Free 3-course lunch, and join the Food Club to take food home Open on Mondays from 11am to 2pm","hours":{"_text":"Monday: 11:00 - 14:00","opening":"Mo 11:00-14:00"},"title":"Weston Welcome Cafe and Food Club"},"type":"Feature"},
		{"geometry":{"coordinates":[-2.20456,51.29654],"type":"Point"},"properties":{"_source":"warm_spaces","address":"1a Westbury Road, Trowbridge, England, BA14 0TN, United Kingdom","description":"Free Food/Drink, Device Charging, Advice, People to chat to, Wheelchair Accessible, Toilets, Accessible Toilet, Parking, Child Friendly, Fill hot water bottles and flask","hours":{"_text":"Mondays 10am-4pm","opening":"Mo 10:00-16:00"},"title":"North Bradley Baptist Church","url":"Www.nbbc.org.uk"},"type":"Feature"},
		{"geometry":{"coordinates":[-2.17959,51.20596],"type":"Point"},"properties":{"_source":"warm_spaces","address":"Three Horseshoes Walk, Warminster, England, BA12 9BT, United Kingdom","description":"Free Wi-Fi, Device Charging, Space to work, Wheelchair Accessible, Child Friendly","hours":{"_text":"Mondays 10am-7pm, Tuesdays 9.30am-5pm, Wednesdays 9.30am-12.30pm, Thursdays 9.30am-7pm, Fridays 9.30am-5pm, Saturdays 9.30am-4pm","opening":"Mo 10:00-19:00; Tu 09:30-17:00; We 09:30-12:30; Th 09:30-19:00; Fr 09:30-17:00; Sa 09:30-16:00"},"title":"Warminster Library and Museum","url":"https://wiltshire.gov.uk"},"type":"Feature"},
		{"geometry":{"coordinates":[-2.25035,51.34631],"type":"Point"},"properties":{"_source":"warm_spaces","address":"Bridge Street, Bradford-on-Avon, England, BA15 1BY, United Kingdom","description":"Free Wi-Fi, Device Charging, Advice, People to chat to, Space to work, Wheelchair Accessible, Accessible Toilet, Parking, Child Friendly, Computer Access","hours":{"_text":"Mon 10am-7pm, Tuesday- Closed, Wed 9.30am-5pm, Thursday 9.30am-7pm, Friday 9.30am-5pm, Saturday 9.30am-7pm","opening":"Mo 10:00-19:00; We 09:30-17:00; Th 09:30-19:00; Fr 09:30-17:00; Sa 09:30-19:00"},"title":"Bradford on Avon Library","url":"https://libraries.wiltshire.gov.uk"},"type":"Feature"},
		{"geometry":{"coordinates":[-2.18355,51.26148],"type":"Point"},"properties":{"_source":"warm_spaces","address":"Edward Street, Westbury, England, BA13 3BD, United Kingdom","description":"Free Wi-Fi, Device Charging, People to chat to, Space to work, Wheelchair Accessible, Toilets, Child Friendly, Computer Access","hours":{"_text":"Monday 2pm-7pm, Tuesday 9:30am-5pm, Thursday 9:30am-7pm, Friday 9:30am-5pm, Saturday 9:30am-1pm","opening":"Mo 14:00-19:00; Tu 09:30-17:00; Th 09:30-19:00; Fr 09:30-17:00; Sa 09:30-13:00"},"title":"Westbury Library (Wiltshire)","url":"https://www.wiltshire.gov.uk/libraries"},"type":"Feature"},
		{"geometry":{"coordinates":[-2.20985,51.31648],"type":"Point"},"properties":{"_source":"warm_spaces","address":"484 Bythesea Road, Trowbridge, England, BA14 8BS, United Kingdom","description":"Free Wi-Fi, Device Charging, People to chat to, Space to work, Wheelchair Accessible, Toilets, Accessible Toilet, Parking, Child Friendly, Computer Access, Shower Facilities","hours":{"_text":"Monday to Saturday 9am-5pm, late night till 7pm on Monday and Thursday","opening":"Mo-Sa 09:00-17:00"},"title":"Trowbridge Library","url":"https://www.wiltshire.gov.uk/libraries"},"type":"Feature"},
		{"geometry":{"coordinates":[-2.37916,51.37734],"type":"Point"},"properties":{"_source":"warm_spaces","address":"9 Moorland Road, Bath, England, BA2 3PL, United Kingdom","description":"Free Wi-Fi, Device Charging, People to chat to","hours":{"_text":"Mon-Fri 9am-6pm","opening":"Mo-Fr 09:00-18:00"},"title":"Madison Oakley","url":"https://www.madisonoakley.co.uk"},"type":"Feature"},
		{"geometry":{"coordinates":[-2.19630,51.33977],"type":"Point"},"properties":{"_source":"warm_spaces","address":"Staverton Club, Marsh Road, Trowbridge, England, BA14, United Kingdom","description":"Free Food/Drink, Free Wi-Fi, People to chat to, Space to work, Food/Drink for sale, Toilets, Parking, Child Friendly","hours":{"_text":"Alternate Fridays 10am-12pm","opening":"Fr 10:00-12:00"},"title":"Cornerstone Coffee and Cake","url":"https://cornerstonefellowship-trowbridge.co.uk"},"type":"Feature"},
		{"geometry":{"coordinates":[-2.39805,51.38087],"type":"Point"},"properties":{"_source":"warm_spaces","address":"The Lighthouse Centre, Watery Lane, Bath, England, BA2, United Kingdom","description":"Free Food/Drink, Free Wi-Fi, People to chat to, Wheelchair Accessible, Toilets, Accessible Toilet, Child Friendly","hours":{"_text":"Wednesdays 4pm-7pm (starting 23 November 2022)","opening":"We 16:00-19:00"},"title":"Twerton Warm Space","url":"https://www.stmichaelstwerton.com"},"type":"Feature"},
		{"geometry":{"coordinates":[-2.20767,51.32146],"type":"Point"},"properties":{"_source":"warm_spaces","address":"Church Street, Trowbridge, England, BA14 8RU, United Kingdom","description":"Free Food/Drink, Free Wi-Fi, Device Charging, People to chat to, Space to work, Food/Drink for sale, Wheelchair Accessible, Toilets","hours":{"_text":"Monday, Wednesday, Saturday 10am-12noon","opening":"Mo 10:00-12:00; We 10:00-12:00; Sa 10:00-12:00"},"title":"St James Church Trowbridge","url":"https://www.stjamestrowbridge.co.uk"},"type":"Feature"},
		{"geometry":{"coordinates":[-2.20827,51.31992],"type":"Point"},"properties":{"_source":"warm_spaces","address":"Court Hall, Castle Street, Trowbridge, England, BA14 8AR, United Kingdom","description":"Free Food/Drink, Free Wi-Fi, Device Charging, Space to work","hours":{"_text":"Monday-Friday, 9am-5:30pm","opening":"Mo-Fr 09:00-17:30"},"title":"ElevateOM","url":"https://www.elevateom.com"},"type":"Feature"},
		{"geometry":{"coordinates":[-2.13041,51.37172],"type":"Point"},"properties":{"_source":"warm_spaces","address":"Queensway Chapel, Pembroke Road, Melksham, England, SN12 7NB, United Kingdom","description":"Free Wi-Fi, Device Charging, People to chat to, Space to work, Food/Drink for sale. A hot meal is available at a low cost","hours":{"_text":"Tuesdays, 9:30am-2pm","opening":"Tu 09:30-14:00"},"title":"Queensway Chapel - Open Lunch","url":"https://www.queenswaychapel.co.uk"},"type":"Feature"},
		{"geometry":{"coordinates":[-2.35972,51.38359],"type":"Point"},"properties":{"_source":"warm_spaces","address":"St Michael&#39;s Church, Broad Street, Bath, England, BA1 5LJ, United Kingdom","description":"Free Wi-Fi, Device Charging, People to chat to, Pay it forward scheme, Space to work, Food/Drink for sale","hours":{"_text":"9am-3.30pm"},"title":"St. Michael's Without","url":"https://stmichaelsbath.org.uk"},"type":"Feature"},
		{"geometry":{"coordinates":[-2.32264,51.23046],"type":"Point"},"properties":{"_source":"warm_spaces","address":"The Good Heart, 7 Palmer Street, Frome, England, BA11 1DS, United Kingdom","description":"Free Food/Drink, Free Wi-Fi, Device Charging, Pay it forward scheme, Space to work, Food/Drink for sale, Books, music, some activities","hours":{"_text":"Tue-Sun, 12pm-7pm","opening":"Tu-Su 12:00-19:00"},"title":"The Good Heart","url":"https://www.thegoodheart.uk"},"type":"Feature"},
		{"geometry":{"coordinates":[-2.32092,51.23247],"type":"Point"},"properties":{"_source":"warm_spaces","address":"Frome Library, Justice Lane, Frome, England, BA11 1BE, United Kingdom","description":"Free Wi-Fi, Device Charging, Space to work, various drop-in activities for children and adults during opening hours","hours":{"_text":"Mon-Fri 9.30am-5pm, Sat 9.30am-4pm","opening":"Mo-Fr 09:30-17:00; Sa 09:30-16:00"},"title":"Frome Library","url":"https://www.somerset.gov.uk/libraries-leisure-and-communities/libraries/"},"type":"Feature"},
		{"geometry":{"coordinates":[-2.20951,51.32033],"type":"Point"},"properties":{"_source":"warm_spaces","address":"Trowbridge Museum, The Shires Shopping Centre, Trowbridge, England, BA14 8AT, United Kingdom","description":"Free Wi-Fi, Device Charging, People to chat to, Space to work, Food/Drink for sale, Museum exhibitions","hours":{"_text":"10am-4pm, Monday - Saturday","opening":"Mo-Sa 10:00-16:00"},"title":"Trowbridge Museum","url":"https://Trowbridgemuseum.co.uk"},"type":"Feature"},
		{"geometry":{"coordinates":[-2.32006,51.23356],"type":"Point"},"properties":{"_source":"frome_council","address":"Justice Lane, BA11 1BE","hours":{"_text":"FREQ=WEEKLY;BYDAY=FR,MO,TH,TU,WE\nDTSTART;TZID=Europe/London:20231016T0930\nDTEND;TZID=Europe/London:20231016T1700","opening":"Fr 09:30-17:00; Mo 09:30-17:00; Th 09:30-17:00; Tu 09:30-17:00; We 09:30-17:00"},"loc_pcd":true,"title":"Frome Library"},"type":"Feature"},
		{"geometry":{"coordinates":[-2.32006,51.23356],"type":"Point"},"properties":{"_source":"frome_council","address":"Cheese and Grain, BA11 1BE","hours":{"_text":"FREQ=WEEKLY;BYDAY=MO\nDTSTART;TZID=Europe/London:20231016T1000\nDTEND;TZID=Europe/London:20231016T1130","opening":"Mo 10:00-11:30"},"loc_pcd":true,"title":"Talking Café - Cheese & Grain"},"type":"Feature"},
		{"geometry":{"coordinates":[-2.32155,51.23200],"type":"Point"},"properties":{"_source":"frome_council","address":"Coffee #1, BA11 1BS","hours":{"_text":"FREQ=WEEKLY;BYDAY=TH\nDTSTART;TZID=Europe/London:20231019T1300\nDTEND;TZID=Europe/London:20231019T1400","opening":"Th 13:00-14:00"},"loc_pcd":true,"title":"Talking Café - Coffee #1"},"type":"Feature"},
		{"geometry":{"coordinates":[-2.32224,51.23043],"type":"Point"},"properties":{"_source":"frome_council","address":"7 Palmer Street, BA11 1DS","hours":{"_text":"FREQ=WEEKLY;WKST=SU;BYDAY=MO,TU,WE,TH,FR,SA\nDTSTART;TZID=Europe/London:20231016T1200\nDTEND;TZID=Europe/London:20231016T1500","opening":"Mo 12:00-15:00; Tu 12:00-15:00; We 12:00-15:00; Th 12:00-15:00; Fr 12:00-15:00; Sa 12:00-15:00"},"loc_pcd":true,"title":"The Good Heart - Palmer Street"},"type":"Feature"},
		{"geometry":{"coordinates":[-2.32224,51.23043],"type":"Point"},"properties":{"_source":"frome_council","address":"7 Palmer Street, BA11 1DS","hours":{"_text":"FREQ=WEEKLY;WKST=SU;BYDAY=TU,WE,TH,FR,SA\nDTSTART;TZID=Europe/London:20231017T1700\nDTEND;TZID=Europe/London:20231017T1900","opening":"Tu 17:00-19:00; We 17:00-19:00; Th 17:00-19:00; Fr 17:00-19:00; Sa 17:00-19:00"},"loc_pcd":true,"title":"The Good Heart - Palmer Street"},"type":"Feature"},
		{"geometry":{"coordinates":[-2.32639,51.23298],"type":"Point"},"properties":{"_source":"frome_council","address":"43 Selwood Rd, BA11 3BS","hours":{"_text":"FREQ=WEEKLY;WKST=SU;BYDAY=TU,WE,TH,FR\nDTSTART;TZID=Europe/London:20231017T1100\nDTEND;TZID=Europe/London:20231017T1330","opening":"Tu 11:00-13:30; We 11:00-13:30; Th 11:00-13:30; Fr 11:00-13:30"},"loc_pcd":true,"title":"The Bridge Café - Selwood Rd"},"type":"Feature"},
		{"geometry":{"coordinates":[-2.31760,51.21982],"type":"Point"},"properties":{"_source":"frome_council","address":"Key Centre, BA11 5AJ","hours":{"_text":"FREQ=WEEKLY;BYDAY=MO\nDTSTART;TZID=Europe/London:20231016T1630\nDTEND;TZID=Europe/London:20231016T1830","opening":"Mo 16:30-18:30"},"loc_pcd":true,"title":"Food at Five - Key Centre"},"type":"Feature"},
		{"geometry":{"coordinates":[-2.31395,51.23610],"type":"Point"},"properties":{"_source":"frome_council","address":"Cricket Club, BA11 2AH","hours":{"_text":"FREQ=WEEKLY;BYDAY=WE\nDTSTART;TZID=Europe/London:20231018T1630\nDTEND;TZID=Europe/London:20231018T1830","opening":"We 16:30-18:30"},"loc_pcd":true,"title":"Food at Five - Cricket Club"},"type":"Feature"},
		{"geometry":{"coordinates":[-2.32736,51.23349],"type":"Point"},"properties":{"_source":"frome_council","address":"Trinity Church, BA11 3DE","hours":{"_text":"FREQ=WEEKLY;BYDAY=TH\nDTSTART;TZID=Europe/London:20231019T1630\nDTEND;TZID=Europe/London:20231019T1830","opening":"Th 16:30-18:30"},"loc_pcd":true,"title":"Food at Five - Trinity Church"},"type":"Feature"},
		{"geometry":{"coordinates":[-2.32006,51.23356],"type":"Point"},"properties":{"_source":"frome_council","address":"Justice Lane, BA11 1BE","hours":{"_text":"FREQ=WEEKLY;BYDAY=SA\nDTSTART;TZID=Europe/London:20231021T0930\nDTEND;TZID=Europe/London:20231021T1600","opening":"Sa 09:30-16:00"},"loc_pcd":true,"title":"Frome Library"},"type":"Feature"},
		{"geometry":{"coordinates":[-2.32074,51.23245],"type":"Point"},"properties":{"_source":"spark_somerset","address":"Justice Lane, Frome, BA11 1BE","contact":"Email: frolib@somerset.gov.uk","hours":{"_text":"Mon-Fri 9:30am-5pm, Sat 9:30am-4pm","opening":"Mo-Fr 09:30-17:00; Sa 09:30-16:00"},"title":"Frome Library"},"type":"Feature"},
		{"geometry":{"coordinates":[-2.32224,51.23043],"type":"Point"},"properties":{"_source":"spark_somerset","address":"7 Palmer Street, Frome, BA11 1DS","contact":"Telephone: 0708139244; Email: info@thegoodheart.com","hours":{"_text":"From Dec 27th until Jan 3rd - 3-5pm ( free drinks and cake for sale 3rd Jan onwards back to usual hours ( Tues -Sun 12 -7pm) Hot food and drinks 9th Jan pilot for Mums and tots - 9am -11am Mon to Friday","opening":"Mo-Fr 09:00-11:00"},"loc_pcd":true,"title":"The Good Heart"},"type":"Feature"},
		{"geometry":{"coordinates":[-2.21065,51.31721],"type":"Point"},"properties":{"_source":"wiltshire_council","description":"Reading group for people with memory loss and their carers","title":"Library Shared Reading Group - Trowbridge","url":"https://directory.hertfordshire.gov.uk/Services/4"},"type":"Feature"},
		{"geometry":{"coordinates":[-2.18005,51.20530],"type":"Point"},"properties":{"_source":"wiltshire_council","description":"Reading group for people with memory loss and their carers","title":"Library Shared Reading Group - Warminster","url":"https://directory.hertfordshire.gov.uk/Services/2314"},"type":"Feature"},
		{"geometry":{"coordinates":[-2.18385,51.26175],"type":"Point"},"properties":{"_source":"wiltshire_council","description":"Reading group for people with memory loss and their carers","title":"Library Shared Reading Group - Westbury","url":"https://directory.hertfordshire.gov.uk/Services/2315"},"type":"Feature"},
		{"geometry":{"coordinates":[-2.21860,51.24766],"type":"Point"},"properties":{"_source":"wiltshire_council","description":"Jigsaws, games, colouring and crafts. 1st Monday of the month. 2-4pm","title":"Soul Space cafe - Dilton Marsh","url":"https://directory.hertfordshire.gov.uk/Services/2122"},"type":"Feature"},
		{"geometry":{"coordinates":[-2.18322,51.26173],"type":"Point"},"properties":{"_source":"wiltshire_council","title":"Tea, Cake and Company - Westbury","url":"https://directory.hertfordshire.gov.uk/Services/2123"},"type":"Feature"},
		{"geometry":{"coordinates":[-2.18337,51.26173],"type":"Point"},"properties":{"_source":"wiltshire_council","description":"Reading aloud, crochet, knit and natter, getting help with your kindle, or read with the group. Join a group at the library.","title":"Westbury Library - regular groups","url":"https://directory.hertfordshire.gov.uk/Services/2267"},"type":"Feature"},
		{"geometry":{"coordinates":[-2.12531,51.35791],"type":"Point"},"properties":{"_source":"wiltshire_council","title":"Melksham Community Dining","url":"https://directory.hertfordshire.gov.uk/Services/1983"},"type":"Feature"}
	]
}
