{
	"type": "FeatureCollection",
	"features": [
		{"geometry":{"coordinates":[-5.28550,50.22040],"type":"Point"},"properties":{"_source":"warm_welcome","address":"All Saints Community Centre, 75 Church View Road, Camborne, Cornwall TR148RQ","description":"Open from We are open Monday to Friday all year except for bank holidays and two weeks around Christmas. Everyone is welcome We have a community larder, a cafe for hot food, a computer room, a sensory room for people needing relaxation or a quiet environment, community laundrette, advocacy support, benefit support, and much more besides","hours":{"_text":"Monday: 09:00 - 17:00, Tuesday: 09:00 - 17:00, Wednesday: 09:00 - 17:00, Thursday: 09:00 - 12:00, Friday: 09:00 - 17:00","opening":"Mo 09:00-17:00; Tu 09:00-17:00; We 09:00-17:00; Th 09:00-12:00; Fr 09:00-17:00"},"title":"All Saints Church Community Centre"},"type":"Feature"},
		{"geometry":{"coordinates":[-5.28235,50.19349],"type":"Point"},"properties":{"_source":"warm_welcome","address":"Troon Church Hall, Camborne, Cornwall TR14 9EJ","hours":{"_text":"Friday: 9:30 - 11:30","opening":"Fr 09:30-11:30"},"title":"Camborne Cluster"},"type":"Feature"},
		{"geometry":{"coordinates":[-5.30219,50.21365],"type":"Point"},"properties":{"_source":"warm_welcome","address":"Church Street, Camborne, Cornwall TR14 7DF","hours":{"_text":"Tuesday: 15:00 - 17:00, Thursday: 13:00 - 18:00, Saturday: 10:00 - 13:00, Sunday: 9:00 - 12:00 / - Fortnightly","opening":"Tu 15:00-17:00; Th 13:00-18:00; Sa 10:00-13:00; Su 09:00-12:00"},"title":"Camborne Parish Church"},"type":"Feature"},
		{"geometry":{"coordinates":[-5.30285,50.22119],"type":"Point"},"properties":{"_source":"warm_welcome","address":"Chapel Street, Camborne, Cornwall TR14 0AA","description":"Open from 7/11/2022. All are welcome Town centre location. Free hot drinks. Meals, sandwiches, soup etc available at modest prices","hours":{"_text":"Monday: 10:00 - 14:00, Tuesday: 10:00 - 14:00, Wednesday: 10:00 - 14:00, Thursday: 10:00 - 14:00, Friday: 10:00 - 14:00","opening":"Mo 10:00-14:00; Tu 10:00-14:00; We 10:00-14:00; Th 10:00-14:00; Fr 10:00-14:00"},"title":"Camborne Wesley Methodist Church"},"type":"Feature"},
		{"geometry":{"coordinates":[-5.40737,50.19214],"type":"Point"},"properties":{"_source":"warm_welcome","address":"Phillack Church Hall, 11 Copper Terrace, Hayle, Cornwall TR27 4EB","description":"Open from Thursday November 3rd 2022.","hours":{"_text":"Thursday: 12:00 - 15:00","opening":"Th 12:00-15:00"},"title":"Copperhouse Community Cafe"},"type":"Feature"},
		{"geometry":{"coordinates":[-5.53969,50.11744],"type":"Point"},"properties":{"_source":"warm_welcome","address":"62 Morrab Road, Penzance, Cornwall TR18 4EP","description":"Open from 15/11/22. We cater for all people. We have a large open space with chairs & tables available. There are games etc for children. There is always tea, coffee, hot chocolate available plus on some occasions there will be home made soup.","hours":{"_text":"Tuesday: 10:00 - 12:00 / 18:00 - 20:00, Wednesday: 18:00 - 20:00","opening":"Tu 10:00-12:00,18:00-20:00; We 18:00-20:00"},"title":"Discovery Church"},"type":"Feature"},
		{"geometry":{"coordinates":[-5.42103,50.18431],"type":"Point"},"properties":{"_source":"warm_welcome","address":"The Bridge, 36 Penpol Terrace,, Hayle, Cornwall TR27 4BQ","description":"Sofa, comfortable chairs and tables available","hours":{"_text":"Tuesday: 13:00 - 15:30 / -, Wednesday: 11:00 - 15:30 / -, Thursday: 10:00 - 15:30 / -, Friday: 13:00 - 15:30 / -, Saturday: 13:00 - 15:30 / -","opening":"Tu 13:00-15:30; We 11:00-15:30; Th 10:00-15:30; Fr 13:00-15:30; Sa 13:00-15:30"},"title":"Hayle Light & Life Church"},"type":"Feature"},
		{"geometry":{"coordinates":[-5.47401,50.12401],"type":"Point"},"properties":{"_source":"warm_welcome","address":"Beacon Road, Marazion, Cornwall TR17 0HF","description":"Open from 21-11-2022.","hours":{"_text":"Monday: 10:00 - 16:00","opening":"Mo 10:00-16:00"},"title":"Marazion Quaker Meeting"},"type":"Feature"},
		{"geometry":{"coordinates":[-5.27358,50.10137],"type":"Point"},"properties":{"_source":"warm_welcome","address":"The Open Door, 14 Wendron Street, Helston, Cornwall TR13 8PS","hours":{"_text":"Monday: 10:00 - 16:00 / -, Wednesday: 10:00 - 16:00 / -, Friday: 10:00 - 16:00 / -","opening":"Mo 10:00-16:00; We 10:00-16:00; Fr 10:00-16:00"},"title":"Mustard Seed SW"},"type":"Feature"},
		{"geometry":{"coordinates":[-5.30682,50.14373],"type":"Point"},"properties":{"_source":"warm_welcome","address":"The Green, Nancegollan, Helston, Cornwall TR130AH","hours":{"_text":"Thursday: 10:00 - 14:00","opening":"Th 10:00-14:00"},"title":"Nancegollan Village Hall"},"type":"Feature"},
		{"geometry":{"coordinates":[-5.55250,50.10148],"type":"Point"},"properties":{"_source":"warm_welcome","address":"Chywoone Hill, Newlyn, Cornwall TR18 5AD","hours":{"_text":"Saturday: 09:00 - 12:00","opening":"Sa 09:00-12:00"},"title":"Newlyn Trinity Methodist Church"},"type":"Feature"},
		{"geometry":{"coordinates":[-5.49475,50.20722],"type":"Point"},"properties":{"_source":"warm_welcome","address":"St John-in-the-Fields Hall, St Ives, Cornwall TR26 2FB","description":"On Wednesdays we offer arts & crafts activities from 10.30 till 12, drop in session. On Friday it's a community meal - max 30 spaces. Simply call or text 07769 624410 to book.","hours":{"_text":"Wednesday: 10:30 - 14:00, Friday: 17:30 - 19:30","opening":"We 10:30-14:00; Fr 17:30-19:30"},"title":"St Ives Community Foodshare"},"type":"Feature"},
		{"geometry":{"coordinates":[-5.27517,50.20386],"type":"Point"},"properties":{"_source":"warm_welcome","address":"Bear In Mine'd Unit 4 King Edward Workspaces, Troon, Camborne TR149HW","description":"No, we cater for EVERYONE and dogs are very welcome too! we offer therapeutic services with art and music","hours":{"_text":"Wednesday: 10:00 - 16:30, Thursday: 10:00 - 16:30, Friday: 10:00 - 16:30, Saturday: 10:00 - 16:30, Sunday: 10:00 - 16:30","opening":"We 10:00-16:30; Th 10:00-16:30; Fr 10:00-16:30; Sa 10:00-16:30; Su 10:00-16:30"},"title":"TheraTeds (SMW) CIC"},"type":"Feature"},
		{"geometry":{"coordinates":[-5.41627,50.13300],"type":"Point"},"properties":{"_source":"warm_welcome","address":"The Flying Duck at Wayfarers Caravan Park, St Hilary, Cornwall TR20 9EF","description":"Open from 2nd November 2022. We are keen to welcome EVERYONE to our Warm Space. A log fire, soup and a sandwich available for free every Wednesday from 11.00am - 3.00pm for those who would like to be warm and spend time with others.","hours":{"_text":"Wednesday: 11:00 - 15:00","opening":"We 11:00-15:00"},"title":"Wayfarers Caravan Park with St Hilary Church"},"type":"Feature"},
		{"geometry":{"coordinates":[-5.55086,50.12888],"type":"Point"},"properties":{"_source":"warm_welcome","address":"Wesley Rock Methodist Church, Rock Terrace,, Heamoor, Penzance TR18 3JJ","hours":{"_text":"Thursday: 10:15 - 11:30","opening":"Th 10:15-11:30"},"title":"Wesley Rock Methodist Church"},"type":"Feature"},
		{"geometry":{"coordinates":[-5.31557,50.20677],"type":"Point"},"properties":{"_source":"warm_welcome","address":"Church Road, Camborne, Cornwall TR14 0QE","hours":{"_text":"Wednesday: 14:00 - 16:30","opening":"We 14:00-16:30"},"title":"www.cambornecluster.org.uk"},"type":"Feature"},
		{"geometry":{"coordinates":[-5.27350,50.10150],"type":"Point"},"properties":{"_source":"warm_spaces","address":"Mustard Seed, 14-16 Wendron Street, Helston, England, TR13 8PS","hours":{"_text":"10am-2pm"},"title":"Mustard Seed (SW)","url":"http://www.mustardseedcharity.org.uk"},"type":"Feature"}
	]
}
