{
	"type": "FeatureCollection",
	"features": [
		{"geometry":{"coordinates":[0.16820,53.07253],"type":"Point"},"properties":{"_source":"warm_welcome","address":"Manor Bungalow, howgarth lane, Friskney, Lincolnshire PE22 8PQ","hours":{"_text":"Monday: 10:30 - 15:30, Tuesday: 10:30 - 15:30, Wednesday: 10:30 - 15:30, Thursday: 10:30 - 15:30, Friday: 10:30 - 15:30","opening":"Mo 10:30-15:30; Tu 10:30-15:30; We 10:30-15:30; Th 10:30-15:30; Fr 10:30-15:30"},"title":"GPC Specialist tearoom C.I.C."},"type":"Feature"},
		{"geometry":{"coordinates":[0.08126,52.99779],"type":"Point"},"properties":{"_source":"warm_welcome","address":"The Beonna at All Saints, Main Road, Benington, Boston, Lincolnshire PE22 0BT","description":"Refreshments are available to purchase, Regular extras include monthly visits from the Mobile Library, Beonna Explorers family activities, special talks and more!","hours":{"_text":"Wednesday: 11:30 - 14:30, Friday: 10:30 - 14:30","opening":"We 11:30-14:30; Fr 10:30-14:30"},"title":"The Beonna at All Saints"},"type":"Feature"},
		{"geometry":{"coordinates":[0.16775,53.07423],"type":"Point"},"properties":{"_source":"east_lindsey_council","title":"Grandma's Pudding Co"},"type":"Feature"},
		{"geometry":{"coordinates":[0.23765,53.10714],"type":"Point"},"properties":{"_source":"east_lindsey_council","title":"Wainfleet Methodist Church"},"type":"Feature"},
		{"geometry":{"coordinates":[0.01058,53.03843],"type":"Point"},"properties":{"_source":"east_lindsey_council","title":"Sibsey Village Hall"},"type":"Feature"}
	]
}
