{
	"type": "FeatureCollection",
	"features": [
		{"geometry":{"coordinates":[0.16848,53.07257],"type":"Point"},"properties":{"_source":"warm_welcome","address":"Manor Bungalow, howgarth lane, BOSTON, Lincolnshire PE22 8PQ","description":"Warm tearoom. Free movie nights with free supper and hot drinks Open to all.","hours":{"_text":"Monday: 10:30 - 15:30, Tuesday: 10:30 - 15:30, Wednesday: 10:30 - 15:30, Thursday: 10:30 - 15:30, Friday: 10:30 - 15:30","opening":"Mo 10:30-15:30; Tu 10:30-15:30; We 10:30-15:30; Th 10:30-15:30; Fr 10:30-15:30"},"title":"Carole Goulding"},"type":"Feature"},
		{"geometry":{"coordinates":[0.01060,52.98059],"type":"Point"},"properties":{"_source":"warm_welcome","address":"Rochford Tower Hall, , Lincolnshire Pe21 9RH","description":"To provide a warm, welcoming and free meeting place for anyone in Fishtoft to come along to meet others, make new friends, try their hand at the various crafts on offer whilst enjoying a cup of tea or coffee and cakes.","hours":{"_text":"Tuesday: 09:30 - 13:00","opening":"Tu 09:30-13:00"},"title":"Fishtoft400 Community Group"},"type":"Feature"},
		{"geometry":{"coordinates":[0.10000,53.03599],"type":"Point"},"properties":{"_source":"boston_borough_council","address":"Old Leake Community Centre, Furlongs Lane, Old Leake, Boston, PE22 9NX","contact":"Lisa Dolby ; Email: mailto:oldleakecommunityhub@hotmail.com","description":"Warm Space and The Bread and Butter Thing available at the Old Leake Community Centre","hours":{"_text":"Starting 30th November 2022; Every Wednesday 10.00 am - 2.00 pm; Offer free tea, coffee, cold drinks, biscuits and light lunch; Board games, jigsaws, magazines, cards and bingo avaiable;  ; The Bread and Butter Thing: Working in partnership with supermarkets, factories and farms to redistribute surplus food.  A mobile food club is available at Old Leake Community Centre every Wednesday at 2 p.m.  Further details available below in the link to the website on how to book a slot. ","opening":"We 10:00-14:00"},"loc_pcd":true,"title":"Old Leake Community - Warm Hub and The Bread and Butter Thing","url":"https://www.boston.gov.uk/article/22445/Old-Leake-Community-Warm-Hub-and-The-Bread-and-Butter-Thing"},"type":"Feature"},
		{"geometry":{"coordinates":[0.16775,53.07423],"type":"Point"},"properties":{"_source":"east_lindsey_council","title":"Grandma's Pudding Co"},"type":"Feature"},
		{"geometry":{"coordinates":[0.23765,53.10714],"type":"Point"},"properties":{"_source":"east_lindsey_council","title":"Wainfleet Methodist Church"},"type":"Feature"},
		{"geometry":{"coordinates":[0.01058,53.03843],"type":"Point"},"properties":{"_source":"east_lindsey_council","title":"Sibsey Village Hall"},"type":"Feature"}
	]
}
