{
	"type": "FeatureCollection",
	"features": [
		{"geometry":{"coordinates":[0.50537,52.84748],"type":"Point"},"properties":{"_source":"warm_welcome","address":"Chapel Road, Dersingham, Norfolk PE31 6PN","description":" You can access most Libraries outside staffed hours with “Open Library” providing extra access to the library, its books and computers. Check if it's currently available at your local library here www.norfolk.gov.uk/openlibrary ","hours":"Mo 14:00-19:00; We 10:00-19:00; Th 10:00-19:00; Sa 10:00-16:00","title":"Dersingham Library"},"type":"Feature"},
		{"geometry":{"coordinates":[0.42051,52.75847],"type":"Point"},"properties":{"_source":"warm_welcome","address":"River Lane, Gaywood, King's Lynn PE30 4HD","description":" You can access most Libraries outside staffed hours with “Open Library” providing extra access to the library, its books and computers. Check if it's currently available at your local library here www.norfolk.gov.uk/openlibrary ","hours":"Mo 10:00-19:00; Tu 10:00-19:00; Th 10:00-19:00; Fr 10:00-19:00; Sa 10:00-16:00","title":"Gaywood Library"},"type":"Feature"},
		{"geometry":{"coordinates":[0.40242,52.74839],"type":"Point"},"properties":{"_source":"warm_welcome","address":"London Road, King's Lynn, Norfolk PE30 5EZ","description":" You can access most Libraries outside staffed hours with “Open Library” providing extra access to the library, its books and computers. Check if it's currently available at your local library here www.norfolk.gov.uk/openlibrary ","hours":"Mo 10:00-19:00; Tu 10:00-19:00; We 10:00-19:00; Th 10:00-19:00; Fr 10:00-19:00; Sa 10:00-16:00","title":"King's Lynn Library"},"type":"Feature"},
		{"geometry":{"coordinates":[0.40182,52.75475],"type":"Point"},"properties":{"_source":"warm_welcome","address":"Wellesley Street,, Kings Lynn, Norfolk PE30 1QD","description":"Open from 29-11-2022.","hours":"Tu 12:30-14:30","title":"Kings Centre"},"type":"Feature"},
		{"geometry":{"coordinates":[0.50527,52.84787],"type":"Point"},"properties":{"_source":"warm_spaces","address":"Chapel Road, King&#39;s Lynn, England, PE31 6PN","title":"Dersingham Library","url":"https://www.norfolk.gov.uk/libraries"},"type":"Feature"}
	]
}
