{
	"type": "FeatureCollection",
	"features": [
		{"geometry":{"coordinates":[0.69276,52.24340],"type":"Point"},"properties":{"_source":"warm_welcome","address":"All Saints Church, Park Road,, Bury St Edmunds, Suffolk IP33 3QW","description":"Open from 03/11/2022. Everyone welcome.","hours":"Th 10:15-13:00","title":"All Saints Church"},"type":"Feature"},
		{"geometry":{"coordinates":[0.44273,52.08588],"type":"Point"},"properties":{"_source":"warm_welcome","address":"Chalkstone Community Centre, Haverhill, Suffolk CB9 0JB","hours":"Mo 10:00-15:00","title":"River Of Life Community Church"},"type":"Feature"},
		{"geometry":{"coordinates":[0.43887,52.08226],"type":"Point"},"properties":{"_source":"warm_welcome","address":"St Mary's Church , High Street , Haverhill Suffolk CB9 8AX","description":"Open from 07/10/2022. All faiths and none are welcome. We may be closed for special services such as a funeral occasionally","hours":"Fr 09:30-15:00; Sa 10:00-12:00","title":"St Mary's Church, Haverhill"},"type":"Feature"},
		{"geometry":{"coordinates":[0.40561,52.24481],"type":"Point"},"properties":{"_source":"warm_spaces","address":"The Guineas, Newmarket, England, CB8 8EQ","title":"Newmarket Library","url":"https://www.suffolklibraries.co.uk/visit/locations-and-times/newmarket-library"},"type":"Feature"},
		{"geometry":{"coordinates":[0.57999,52.07917],"type":"Point"},"properties":{"_source":"warm_spaces","address":"Clare Library, The Guildhall, High Street, Sudbury, England, CO10 8NY","title":"Clare Library","url":"https://suffolklibraries.co.uk"},"type":"Feature"},
		{"geometry":{"coordinates":[0.63431,52.26562],"type":"Point"},"properties":{"_source":"warm_spaces","address":"Risby Village Hall, Aylmer Close, Bury Saint Edmunds, England, IP28 6RT","title":"Cozy Coffee Club","url":"https://www.risbyvillagehall.co.uk"},"type":"Feature"}
	]
}
