{
	"type": "FeatureCollection",
	"features": [
		{"geometry":{"coordinates":[0.54693,51.87582],"type":"Point"},"properties":{"_source":"warm_welcome","address":"Christ Church, London Road, Braintree, Essex CM7 2LD","description":"","hours":"Tu 15:30-17:30","title":"Christ Church Braintree"},"type":"Feature"},
		{"geometry":{"coordinates":[0.58968,51.98121],"type":"Point"},"properties":{"_source":"warm_welcome","address":"Hedingham Baptist Church, Sible Hedingham, Essex CO9 3PX","description":"Open from 25 Oct 2022. We provide a friendly face to chat to about anything. We have a variety of other activities outside of the Hotspot times, ranging from craft group, coffee morning and Mental health and Wellbeing groups. For full details and times please see our website.","hours":"Tu 14:00-18:00; Th 10:00-14:00","title":"Hedingham Baptist Church"},"type":"Feature"},
		{"geometry":{"coordinates":[0.55405,51.87462],"type":"Point"},"properties":{"_source":"warm_welcome","address":"The Church in Great Notley, Bridge End Lane, Braintree, Essex CM7 1FQ","description":" We are only providing soup, hot & cold drinks and biscuits","hours":"Tu 09:00-12:00; Th 09:30-12:00; Fr 09:00-12:00","title":"The Church in Great Notley"},"type":"Feature"},
		{"geometry":{"coordinates":[0.69990,51.83642],"type":"Point"},"properties":{"_source":"warm_welcome","address":"89 High Street, Kelvedon, Colchester, Essex CO5 9AE","description":" Homemade soup served from 12:30 p.m. Tuesdays & 1pm on Thursdays","hours":"Tu 10:00-14:00; Th 12:30-16:00","title":"United Reformed Church, Kelvedon"},"type":"Feature"},
		{"geometry":{"coordinates":[0.69986,51.83647],"type":"Point"},"properties":{"_source":"warm_spaces","address":"89 High Street, Colchester, England, CO5 9JP","title":"United Reformed Church, Kelvedon"},"type":"Feature"}
	]
}
