{
	"type": "FeatureCollection",
	"features": [
		{"geometry":{"coordinates":[0.49367,51.74325],"type":"Point"},"properties":{"_source":"warm_welcome","address":"All Saints' Church, Springfield Green, Chelmsford, Essex CM1 7HS","description":" Drop in for free tea, coffee and biscuits and a friendly chat in a nice, warm place","hours":"Tu 14:00-16:00","title":"All Saints' Springfield"},"type":"Feature"},
		{"geometry":{"coordinates":[0.41809,51.63612],"type":"Point"},"properties":{"_source":"warm_welcome","address":"140 Perry Street, Billericay , Essex CM12 0NS","description":"","hours":"Su 09:30-12:00","title":"Billericay Baptist Church "},"type":"Feature"},
		{"geometry":{"coordinates":[0.67914,51.73507],"type":"Point"},"properties":{"_source":"warm_welcome","address":"27 Fullbridge, Maldon CM9 4LE","description":"Open from 09/11/2022. Regardless of age, you are welcome! Just beside Tesco and the free bus stopping off point","hours":"Tu 09:30-13:00","title":"Fullbridge Community Hub"},"type":"Feature"},
		{"geometry":{"coordinates":[0.47359,51.72945],"type":"Point"},"properties":{"_source":"warm_welcome","address":"Hall Street, CHELMSFORD, Essex CM2 0HG","description":"Open from 01-11-2022.","hours":"Tu 16:00-20:00; We 16:00-20:00","title":"Life Church"},"type":"Feature"},
		{"geometry":{"coordinates":[0.45501,51.74940],"type":"Point"},"properties":{"_source":"warm_welcome","address":"Parkside Community Hub, Melbourne Avenue, Chelmsford, Essex CM1 2DX","description":" Everyone welcome! We have a community fridge in our community hub. This is accessible to all members of the public, food is subject to availability.","hours":"Mo 09:30-16:30; Tu 09:30-16:30; We 09:30-16:30; Th 09:30-16:30","title":"Parkside Community Hub (CHP)"},"type":"Feature"},
		{"geometry":{"coordinates":[0.60982,51.64775],"type":"Point"},"properties":{"_source":"warm_welcome","address":"85 Hullbridge Rd, South Woodham Ferrers, Chelmsford CM3 5LJ","description":"","hours":"Mo 12:00-14:00","title":"South Woodham Evangelical Church"},"type":"Feature"},
		{"geometry":{"coordinates":[0.47782,51.72932],"type":"Point"},"properties":{"_source":"warm_welcome","address":"The Salvation Army, 70 Baddow Road, Chelmsford, Essex CM2 0DL","description":"Open from 31.10.2022.","hours":"Mo 10:00-16:00; Th 10:00-16:00; Su 09:30-01:00","title":"The Salvation Army Chelmsford Citadel"},"type":"Feature"},
		{"geometry":{"coordinates":[0.46807,51.71005],"type":"Point"},"properties":{"_source":"warm_welcome","address":"Robin Way, Chelmsford, Essex CM28AU","description":"","hours":"We 09:15-12:00; Su 10:00-12:00","title":"Tile Kiln Church"},"type":"Feature"},
		{"geometry":{"coordinates":[0.45070,51.73044],"type":"Point"},"properties":{"_source":"warm_welcome","address":"Widford Parish Centres , Chelmsford, Essex CM1 2TS","description":"Our space is to provide local people a warm welcome, with free/affordable food and drink, and company. Free soup and a roll, 11am-12 noon Mondays and Tuesdays. We have free wifi and tables to sit informally with a laptop, we also have a soft play area for under 5's, Â£1.50 per session (up to 3 hours). ","hours":"Mo 09:00-12:00; Tu 09:00-12:00","title":"Widford Parish Churches"},"type":"Feature"}
	]
}
