{
	"type": "FeatureCollection",
	"features": [
		{"geometry":{"coordinates":[0.58985,51.52376],"type":"Point"},"properties":{"_source":"warm_welcome","address":"Canvey Methodist Church, Canvey Island , Essex SS8 9AB","description":"","hours":"We 10:30-12:00; Sa 10:30-12:00; Su 10:30-12:00","title":"Canvey Methodist Church "},"type":"Feature"},
		{"geometry":{"coordinates":[0.60105,51.58803],"type":"Point"},"properties":{"_source":"warm_welcome","address":"Crown Hill, Rayleigh, Essex SS6 7HA","description":"Open from 24-11-2022. all welcome. We are a Dementia Friendly, Sight-Loss Friendly and Inclusive Church books, board games, colouring available. 2nd & 4th Thursdays - Needles & Natter - bring any kind of needlecraft to do and have a chat in a friendly atmosphere","hours":"Th 10:00-13:00; Su 09:30-12:30","title":"Christ Church United Reformed Church, Rayleigh"},"type":"Feature"},
		{"geometry":{"coordinates":[0.39635,51.43239],"type":"Point"},"properties":{"_source":"warm_welcome","address":"The Maltings Lower Higham Riad, Gravesend, Kent DA12 2LY","description":" Our Lounge is open for free tea + coffee, with comfy seats + sofa's, wifi + workspace, a coffee shop without the cost! In school holidays we run 'Make Lunch' and provide a three-course lunch for free to local families on a Tuesday and Thursday 11:30-1:30","hours":"Tu 09:00-17:00; We 09:00-17:00; Th 09:00-17:00; Fr 12:00-17:00","title":"City Praise Centre CIO"},"type":"Feature"},
		{"geometry":{"coordinates":[0.46341,51.52576],"type":"Point"},"properties":{"_source":"warm_welcome","address":"45 Fobbing Road, Corringham, Essex SS17 9BN","description":"Open from Wednesday 23rd November 2022. Board games, Puzzles, Crosswords and more!","hours":"We 08:30-13:30","title":"Corringham Evangelical Church"},"type":"Feature"},
		{"geometry":{"coordinates":[0.36059,51.43205],"type":"Point"},"properties":{"_source":"warm_welcome","address":"Dashwood Road, Gravesend, Kent DA11 7LY","description":" Please visit our website for services provided at your local library","hours":"Mo 09:00-13:00; Tu 13:00-17:00; Fr 14:00-17:00; Sa 10:00-14:00","title":"Dashwood Library"},"type":"Feature"},
		{"geometry":{"coordinates":[0.69548,51.55733],"type":"Point"},"properties":{"_source":"warm_welcome","address":"120 Hobleythick Lane, Westcliff on Sea, Essex SS0 0RJ","description":"Open from 01-11-22. Warm and friendly with activities for all ages as well as tea, coffee and toast","hours":"Tu 15:00-18:00; Th 12:00-15:00","title":"Earls Hall Baptist Church"},"type":"Feature"},
		{"geometry":{"coordinates":[0.36904,51.43776],"type":"Point"},"properties":{"_source":"warm_welcome","address":"Windmill Street, Gravesend, Kent DA12 1BE","description":" Please visit our website for services provided at your local library","hours":"Mo 10:00-17:00; Tu 10:00-17:00; We 10:00-17:00; Th 10:00-17:00; Fr 10:00-17:00; Sa 10:00-17:00","title":"Gravesend Library"},"type":"Feature"},
		{"geometry":{"coordinates":[0.45651,51.41463],"type":"Point"},"properties":{"_source":"warm_welcome","address":"Villa Road, Higham, Kent ME3 7BS","description":" Please visit our website for services provided at your local library","hours":"Mo 09:00-13:00; Tu 10:00-13:00; We 09:00-13:00; Th 10:00-13:00; Fr 09:00-13:00; Sa 09:00-13:00","title":"Higham Library"},"type":"Feature"},
		{"geometry":{"coordinates":[0.37529,51.42798],"type":"Point"},"properties":{"_source":"warm_welcome","address":"Sun Lane, Gravesend, Kent DA12 5HR","description":" Please visit our website for services provided at your local library","hours":"Tu 10:00-13:00; We 10:00-13:00; Fr 10:00-13:00; Sa 10:00-15:00","title":"Kings Farm Library"},"type":"Feature"},
		{"geometry":{"coordinates":[0.38442,51.41243],"type":"Point"},"properties":{"_source":"warm_welcome","address":"266 Mackenzie Way, Gravesend, Kent DA12 5TY","description":" Please visit our website for services provided at your local library","hours":"Tu 10:00-13:00; Th 10:00-13:00; Fr 10:00-13:00; Sa 10:00-15:00","title":"Marling Cross Library"},"type":"Feature"},
		{"geometry":{"coordinates":[0.39349,51.41885],"type":"Point"},"properties":{"_source":"warm_welcome","address":"The Alma, Gravesend, Kent DA12 4NG","description":" Please visit our website for services provided at your local library","hours":"Mo 09:00-13:00; We 13:00-17:00; Th 09:00-13:00; Fr 09:00-13:00; Sa 10:00-14:00","title":"Riverview Park Library"},"type":"Feature"},
		{"geometry":{"coordinates":[0.68406,51.54172],"type":"Point"},"properties":{"_source":"warm_welcome","address":"33 Kings Road, Westcliff-on-sea, Essex SS08LL","description":"","hours":"We 14:00-16:00","title":"St Saviour's Church"},"type":"Feature"},
		{"geometry":{"coordinates":[0.59918,51.55322],"type":"Point"},"properties":{"_source":"warm_welcome","address":"The Salvation Army, Hub Cafe, Hadleigh Park, Chapel Lane, Hadleigh, Essex SS7 2PP","description":"","hours":"Mo 10:00-15:00; Tu 10:00-15:00; We 10:00-15:00; Th 10:00-15:00; Fr 10:00-15:00; Sa 10:00-16:00; Su 10:00-16:00","title":"The Salvation Army Hadleigh Farm Estate"},"type":"Feature"},
		{"geometry":{"coordinates":[0.55419,51.56826],"type":"Point"},"properties":{"_source":"warm_welcome","address":"Kennington Avenue, Benfleet, Essex SS7 4BS","description":"Open from 02/11/22. Wednesday morning only during Term Time and Saturday only open 2nd Saturday in the month.","hours":"We 09:00-12:00; Sa 10:00-12:00","title":"Thundersley Methodist Church"},"type":"Feature"},
		{"geometry":{"coordinates":[0.45571,51.52349],"type":"Point"},"properties":{"_source":"warm_welcome","address":"2 - 4 Chase Road, Corringham, Essex SS177QH","description":"","hours":"Mo 10:00-14:30","title":"Thurrock Christian Fellowship Church"},"type":"Feature"},
		{"geometry":{"coordinates":[0.69352,51.54213],"type":"Point"},"properties":{"_source":"warm_welcome","address":"Trinity Methodist Church, Argyll Road, Westcliff On Sea SS0 7HL","description":"Monday: Families Mon, Tues & Friday; Pensioners Mon afternoon Wednesdays & Thursdays: Adults LD A community centre for all ages","title":"Trinity Family Centre"},"type":"Feature"},
		{"geometry":{"coordinates":[0.65461,51.54298],"type":"Point"},"properties":{"_source":"warm_welcome","address":"Elm Road, Leigh-on-Sea, Select Province/State SS9 1SJ","description":"Open from 15-11-22.","hours":"Tu 10:00-16:00; Th 10:00-16:00","title":"Wesley Methodist Church"},"type":"Feature"},
		{"geometry":{"coordinates":[0.58567,51.52959],"type":"Point"},"properties":{"_source":"warm_welcome","address":"Hilton Road, Canvey Island, Essex SS8 9QA","description":"Open from 7th November. closed on Bank Holidays","hours":"Mo 13:00-17:00","title":"Winter Gardens Baptist Church"},"type":"Feature"},
		{"geometry":{"coordinates":[0.46579,51.52671],"type":"Point"},"properties":{"_source":"warm_spaces","address":"45 Fobbing Road, Stanford-le-Hope, England, SS17","title":"Corringham Evangelical Church","url":"https://www.corringhamevangelical.co.uk"},"type":"Feature"},
		{"geometry":{"coordinates":[0.37152,51.48804],"type":"Point"},"properties":{"_source":"warm_spaces","address":"Community Church Chadwell, Defoe Parade, Grays, England, RM16 4QR","title":"Chadwell Warm Hub","url":"https://www.facebook.com/180Project/"},"type":"Feature"}
	]
}
