{
	"type": "FeatureCollection",
	"features": [
		{"geometry":{"coordinates":[0.50300,51.29026],"type":"Point"},"properties":{"_source":"warm_welcome","address":"Castle Road, Maidstone, Kent ME16 0PR","description":" Visit our website for more information on what your local library offers, and find out how else we can help with the cost-of-living support: bit.ly/CostOfLivingSupportKent.","title":"Allington Library"},"type":"Feature"},
		{"geometry":{"coordinates":[0.57764,51.27544],"type":"Point"},"properties":{"_source":"warm_welcome","address":"Bearsted Rail Station, Ware Street , Bearsted, Kent ME14 4PH","description":" Visit our website for more information on what your local library offers, and find out how else we can help with the cost-of-living support: bit.ly/CostOfLivingSupportKent.","title":"Bearsted Library"},"type":"Feature"},
		{"geometry":{"coordinates":[0.57642,51.27563],"type":"Point"},"properties":{"_source":"warm_welcome","address":"Bearsted Methodist Church, Ware Street, Bearsted, Maidstone ME14 4PH","description":"","hours":"Th 14:30-16:00","title":"Bearsted Methodist Church"},"type":"Feature"},
		{"geometry":{"coordinates":[0.49992,51.23125],"type":"Point"},"properties":{"_source":"warm_welcome","address":"Heath Road, Coxheath, Kent ME17 4EH","description":" Visit our website for more information on what your local library offers, and find out how else we can help with the cost-of-living support: bit.ly/CostOfLivingSupportKent.","title":"Coxheath Library"},"type":"Feature"},
		{"geometry":{"coordinates":[0.54499,51.33505],"type":"Point"},"properties":{"_source":"warm_welcome","address":"St David's Church, Newton Close, Lordswood, Kent ME5 8TR","description":"Open from Second Friday of every month from 10:30am - 12pm. Drop-in anytime for a hot drink, slice of cake and a chance to catch-up with friends. St David's, Lordswood, is part of the Parish/Ecumenical Partnership of Holy Trinity South Chatham. See our website (southchatham.org) and Facebook page (@southchatham)","hours":"Fr 10:30-12:00","title":"Holy Trinity South Chatham: St Alban’s, Blue Bell Hill, St David’s, Lordswood, & St William’s, Walderslade"},"type":"Feature"},
		{"geometry":{"coordinates":[0.51696,51.28003],"type":"Point"},"properties":{"_source":"warm_welcome","address":"James Whatman Way, Maidstone, Kent ME14 1LQ","description":" Please visit our website for services provided at your local library. Find out how else we can help with the cost-of-living support: bit.ly/CostOfLivingSupportKent.","title":"Kent History and Library Centre"},"type":"Feature"},
		{"geometry":{"coordinates":[0.56318,51.26519],"type":"Point"},"properties":{"_source":"warm_welcome","address":"Egremont Road, Maidstone, Kent ME15 8LH","description":" Please visit our website for services provided at your local library. Find out how else we can help with the cost-of-living support: bit.ly/CostOfLivingSupportKent.","title":"Madginford Library"},"type":"Feature"},
		{"geometry":{"coordinates":[0.55227,51.25415],"type":"Point"},"properties":{"_source":"warm_welcome","address":"Maplewood Court Care Home, Maidstone, Kent ME15 7TA","description":"Open from 23/11/2022. Elderly We are offering a warm space to people in the local community who would like some company and/or some food and refreshments","hours":"We 11:00-14:00","title":"Maplewood Court Care Home"},"type":"Feature"},
		{"geometry":{"coordinates":[0.36165,51.37782],"type":"Point"},"properties":{"_source":"warm_welcome","address":"Wrotham Road, Meopham, Kent DA13 0AH","description":" Please visit our website for services provided at your local library","hours":"Mo 10:00-13:00; Tu 10:00-13:00; We 10:00-13:00; Th 10:00-13:00; Sa 10:00-14:00","title":"Meopham Library"},"type":"Feature"},
		{"geometry":{"coordinates":[0.44093,51.32612],"type":"Point"},"properties":{"_source":"warm_welcome","address":"Christ Church Community Hall, Malling Road, Snodland, Kent ME6 5EE","description":" We are wheelchair accessible ","hours":"Mo 10:00-13:30","title":"Open Door Coffee Stop"},"type":"Feature"},
		{"geometry":{"coordinates":[0.54548,51.25304],"type":"Point"},"properties":{"_source":"warm_welcome","address":"17, Northumberland Court, Northumberland Road, Maidstone, Kent ME15 7LW","description":" Please visit our website for services provided at your local library. Find out how else we can help with the cost-of-living support: bit.ly/CostOfLivingSupportKent.","title":"Shepway Library"},"type":"Feature"},
		{"geometry":{"coordinates":[0.36245,51.37226],"type":"Point"},"properties":{"_source":"warm_welcome","address":"St John's Centre, Wrotham Road, Meopham, Gravesend, Kent DA13 0AA","description":"Open from 18-11-22. Hot drinks available all day, home made cakes available at our Community Cafe 2-4pm on Fridays","hours":"Fr 09:00-16:00","title":"St John's Church, Meopham"},"type":"Feature"},
		{"geometry":{"coordinates":[0.50152,51.36714],"type":"Point"},"properties":{"_source":"warm_welcome","address":"St Justus Church, The Fairway, Rochester, Kent ME1 2LT","description":"","hours":"Tu 10:30-14:00; Th 14:00-16:00","title":"St Justus Church Rochester"},"type":"Feature"},
		{"geometry":{"coordinates":[0.49366,51.39594],"type":"Point"},"properties":{"_source":"warm_welcome","address":"High Street, Strood, Rochester, Kent ME2 4TR","description":"Open from 05/12/2022. We have facilities for all ages. We have toys and will provide games, reading material etc. more suitable for older people. We will endeavour to cater for the needs of those who come. There is limited parking in thr upper car park near the church. The Lower Car park is permit only and you could be fined if you park there.","hours":"Mo 09:30-16:30","title":"St Nicholas with St Mary Church Strood"},"type":"Feature"},
		{"geometry":{"coordinates":[0.47813,51.30217],"type":"Point"},"properties":{"_source":"warm_welcome","address":"The Brassey Centre, Station Road, Aylesford ME20 7QR","description":"","hours":"We 09:00-15:30","title":"St Peter and St Paul's Church, Aylesford"},"type":"Feature"},
		{"geometry":{"coordinates":[0.43882,51.28967],"type":"Point"},"properties":{"_source":"warm_welcome","address":"The East Malling Centre Chapman Way, East Malling, Kent ME19 6DD","description":"Open from 07-10-2022.","hours":"Fr 10:00-14:00","title":"The East Malling Centre"},"type":"Feature"},
		{"geometry":{"coordinates":[0.52706,51.27437],"type":"Point"},"properties":{"_source":"warm_welcome","address":"Maidstone Community Support Centre, 39-48 Marsham Street, Maidstone, Kent ME14 1HH","description":"We cater for mums, with/without their preschool aged children (dads welcome too) Mondays- St Augustine's Gillingham ME7 5PW; Wednesdays Christ Church, Maidstone ME15 9JJ; Fridays Maidstone URC ME14 1QU","hours":"Mo 10:00-12:00; We 10:00-12:00; Fr 10:00-12:00","title":"The Princess Project "},"type":"Feature"},
		{"geometry":{"coordinates":[0.35988,51.33040],"type":"Point"},"properties":{"_source":"warm_welcome","address":"The Bay, Village Hall, Vigo, Meopham, Kent DA13 0TD","description":" Please visit our website for services provided at your local library","hours":"Tu 12:00-17:00; We 14:00-17:00; Fr 14:00-17:00; Sa 10:00-14:00","title":"Vigo Library"},"type":"Feature"},
		{"geometry":{"coordinates":[0.43097,51.22504],"type":"Point"},"properties":{"_source":"warm_welcome","address":"Adin Coates House, High Street , Yalding, Kent ME18 6HU","description":" Please visit our website for services provided at your local library. Find out how else we can help with the cost-of-living support: bit.ly/CostOfLivingSupportKent.","title":"Yalding Library"},"type":"Feature"},
		{"geometry":{"coordinates":[0.48422,51.37271],"type":"Point"},"properties":{"_source":"warm_spaces","address":"Borstal Street, Rochester, England, ME1 3JS","title":"Family Time Activities Borstal"},"type":"Feature"},
		{"geometry":{"coordinates":[0.52089,51.34675],"type":"Point"},"properties":{"_source":"warm_spaces","address":"70 Silverweed Road, Chatham, England, ME5 0QX","title":"The Net Community Hub","url":"https://waldersladehub.org"},"type":"Feature"},
		{"geometry":{"coordinates":[0.60913,51.36291],"type":"Point"},"properties":{"_source":"warm_spaces","address":"High Street, Gillingham, England, ME8 8AN","title":"St Margaret's Church, Rainham"},"type":"Feature"},
		{"geometry":{"coordinates":[0.50546,51.38778],"type":"Point"},"properties":{"_source":"warm_spaces","address":"The City Wall, 120 High Street, Rochester, England, ME1 1JT","title":"The City Wall","url":"https://www.facebook.com/CITYWALLROCHESTER"},"type":"Feature"}
	]
}
