{
	"type": "FeatureCollection",
	"features": [
		{"geometry":{"coordinates":[0.58869,50.86568],"type":"Point"},"properties":{"_source":"warm_welcome","address":"Mount Pleasant Road, Hastings, East Sussex TN34 3SB","description":"","hours":"We 10:30-13:00","title":"Calvert Memorial Methodist Church"},"type":"Feature"},
		{"geometry":{"coordinates":[0.59991,50.86706],"type":"Point"},"properties":{"_source":"warm_welcome","address":"Halton Baptist Church, Old London Road, HASTINGS, England TN35 5LU","description":"Open from 09-11-2022. Dementia friendly church","hours":"We 12:30-14:30","title":"Halton Baptist Church"},"type":"Feature"},
		{"geometry":{"coordinates":[0.57030,50.88612],"type":"Point"},"properties":{"_source":"warm_welcome","address":"Hastings Centre, The Ridge, Hastings, East Sussex TN34 2SA","description":" Every Tuesday 9.30am to 2pm, all welcome. Free soup and hot drinks. Free wifi and plug sockets. Board games, books, puzzles, BBC news on a big screen. Come to chat, work, read, play games, etc.","hours":"Tu 09:30-14:00","title":"King's Church"},"type":"Feature"},
		{"geometry":{"coordinates":[0.58429,50.87429],"type":"Point"},"properties":{"_source":"warm_welcome","address":"7-9 Langham Road, HASTINGS, East Sussex TN34 2JE","description":"Open from 08.11.22. Our focus is children with SEN but everyone is welcome We have soft play and sensory room for children, also a digital hub, large kitchen to warm up food etc.","hours":"Mo 10:00-14:00; We 10:00-14:00; Th 10:00-14:00","title":"Sensory Soft Play"},"type":"Feature"},
		{"geometry":{"coordinates":[0.59374,50.87382],"type":"Point"},"properties":{"_source":"warm_welcome","address":"St Barnabas Church, 142 Hoads Wood Road,, Hastings, East Sussex TN34 2BA","description":"","hours":"Th 10:00-12:00","title":"St Barnabas Church"},"type":"Feature"},
		{"geometry":{"coordinates":[0.55759,50.86456],"type":"Point"},"properties":{"_source":"warm_welcome","address":"St Leonard’s Methodist church, St Leonard’s on sea, E sussex Tn37 6ra","description":"Open from 01-12-2022. Everyone is welcome on Friday evenings! Tuesday mornings in term-time we welcome toddlers and their carers. Open on Friday evenings in December. Coffee, cake and company","hours":"Tu 10:00-11:30; Fr 16:00-19:00","title":"St Leonards-on-Sea Methodist Church"},"type":"Feature"},
		{"geometry":{"coordinates":[0.53637,50.92894],"type":"Point"},"properties":{"_source":"warm_welcome","address":"Chapel Hill , Sedlescombe, Battle TN33 0QX","description":"Open from 22-11-2023. We cater for all ages Baby changing facilities, phone charging, ","hours":"Tu 10:00-16:30; Th 10:00-16:30","title":"The Chapel on the Hill United Reformed Church"},"type":"Feature"},
		{"geometry":{"coordinates":[0.58175,50.85873],"type":"Point"},"properties":{"_source":"warm_welcome","address":"St Andrews Square, Hastings, East Sussex TN34 1SP","description":"Open from 01/10/2022.","hours":"Tu 10:00-12:00; Th 10:00-12:00","title":"The Salvation Army"},"type":"Feature"},
		{"geometry":{"coordinates":[0.48448,50.91792],"type":"Point"},"properties":{"_source":"warm_welcome","address":"Battle Baptist Church, Mount Street, Battle, East Sussex TN33 0EG","description":"Open from 31-10-2022.","hours":"Mo 11:00-15:00; Tu 11:00-14:00; We 10:00-14:00","title":"Warm Welcome @ Battle Baptist Church"},"type":"Feature"}
	]
}
