{
	"type": "FeatureCollection",
	"features": [
		{"geometry":{"coordinates":[-1.53291,55.00306],"type":"Point"},"properties":{"_source":"warm_welcome","address":"Battle Hill Library, Coastway Shopping Forum, Wallsend NE28 9JE","description":"For the general public. Free hot drinks available during opening hours’: Services include books, magazines, newspapers, games and toys, free use of PCs and wifi, high chairs and bottle warmers.","hours":"Tu 09:00-13:00; Th 09:00-13:00; Sa 09:00-13:00","title":"Battle Hill Library"},"type":"Feature"},
		{"geometry":{"coordinates":[-1.55889,54.98474],"type":"Point"},"properties":{"_source":"warm_welcome","address":"Ambassador Hall, 3 Coutts Road, Walkergate, Newcastle upon Tyne NE6 4RB","description":"","hours":"Fr 13:00-17:00; Su 11:30-12:30","title":"Church of God"},"type":"Feature"},
		{"geometry":{"coordinates":[-1.43634,55.03407],"type":"Point"},"properties":{"_source":"warm_welcome","address":"St Georges Road, Cullercoats, Tyne and Wear NE30 3JY","description":" Services include books, magazines, games and toys, free use of PCs and wifi, bottle warmers. Free hot drinks available during opening hours.","hours":"Tu 09:00-13:00; Fr 09:00-13:00; Sa 09:00-13:00","title":"Cullercoats Library"},"type":"Feature"},
		{"geometry":{"coordinates":[-1.53065,54.99115],"type":"Point"},"properties":{"_source":"warm_welcome","address":"The Well Bee-ing Hub & Cafe, 84 Park Road, Wallsend, Tyne and Wear NE28 6QY","hours":"Tu 08:00-17:00; We 08:00-17:00; Th 08:00-17:00; Fr 08:00-17:00; Sa 08:00-17:00","title":"Dreamshine Community Interest Company (Well Bee-ing Hub & Cafe)"},"type":"Feature"},
		{"geometry":{"coordinates":[-1.59384,55.05627],"type":"Point"},"properties":{"_source":"warm_welcome","address":"Market Street, Dudley, Tyne and Wear NE23 7HS","description":" All welcome. Services include books, magazines, games and toys, free use of PCs and wifi, high chairs and bottle warmers. Free hot drinks available Tuesday and Thursday 2pm - 5pm","hours":"Tu 09:00-13:00; Th 09:00-13:00; Sa 09:00-13:00","title":"Dudley Library"},"type":"Feature"},
		{"geometry":{"coordinates":[-1.56548,55.02238],"type":"Point"},"properties":{"_source":"warm_welcome","address":"Whitfield Road, Forest Hall, Newcastle NE12 7LJ","description":"Open from Tuesday 1:11:22. Services include books, magazines, newspapers, games and toys, free use of PCs and Wifi, high chairs and bottle warmers. Free hot drinks available 9:00 -16:00 Tues and Thurs and 9:00-12:00 on Sat ","hours":"Tu 09:00-17:30; Th 09:00-17:30; Sa 09:00-13:00","title":"Forest Hall Library"},"type":"Feature"},
		{"geometry":{"coordinates":[-1.59153,54.98790],"type":"Point"},"properties":{"_source":"warm_welcome","address":"Churchill Gardens, Jesmond, Newcastle upon Tyne NE2 1HB","description":"Open from 04-11-2022.","hours":"Fr 14:30-17:00","title":"Holy Trinity Church Jesmond"},"type":"Feature"},
		{"geometry":{"coordinates":[-1.62545,55.05218],"type":"Point"},"properties":{"_source":"warm_welcome","address":"St Columba's Church, North Tyneside, Tyne and Wear NE13 6NH","description":"","hours":"Mo 10:00-12:00; We 10:00-11:00; Su 11:00-12:00","title":"https://www.stcolumbaswideopen.co.uk/"},"type":"Feature"},
		{"geometry":{"coordinates":[-1.43514,54.98744],"type":"Point"},"properties":{"_source":"warm_welcome","address":"St Jude's Terrace, South Tyneside, Tyne and Wear NE33 5PB","description":"Open from 01-11-2022.","hours":"Mo 12:30-15:30","title":"Living Waters Church"},"type":"Feature"},
		{"geometry":{"coordinates":[-1.46814,55.04039],"type":"Point"},"properties":{"_source":"warm_welcome","address":"Woodleigh Road, Monkseaton , Tyne and Wear NE258ET","description":" Services include books, magazines, newspapers, games and toys, free use of PCs and wifi, high chairs and bottle warmers. Free hot drinks available during opening hours (up to 30 mins before closing).","hours":"Tu 09:00-13:00; Fr 09:00-13:00; Sa 09:00-13:00","title":"Monkseaton Library"},"type":"Feature"},
		{"geometry":{"coordinates":[-1.44576,55.01072],"type":"Point"},"properties":{"_source":"warm_welcome","address":"Northumberland Square, North Shields, Tyne and Wear NE30 1QU","description":"All welcome Services include books, magazines, newspapers, games and toys, free use of PCs and wifi, high chairs and bottle warmers. Free hot drinks available Wed 9.30 – 12.30 and Fri 2.30-5.","hours":"Mo 09:00-17:30; Tu 09:00-17:30; We 09:00-17:30; Th 09:00-17:30; Fr 09:00-17:30; Sa 09:00-13:00","title":"North Shields Library"},"type":"Feature"},
		{"geometry":{"coordinates":[-1.56481,55.03545],"type":"Point"},"properties":{"_source":"warm_welcome","address":"Killingworth Library, White Swan Centre , Citadel East, Killingworth NE12 6SS","description":" Services include books, magazines, games and toys, free use of PC's and wifi, high chairs and bottle warmers. Free hot drinks available Tuesday 3pm - 5pm and Saturday 9:30am - 12:30","hours":"Mo 09:00-17:30; Tu 09:00-17:30; We 09:00-17:30; Th 09:00-17:30; Fr 09:00-17:30; Sa 09:00-13:00","title":"North Tyneside Council"},"type":"Feature"},
		{"geometry":{"coordinates":[-1.44753,55.00886],"type":"Point"},"properties":{"_source":"warm_welcome","address":"Working Well, The Beacon Shopping Centre, North Shields , Tyne and Wear NE29 6QF","description":"","hours":"We 12:00-14:00; Fr 10:00-12:00","title":"North Tyneside Council"},"type":"Feature"},
		{"geometry":{"coordinates":[-1.74002,55.05004],"type":"Point"},"properties":{"_source":"warm_welcome","address":"Bell Villas, Ponteland, Northumberland NE20 9BE","description":" A drop in café where we serve soup, hot drinks and homemade cakes. A very friendly and welcoming atmosphere.","hours":"Mo 13:00-17:00","title":"Ponteland Methodist Church Open Door drop-in-café"},"type":"Feature"},
		{"geometry":{"coordinates":[-1.62732,55.02659],"type":"Point"},"properties":{"_source":"warm_welcome","address":"St Aidan's Church, Princes Road, Brunton Park, Newcastle upon Tyne NE3 5NF","description":"Open from 26-11-2022.","hours":"Th 14:00-16:00; Sa 10:00-12:00","title":"St Aidan's Church, Brunton Park"},"type":"Feature"},
		{"geometry":{"coordinates":[-1.58843,55.00299],"type":"Point"},"properties":{"_source":"warm_welcome","address":"66 CLEVELAND GARDENS, NEWCASTLE UPON TYNE, Newcastle upon 'Tyne NE7 7QH","description":"A welcoming space for everyone and anyone","hours":"We 14:00-16:00","title":"St Francis Church Hall"},"type":"Feature"},
		{"geometry":{"coordinates":[-1.43860,55.04016],"type":"Point"},"properties":{"_source":"warm_welcome","address":"109 Whitley Road, Whitley Bay, Tyne & Wear NE26 2ET","description":"Open from 01-11-2022.","hours":"Th 09:30-15:00","title":"The Bay Church"},"type":"Feature"},
		{"geometry":{"coordinates":[-1.44503,55.00974],"type":"Point"},"properties":{"_source":"warm_welcome","address":"Howard Street, North Shields, Tyne and Wear NE30 1SE","description":"Open from 02/11/2022. We cater for everyone and you can enjoy up to two hot drinks for FREE Our café bar is an ideal space to work from or relax in. We have free Wi-Fi, a selection of board games, a book swap library and even a gallery displaying local art, all overseen by our friendly colleagues. Of course, your four-legged friends are welcome!","hours":"We 10:00-16:00","title":"The Exchange Theatre"},"type":"Feature"},
		{"geometry":{"coordinates":[-1.61973,55.00712],"type":"Point"},"properties":{"_source":"warm_welcome","address":"Trinity Church and Centre, High Street,, Gosforth,, Newcastle upon Tyne NE3 4AG","description":" A hot drink, friendly conversation, and a warm welcome","hours":"Fr 10:00-11:30","title":"Trinity Church"},"type":"Feature"},
		{"geometry":{"coordinates":[-1.53457,54.99088],"type":"Point"},"properties":{"_source":"warm_welcome","address":"Wallsend Customer First Centre 28 The Forum, Wallsend, North Tyneside NE28 8JR","description":"","hours":"Mo 09:00-17:30; Tu 09:00-17:30; We 09:00-17:30; Th 09:00-17:30; Fr 09:00-17:30; Sa 09:00-13:00","title":"Wallsend Library"},"type":"Feature"},
		{"geometry":{"coordinates":[-1.47354,54.98073],"type":"Point"},"properties":{"_source":"warm_welcome","address":"St. Paul's Church, Church Bank, Jarrow NE32 3DZ","description":"Everyone is welcome at St. Paul'sthere has been a welcome at St. Paul's for over 1300 years and we look forward to meeting people of all ages.","hours":"Mo 11:00-15:00; Sa 11:00-15:00","title":"Warm Spaces at St. Paul's Jarrow"},"type":"Feature"},
		{"geometry":{"coordinates":[-1.70653,54.98887],"type":"Point"},"properties":{"_source":"warm_welcome","address":"West Denton Community Church Middlegate, Newcastle, Newcastle Upon Tyne NE5 5AY","description":"Everyone is welcome. Come and join us at our free community cafe. Come and enjoy a warm space with others in the community. Read a paper, play cards, have a chat and make friends. You're welcome to bring with you some knitting or your own book.","hours":"Sa 09:00-12:00","title":"West Denton Community Church"},"type":"Feature"},
		{"geometry":{"coordinates":[-1.42846,54.99404],"type":"Point"},"properties":{"_source":"warm_welcome","address":"Romilly Street, South Shields , South Tyneside NE33 2SP","description":"Open from 20th November 2022. We are open for a relaxed drop-in with soup every Sunday 1-2pm. Families are welcomed to join us for a movie with food provided and optional activities every other Sunday 4-6pm starting the 20th November.","hours":"Su 13:00-14:00","title":"Westoe Road Baptist Church "},"type":"Feature"},
		{"geometry":{"coordinates":[-1.44942,55.04330],"type":"Point"},"properties":{"_source":"warm_welcome","address":"Whitley Bay Baptist Church, Park Avenue, Whitley Bay, North Tyneside NE26 DX","description":"Open from 01-11-2022.","hours":"Tu 09:00-17:00","title":"Whitley Bay Baptist Church"},"type":"Feature"},
		{"geometry":{"coordinates":[-1.44493,55.04290],"type":"Point"},"properties":{"_source":"warm_welcome","address":"Whitley Bay CFC York Road, Whitley Bay, North Tyneside NE26 1AB","description":" Services include Books, magazines, newspaper, games & toys, free use of PCs & Wi Fi, highchairs & bottle warmers. Free hot drinks available Mon 2:30pm-5:00pm & Fri 9:30am-12:30pm ","hours":"Mo 09:00-17:30; Tu 09:00-17:30; We 09:00-17:30; Th 09:00-17:30; Fr 09:00-17:30; Sa 09:00-13:05","title":"Whitley Bay Library North Tyneside Libraries"},"type":"Feature"},
		{"geometry":{"coordinates":[-1.62815,55.04480],"type":"Point"},"properties":{"_source":"warm_welcome","address":"Canterbury Way , Wideopen, Newcastle upon Tyne NE13 6JJ","description":" Services include books, magazines, newspapers, games and toys, free use of PCs and wifi, high chairs and bottle warmer. Free hot drinks available during opening hours.","hours":"Tu 09:00-13:00; Th 09:00-13:00; Sa 09:00-13:00","title":"Wideopen Library"},"type":"Feature"}
	]
}
