{
	"type": "FeatureCollection",
	"features": [
		{"geometry":{"coordinates":[-1.46994,54.84219],"type":"Point"},"properties":{"_source":"warm_welcome","address":"The Old Rectory, The Broadway, Houghton-le-Spring, Tyne and Wear DH4 4BB","description":" Our warm space is a comfy and cosy atmosphere, with relaxing music, plenty of books, even toys and activities for the little ones","hours":"Mo 13:00-15:00, Tu 13:00-15:00, Fr 09:00-12:00","title":"Acumen Community Buildings"},"type":"Feature"},
		{"geometry":{"coordinates":[-1.59880,54.95046],"type":"Point"},"properties":{"_source":"warm_welcome","address":"Hope House, Durham Road, Gateshead NE8 4AR","description":"","hours":"Tu 11:00-13:00, Th 11:00-13:00","title":"Alive Church, St George's"},"type":"Feature"},
		{"geometry":{"coordinates":[-1.65685,54.96863],"type":"Point"},"properties":{"_source":"warm_welcome","address":"62-64 Armstrong Road, Benwell, Newcastle NE4 7TU","description":"","hours":"Mo 09:00-16:00, Tu 08:00-16:00, We 08:00-16:00, Th 08:00-16:00","title":"Cornerstone Benwell"},"type":"Feature"},
		{"geometry":{"coordinates":[-1.69076,54.93896],"type":"Point"},"properties":{"_source":"warm_welcome","address":"Ancaster Road, Whickham, Gateshead Ne16 5bq","description":"Open from 10-10-2022.","hours":"Mo 09:00-12:00, We 13:00-16:00, Fr 09:00-12:00","title":"Fellside Church"},"type":"Feature"},
		{"geometry":{"coordinates":[-1.60089,54.95125],"type":"Point"},"properties":{"_source":"warm_welcome","address":"Gateshead Central Library, Prince Consort Road, Gateshead NE8 4LN","hours":"Mo 09:00-19:00, Tu 09:00-17:00, We 09:00-17:00, Th 09:00-19:00, Fr 09:00-17:00, Sa 09:00-13:00","title":"Gateshead Libraries"},"type":"Feature"},
		{"geometry":{"coordinates":[-1.54653,54.93995],"type":"Point"},"properties":{"_source":"warm_welcome","address":"Leam Lane Library, 129 Cotemede, Leam Lane NE10 8QH","hours":"Mo 09:00-19:00, Tu 09:00-17:00, We 09:00-17:00, Th 09:00-19:00, Fr 09:00-17:00, Sa 09:00-13:00","title":"Gateshead Libraries"},"type":"Feature"},
		{"geometry":{"coordinates":[-1.59288,54.82212],"type":"Point"},"properties":{"_source":"warm_welcome","address":"Front Street, Nettlesworth, Chester-le-Street DH2 3PN","description":" We offer simple lunches and a chance to play bingo","hours":"Mo 12:00-14:00","title":"Nettlesworth Community Centre"},"type":"Feature"},
		{"geometry":{"coordinates":[-1.58765,54.93333],"type":"Point"},"properties":{"_source":"warm_welcome","address":"99 Southend Road, Low Fell, Gateshead NE9 6XS","hours":"We 09:00-12:00","title":"Place of Welcome @ Beacon Lough Baptist Church"},"type":"Feature"},
		{"geometry":{"coordinates":[-1.46435,54.96250],"type":"Point"},"properties":{"_source":"warm_welcome","address":"St. John the Baptist's Community Hall, Nairn Street, Jarrow NE32 4HX","description":"Everyone is welcome, all ages.We are here every week from 11 until 1 and can offer practical support with money matters through @CMA Connect, and support with finding work or changing jobs with South Tyneside Works and Making-A-Difference NE. We also work alongside a local Food Bank - ","hours":"Th 11:00-13:00","title":"Place of Welcome+ at St. John the Baptist's"},"type":"Feature"},
		{"geometry":{"coordinates":[-1.49249,54.96875],"type":"Point"},"properties":{"_source":"warm_welcome","address":"St. Peter's Church Centre, York Avenue, Jarrow NE32 5LP","description":"Places of Welcome+ are for all people of all ages.Places of Welcome+ are warm spaces with someone to chat to where no meoney is needed. We also ahve volunteers trained to support with money matters and can refer to local foodbank too.","hours":"Tu 11:00-13:00","title":"Place of Welcome+ at St. Peter’s Jarrow"},"type":"Feature"},
		{"geometry":{"coordinates":[-1.45533,54.97264],"type":"Point"},"properties":{"_source":"warm_welcome","address":"St. Simon's Church, Wenlock Raod, Simonside, South Shields NE34 9BP","hours":"We 11:00-13:00","title":"Place of Welcome+ at St. Simon's"},"type":"Feature"},
		{"geometry":{"coordinates":[-1.43902,54.96921],"type":"Point"},"properties":{"_source":"warm_welcome","address":"Library at Action Station, Boldon Lane, South Shields NE34 0LZ","description":"EVeryone is Welcome at Places of WelcomeWe can offer a great welcome space and free refreshments plus practical support with money matters with CAM Connect, Foodbank Referrals and help back into work or changing jobs with Making A Difference NE","hours":"Mo 11:00-13:00","title":"PlaceOfWelcome+ at Action Station"},"type":"Feature"},
		{"geometry":{"coordinates":[-1.70617,54.86164],"type":"Point"},"properties":{"_source":"warm_welcome","address":"Park Road, South Moor , Stanley, Durham DH9 7 QF","description":"","hours":"We 13:00-16:00","title":"South Moor United Methodist Church "},"type":"Feature"},
		{"geometry":{"coordinates":[-1.58087,54.94051],"type":"Point"},"properties":{"_source":"warm_welcome","address":"Windy Nook Road, Gateshead, Tyne and Wear ne10 9su","description":"","hours":"Mo 13:00-15:00","title":"St Albans Church"},"type":"Feature"},
		{"geometry":{"coordinates":[-1.51570,54.91149],"type":"Point"},"properties":{"_source":"warm_welcome","address":"Vermont, Concord, Washington , Tyne and Wear NE37 2ax","description":"","hours":"We 12:30-15:30","title":"St Andrew's Methodist church "},"type":"Feature"},
		{"geometry":{"coordinates":[-1.59011,54.79689],"type":"Point"},"properties":{"_source":"warm_welcome","address":"Front Street, Framwellgate Moor , Durham DH1 5BL","description":"Our focus is catering for elderly peopleWe serve delicious bacon butties drinks and biscuits","hours":"Th 10:00-11:30","title":"St Cuthbert and St Aidan’s Parish Hall"},"type":"Feature"},
		{"geometry":{"coordinates":[-1.59304,54.93485],"type":"Point"},"properties":{"_source":"warm_welcome","address":"Church Road, Gateshead, Gateshead, Tyne and Wear NE9 5RD","description":"","hours":"Tu 10:00-13:00, Su 08:00-12:00","title":"St Johns Parish Church, Gateshead Fell"},"type":"Feature"},
		{"geometry":{"coordinates":[-1.42315,54.89001],"type":"Point"},"properties":{"_source":"warm_welcome","address":"St Mary and St Peter's Church, Springwell Road, Sunderland, Tyne and Wear SR3 4DY","description":"Open from 19-12-2022. Our focus is older people but all are welcome We are looking forward to developing this all year as a Place of Welcome","hours":"Mo 09:00-12:00, Tu 10:00-12:00, Th 09:00-12:00, Su 09:00-11:00","title":"St Mary and St Peter's Church"},"type":"Feature"},
		{"geometry":{"coordinates":[-1.51233,54.91555],"type":"Point"},"properties":{"_source":"warm_welcome","address":"Manor Road, Washington , Tyne and wear NE37 3BB","description":"Open from 10th October 2022. We cater for all ages everyone is welcome to join us at St Michaels Our warm space is run by our charity Mickeys Place situated in the church for all ages refreshments available all day and papers books and toys available and plenty of company ","hours":"Mo 09:30-13:00, Tu 10:00-14:00, We 09:30-13:00, Fr 09:30-13:00, Su 12:45-15:00","title":"St Michael and All Angels Church, Sulgrave"},"type":"Feature"},
		{"geometry":{"coordinates":[-1.53253,54.89959],"type":"Point"},"properties":{"_source":"warm_welcome","address":"Unit O Washington Galleries, Washington, Tyne and Wear NE38 7SD","description":"Open from 01-11-2022. ALL AGES","hours":"Tu 10:00-12:00, We 10:00-12:00, Su 11:00-15:00","title":"Washington Community Food Project"},"type":"Feature"},
		{"geometry":{"coordinates":[-1.73185,54.88470],"type":"Point"},"properties":{"_source":"warm_welcome","address":"West Road, Tantobie, Stanley, Co. Durham DH9 9RX","description":"We offer a warm friendly space for everyone Children are welcome, but we do not have play equipment","hours":"Tu 10:00-13:30","title":"White-le-Head Methodist Church"},"type":"Feature"},
		{"geometry":{"coordinates":[-1.72825,54.95378],"type":"Point"},"properties":{"_source":"warm_welcome","address":"Church Street, Winlaton, Tyne And Wear NE21 6AR","description":"","hours":"Mo 09:00-13:00, Tu 09:00-13:00, Th 09:00-13:00, Fr 09:00-16:00, Sa 09:00-12:00","title":"Winlaton Library"},"type":"Feature"}
	]
}
