{
	"type": "FeatureCollection",
	"features": [
		{"geometry":{"coordinates":[-1.68047,54.65473],"type":"Point"},"properties":{"_source":"warm_welcome","address":"1 WESTFIELD ROAD, BISHOP AUCKLAND, COUNTY DURHAM DL14 6AE","description":"Everyone is welcome We work with our neighbours, Bishop Auckland Methodist Church, they are open as a Warm Space 10:00 to 15:00 Mondays and Fridays, so between us, we offer five days a week.","hours":"Tu 10:00-15:00, We 10:00-15:00, Th 10:00-15:00","title":"Bishop Auckland Baptist Church"},"type":"Feature"},
		{"geometry":{"coordinates":[-1.67700,54.65569],"type":"Point"},"properties":{"_source":"warm_welcome","address":"21 Cockton Hill Road, Bishop Auckland, Durham DL14 6EN","description":"Open from 31-10-2022. The Baptist Church across the street is open Tue-Thurs","hours":"Mo 10:00-15:00, Fr 10:00-15:00","title":"Bishop Auckland Methodist Church"},"type":"Feature"},
		{"geometry":{"coordinates":[-1.67254,54.66586],"type":"Point"},"properties":{"_source":"warm_welcome","address":"ST. ANNES CHURCH, MARKET PLACE, BISHOP AUCKLAND DL14 7NP","description":"Open from 2 November 2022. Hot drinks and snacks served throughout, soup lunch 12-1.","hours":"We 10:00-13:30","title":"St Anne's Church - Bishop Auckland Parish Church"},"type":"Feature"},
		{"geometry":{"coordinates":[-1.44045,54.74938],"type":"Point"},"properties":{"_source":"warm_welcome","address":"9-10 Greenwood Cottages, Thornley, Durham DH6 3HF","hours":"Mo 09:00-12:30, Tu 09:00-19:00, We 09:00-14:30, Th 09:00-14:30, Fr 09:00-17:00","title":"The Little House of Hope"},"type":"Feature"},
		{"geometry":{"coordinates":[-1.42659,54.71431],"type":"Point"},"properties":{"_source":"warm_welcome","address":"Kielder drive, Trimdon Grange, Durham TS29 6PB","description":"","hours":"Mo 10:30-12:30, Tu 10:30-12:30, We 10:30-12:30, Th 10:30-12:30, Fr 10:30-12:30","title":"Trimdon Grange Community-Centre "},"type":"Feature"},
		{"geometry":{"coordinates":[-1.68703,54.65644],"type":"Point"},"properties":{"_source":"warm_welcome","address":"Proudfoot Drive, Bishop Auckland, Durham DL14 6TU","hours":"Mo 09:30-14:30, Tu 09:30-14:30, We 09:30-14:30","title":"Woodhouse Close Church"},"type":"Feature"},
		{"geometry":{"coordinates":[-1.67062,54.65643],"type":"Point"},"properties":{"_source":"warm_spaces","address":"South Church Road, Bishop Auckland, England, DL14","title":"Wear Valley Christian Centre","url":"https://www.facebook.com/people/Wear-Valley-Christian-Centre/100064858293616/"},"type":"Feature"}
	]
}
