{
	"type": "FeatureCollection",
	"features": [
		{"geometry":{"coordinates":[-1.68047,54.65473],"type":"Point"},"properties":{"_source":"warm_welcome","address":"1 WESTFIELD ROAD, BISHOP AUCKLAND, COUNTY DURHAM DL14 6AE","description":"Everyone is welcome We work with our neighbours, Bishop Auckland Methodist Church, they are open as a Warm Space 10:00 to 15:00 Mondays and Fridays, so between us, we offer five days a week.","hours":"Tu 10:00-15:00; We 10:00-15:00; Th 10:00-15:00","title":"Bishop Auckland Baptist Church"},"type":"Feature"},
		{"geometry":{"coordinates":[-1.67700,54.65569],"type":"Point"},"properties":{"_source":"warm_welcome","address":"21 Cockton Hill Road, Bishop Auckland, Durham DL14 6EN","description":"Open from 31-10-2022. The Baptist Church across the street is open Tue-Thurs","hours":"Mo 10:00-15:00; Fr 10:00-15:00","title":"Bishop Auckland Methodist Church"},"type":"Feature"},
		{"geometry":{"coordinates":[-1.67254,54.66586],"type":"Point"},"properties":{"_source":"warm_welcome","address":"ST. ANNES CHURCH, MARKET PLACE, BISHOP AUCKLAND DL14 7NP","description":"Open from 2 November 2022. Hot drinks and snacks served throughout, soup lunch 12-1.","hours":"We 10:00-13:30","title":"St Anne's Church - Bishop Auckland Parish Church"},"type":"Feature"},
		{"geometry":{"coordinates":[-1.60853,54.69527],"type":"Point"},"properties":{"_source":"warm_welcome","address":"Whitworth Terrace, Spennymoor, Durham DL16 7SG","description":"Open from 30/11/2022.","hours":"We 09:30-12:00; Fr 10:00-11:30","title":"St Paul's Church, Spennymoor"},"type":"Feature"},
		{"geometry":{"coordinates":[-1.44045,54.74938],"type":"Point"},"properties":{"_source":"warm_welcome","address":"9-10 Greenwood Cottages, Thornley, Durham DH6 3HF","hours":"Mo 09:00-12:30; Tu 09:00-19:00; We 09:00-14:30; Th 09:00-14:30; Fr 09:00-17:00","title":"The Little House of Hope"},"type":"Feature"},
		{"geometry":{"coordinates":[-1.42659,54.71431],"type":"Point"},"properties":{"_source":"warm_welcome","address":"Kielder drive, Trimdon Grange, Durham TS29 6PB","description":"","hours":"Mo 10:30-12:30; Tu 10:30-12:30; We 10:30-12:30; Th 10:30-12:30; Fr 10:30-12:30","title":"Trimdon Grange Community-Centre "},"type":"Feature"},
		{"geometry":{"coordinates":[-1.68703,54.65644],"type":"Point"},"properties":{"_source":"warm_welcome","address":"Proudfoot Drive, Bishop Auckland, Durham DL14 6TU","hours":"Mo 09:30-14:30; Tu 09:30-14:30; We 09:30-14:30","title":"Woodhouse Close Church"},"type":"Feature"},
		{"geometry":{"coordinates":[-1.67062,54.65643],"type":"Point"},"properties":{"_source":"warm_spaces","address":"South Church Road, Bishop Auckland, England, DL14","title":"Wear Valley Christian Centre","url":"https://www.facebook.com/people/Wear-Valley-Christian-Centre/100064858293616/"},"type":"Feature"},
		{"geometry":{"coordinates":[-1.70786,54.63693],"type":"Point"},"properties":{"_source":"warm_spaces","address":"St Helen&#39;s Parish Centre, Middlewood Avenue, Bishop Auckland, England, DL14 9DJ","title":"St Helen's"},"type":"Feature"},
		{"geometry":{"coordinates":[-1.67822,54.65490],"type":"Point"},"properties":{"_source":"warm_spaces","address":"1 Westfield Road, Bishop Auckland, England, DL14 6AQ","title":"Bishop Auckland Baptist Church","url":"http://www.bishopbaptists.co.uk"},"type":"Feature"},
		{"geometry":{"coordinates":[-1.50632,54.77486],"type":"Point"},"properties":{"_source":"durham_county_council","address":"Front Street, Sherburn Village, Durham, County Durham, DH6 1HD","contact":"Telephone: 0191 372 0272 Email: raymond.pye1@btinternet.com","title":"Sherburn Community Association","url":"https://www.durhamlocate.org.uk"},"type":"Feature"},
		{"geometry":{"coordinates":[-1.64504,54.63401],"type":"Point"},"properties":{"_source":"durham_county_council","address":"Shildon Alive!, 91-95 Church, Shildon, County Durham, DL4 1DT","contact":"Telephone: 01388 417 600 Email: paula124nelson@gmail.com","title":"Shildon Alive!","url":"https://www.durhamlocate.org.uk"},"type":"Feature"},
		{"geometry":{"coordinates":[-1.52067,54.70289],"type":"Point"},"properties":{"_source":"durham_county_council","address":"66-70 High Street, West Cornforth, County Durham, DL17 9HS","contact":"Telephone: 01740 652 000 Email: enquiries@cornforthpartnership.org","title":"The Cornforth Partnership","url":"https://www.durhamlocate.org.uk"},"type":"Feature"},
		{"geometry":{"coordinates":[-1.42790,54.69659],"type":"Point"},"properties":{"_source":"durham_county_council","address":"Trimdon Village Hall, Hallgarth Road, Trimdon Village, TS29 6JX","contact":"Email: geoffappleton1@aol.com","title":"Trimdon Village Hall","url":"https://www.durhamlocate.org.uk"},"type":"Feature"},
		{"geometry":{"coordinates":[-1.57481,54.77446],"type":"Point"},"properties":{"_source":"durham_county_council","address":"4 North Bailey, Durham, County Durham, DH1 3ET","contact":"Telephone: 0191 386 4088 Email: info.alingtonhouse@gmail.com","title":"Alington House Community Association","url":"https://www.durhamlocate.org.uk"},"type":"Feature"},
		{"geometry":{"coordinates":[-1.74180,54.71679],"type":"Point"},"properties":{"_source":"durham_county_council","address":"Church Hill, Crook, County Durham, DL15 9DN","contact":"Telephone: 01388 765 002 Email: info@jackdrum.co.uk","title":"Jack Drum Arts","url":"https://www.durhamlocate.org.uk"},"type":"Feature"},
		{"geometry":{"coordinates":[-1.67581,54.66053],"type":"Point"},"properties":{"_source":"durham_county_council","address":"154a Newgate Street, Bishop Auckland, County Durham, DL14 7EH","contact":"Telephone: 01388 609 852 Email: reception@fourclockscentre.org.uk","title":"Four Clocks Community Centre","url":"https://www.durhamlocate.org.uk"},"type":"Feature"},
		{"geometry":{"coordinates":[-1.61087,54.69677],"type":"Point"},"properties":{"_source":"durham_county_council","address":"St Pauls Centre Spennymoor, St Pauls Gardens, Spennymoor, County Durham, DL16 7LR","contact":"Telephone: 01388 813404 Email: stpaulscentre@btconnect.com","title":"St Pauls Centre Spennymoor","url":"https://www.durhamlocate.org.uk"},"type":"Feature"},
		{"geometry":{"coordinates":[-1.41478,54.74522],"type":"Point"},"properties":{"_source":"durham_county_council","address":"Stephens Terrace, Wheatley Hill, County Durham, DH6 3JS","contact":"Telephone: 01429 820 214 Email: admin@greenhillscentre.co.uk","title":"Wheatley Hill Community Association","url":"https://www.durhamlocate.org.uk"},"type":"Feature"},
		{"geometry":{"coordinates":[-1.42597,54.71436],"type":"Point"},"properties":{"_source":"durham_county_council","address":"Trimdon Grange Community Centre, Salters Lane, Kielder Drive, Trimdon Grange, County Durham, TS29 6PB","contact":"Telephone: 07899 824 429 Email: tgcc2014@gmail.com","title":"Trimdon Grange Community Centre","url":"https://www.durhamlocate.org.uk"},"type":"Feature"},
		{"geometry":{"coordinates":[-1.67259,54.66594],"type":"Point"},"properties":{"_source":"durham_county_council","address":"Bishop Auckland Library, Bishop Auckland Town Hall, Market Place, Bishop Auckland, County Durham, DL14 7NP","contact":"Telephone: 03000 269 524 Email: bath@durham.gov.uk","title":"Bishop Auckland Library","url":"https://www.durhamlocate.org.uk"},"type":"Feature"},
		{"geometry":{"coordinates":[-1.52443,54.73390],"type":"Point"},"properties":{"_source":"durham_county_council","address":"Bowburn Library, Durham Road, Bowburn, County Durham, DH6 5AT","contact":"Telephone: 03000 269 528 Email: bowburn.lib@durham.gov.uk","title":"Bowburn Library","url":"https://www.durhamlocate.org.uk"},"type":"Feature"},
		{"geometry":{"coordinates":[-1.63061,54.75096],"type":"Point"},"properties":{"_source":"durham_county_council","address":"Brandon Library, Lowland Road, Brandon, County Durham, DH7 8NN","contact":"Telephone: 03000 269 501 Email: brandon.lib@durham.gov.uk","title":"Brandon Library","url":"https://www.durhamlocate.org.uk"},"type":"Feature"},
		{"geometry":{"coordinates":[-1.62719,54.66176],"type":"Point"},"properties":{"_source":"durham_county_council","address":"Coundon Library, The Eden Centre, Victoria Lane, Coundon, Bishop Auckland, County Durham, DL14 8NL","contact":"Telephone: Telephone 03000 269 525 Email: coundonlib@durham.gov.uk","title":"Coundon Library","url":"https://www.durhamlocate.org.uk"},"type":"Feature"},
		{"geometry":{"coordinates":[-1.74579,54.71550],"type":"Point"},"properties":{"_source":"durham_county_council","address":"Crook Library and CAP, Civic Centre, North Terrace, Crook, County Durham, DL15 9ES","contact":"Telephone: 03000 269 002 Email: crook.lib@durham.gov.uk","title":"Crook Library","url":"https://www.durhamlocate.org.uk"},"type":"Feature"},
		{"geometry":{"coordinates":[-1.71023,54.76735],"type":"Point"},"properties":{"_source":"durham_county_council","address":"Esh Winning Library, The Wynds, Esh Winning, County Durham, DH7 9AD","contact":"Telephone: 03000 265 002 Email: eshwinning.lib@durham.gov.uk","title":"Esh Winning Library","url":"https://www.durhamlocate.org.uk"},"type":"Feature"},
		{"geometry":{"coordinates":[-1.55380,54.69010],"type":"Point"},"properties":{"_source":"durham_county_council","address":"Ferryhill Library, North Street, Ferryhill, County Durham, DL17 8HX","contact":"Telephone: 03000 269 530 Email: ferryhill.lib@durham.gov.uk","title":"Ferryhill Library","url":"https://www.durhamlocate.org.uk"},"type":"Feature"},
		{"geometry":{"coordinates":[-1.75414,54.64820],"type":"Point"},"properties":{"_source":"durham_county_council","address":"Toft Hill and Etherley Community Centre, Southfield Drive, Bishop Auckland, County Durham, DL14 0JB","contact":"Email: joan_sloshes@hotmail.co.uk","title":"Toft Hill and Etherley Community Centre","url":"https://www.durhamlocate.org.uk"},"type":"Feature"},
		{"geometry":{"coordinates":[-1.44840,54.65377],"type":"Point"},"properties":{"_source":"durham_county_council","address":"Sedgefield Library, Front Street, Sedgefield, Stockton-on-Tees, Cleveland, TS21 3AT","contact":"Telephone: 03000 269 521 Email: sedgefield.lib@durham.gov.uk","title":"Sedgefield Library","url":"https://www.durhamlocate.org.uk"},"type":"Feature"},
		{"geometry":{"coordinates":[-1.64779,54.63358],"type":"Point"},"properties":{"_source":"durham_county_council","address":"Shildon Library, Church Street, Shildon, County Durham, DL4 1DU","contact":"Telephone: 03000 269 526 Email: shildon.lib@durham.gov.uk","title":"Shildon Library","url":"https://www.durhamlocate.org.uk"},"type":"Feature"},
		{"geometry":{"coordinates":[-1.55888,54.65994],"type":"Point"},"properties":{"_source":"durham_county_council","address":"Chilton Library, Durham Road, Chilton, Ferryhill, County Durham, DL17 0EX","contact":"Telephone: 03000 269 518 Email: chilton.lib@durham.gov.uk","title":"Chilton Library","url":"https://www.durhamlocate.org.uk"},"type":"Feature"},
		{"geometry":{"coordinates":[-1.57424,54.61910],"type":"Point"},"properties":{"_source":"durham_county_council","address":"Newton Aycliffe Library, Beveridge Way,, Newton Aycliffe, County Durham, DL5 4EH","contact":"Telephone: 03000 269 519 Email: newtonayc.lib@durham.gov.uk","title":"Newton Aycliffe Library","url":"https://www.durhamlocate.org.uk"},"type":"Feature"},
		{"geometry":{"coordinates":[-1.59942,54.70015],"type":"Point"},"properties":{"_source":"durham_county_council","address":"Spennymoor Library, 24 Cheapside, Spennymoor, County Durham, DL16 6DJ","contact":"Telephone: 03000 269 531 Email: spennymoor.lib@durham.gov.uk","title":"Spennymoor Library","url":"https://www.durhamlocate.org.uk"},"type":"Feature"},
		{"geometry":{"coordinates":[-1.43536,54.74940],"type":"Point"},"properties":{"_source":"durham_county_council","address":"Thornley Library, High Street, Thornley, County Durham, DH6 3EL","contact":"Telephone: Telephone 03000 269 520 Email: thornley.lib@durham.gov.uk","title":"Thornley Library","url":"https://www.durhamlocate.org.uk"},"type":"Feature"},
		{"geometry":{"coordinates":[-1.42846,54.69984],"type":"Point"},"properties":{"_source":"durham_county_council","address":"Trimdon Library, Church Road, Trimdon, County Durham, TS29 6PY","contact":"Telephone: Telephone 03000 269 522 Email: trimdon.lib@durham.gov.uk","title":"Trimdon Library","url":"https://www.durhamlocate.org.uk"},"type":"Feature"},
		{"geometry":{"coordinates":[-1.69376,54.71108],"type":"Point"},"properties":{"_source":"durham_county_council","address":"Willington Library, 46a High Street, Willington, County Durham, DL15 0PG","contact":"Telephone: 03000 269 532 Email: willington.lib@durham.gov.uk","title":"Willington Library","url":"https://www.durhamlocate.org.uk"},"type":"Feature"},
		{"geometry":{"coordinates":[-1.68090,54.65030],"type":"Point"},"properties":{"_source":"durham_county_council","address":"Woodhouse Close Library, Woodhouse Lane, Bishop Auckland, County Durham, DL14 6JX","contact":"Telephone: 03000 269 527 Email: woodhousecl.lib@durham.gov.uk","title":"Woodhouse Close Library","url":"https://www.durhamlocate.org.uk"},"type":"Feature"},
		{"geometry":{"coordinates":[-1.68485,54.64627],"type":"Point"},"properties":{"_source":"durham_county_council","address":"Woodhouse Close Church Community Centre, Proudfoot Drive, Bishop Auckland, County Durham, DL14 6PD","contact":"Telephone: 01388 450 838 Email: whclosecomm@gmail.com","title":"Woodhouse Close Church, Bishop Auckland","url":"https://www.durhamlocate.org.uk"},"type":"Feature"},
		{"geometry":{"coordinates":[-1.68661,54.64755],"type":"Point"},"properties":{"_source":"durham_county_council","address":"Auckland Youth and Community Centre, Walker Drive, Woodhouse Close Estate, Bishop Auckland, County Durham, DL14 6QL","contact":"Telephone: 01388 604 575 Email: info.aycc@btconnect.com","title":"Auckland Youth and Community Centre","url":"https://www.durhamlocate.org.uk"},"type":"Feature"},
		{"geometry":{"coordinates":[-1.58059,54.63024],"type":"Point"},"properties":{"_source":"durham_county_council","address":"Pioneering Care Centre, Carers Way, Newton Aycliffe, County Durham, DL5 4SF","contact":"Telephone: 01325 321 234 Email: enquiries@pcp.uk.net","title":"Pioneering Care Partnership","url":"https://www.durhamlocate.org.uk"},"type":"Feature"},
		{"geometry":{"coordinates":[-1.71040,54.63574],"type":"Point"},"properties":{"_source":"durham_county_council","address":"St Helen Auckland, Manor Road, St Helen Auckland, Bishop Auckland, West Auckland, County Durham, DL14 9EN","contact":"Telephone: 01388 604 152","title":"St Helen Auckland, West Auckland","url":"https://www.durhamlocate.org.uk"},"type":"Feature"},
		{"geometry":{"coordinates":[-1.74589,54.65068],"type":"Point"},"properties":{"_source":"durham_county_council","address":"St Cuthbert&#39;s Church, Church Road, Etherley, County Durham, DL14 0HJ","contact":"Telephone: 01388 833 118","title":"St Cuthbert&#39;s Church, Etherley","url":"https://www.durhamlocate.org.uk"},"type":"Feature"},
		{"geometry":{"coordinates":[-1.68086,54.65480],"type":"Point"},"properties":{"_source":"durham_county_council","address":"Bishop Auckland Baptist Church, Westfield Road, Bishop Auckland, County Durham, DL14 6AE","contact":"Telephone: 07791 564 101 Email: crawfordclose@gmail.com","title":"Bishop Auckland Baptist Church","url":"https://www.durhamlocate.org.uk"},"type":"Feature"},
		{"geometry":{"coordinates":[-1.51999,54.70275],"type":"Point"},"properties":{"_source":"durham_county_council","address":"Cornforth Library, High Street, West Cornforth, Ferryhill, County Durham, DL17 9HP","contact":"Telephone: Telephone 03000 269 529 Email: cornforth.lib@durham.gov.uk","title":"Cornforth Library","url":"https://www.durhamlocate.org.uk"},"type":"Feature"},
		{"geometry":{"coordinates":[-1.67673,54.65623],"type":"Point"},"properties":{"_source":"durham_county_council","address":"Bishop Auckland Methodist Church, 21 Cockton Hill Road, Bishop Auckland, County Durham, DL14 6EN","contact":"Telephone: 01388 603 142","title":"Bishop Auckland Methodist Church","url":"https://www.durhamlocate.org.uk"},"type":"Feature"},
		{"geometry":{"coordinates":[-1.44044,54.74934],"type":"Point"},"properties":{"_source":"durham_county_council","address":"The Little House of Hope, 9-10 Greenwood Cottages, Thornley, Durham, DH6 3HF","contact":"Telephone: 07478 942140 Email: thelittlehouseofhope@gmail.com","title":"The Little House of Hope","url":"https://www.durhamlocate.org.uk"},"type":"Feature"},
		{"geometry":{"coordinates":[-1.69144,54.71124],"type":"Point"},"properties":{"_source":"durham_county_council","address":"Fareshare, Willington Open Door Church, Welsey Street, Willington, County Durham, DL15 0AG","contact":"Telephone: 01388 745460 Email: willingtonopendoorchurch@gmail.com","title":"Willington Open Door Church","url":"https://www.durhamlocate.org.uk"},"type":"Feature"},
		{"geometry":{"coordinates":[-1.71087,54.63716],"type":"Point"},"properties":{"_source":"durham_county_council","address":"LCBC Community Hub, Selby Close, St. Helen Auckland, County Durham, DL14 9ED","contact":"Email: info@littlechefsbigchefs.org.uk","title":"Little Chefs, Big Chefs","url":"https://www.durhamlocate.org.uk"},"type":"Feature"},
		{"geometry":{"coordinates":[-1.74423,54.71567],"type":"Point"},"properties":{"_source":"durham_county_council","address":"North Terrace, Crook, County Durham, DL15 9AZ","contact":"Email: Welfare@crookrafa.org.uk","title":"Royal Air Force Association - Crook","url":"https://www.durhamlocate.org.uk"},"type":"Feature"},
		{"geometry":{"coordinates":[-1.55574,54.68847],"type":"Point"},"properties":{"_source":"durham_county_council","address":"St Lukes Parish Centre, St Luke&#39;s Church Lane, Ferryhill, County Durham, DL17 8LT","contact":"Telephone: 01740 655 232 Email: garynorman266@gmail.com","title":"St Lukes Parish Centre Ferryhill","url":"https://www.durhamlocate.org.uk"},"type":"Feature"},
		{"geometry":{"coordinates":[-1.43366,54.68255],"type":"Point"},"properties":{"_source":"durham_county_council","address":"Fishburn Youth and community Centre, Butterwick Rd, Fishburn, Stockton-on-Tees, Cleveland, TS21 4ED","contact":"Telephone: 01740 629 536 Email: enquiries@fycc.org.uk","title":"Fishburn Youth &amp; Community Centre","url":"https://www.durhamlocate.org.uk"},"type":"Feature"},
		{"geometry":{"coordinates":[-1.41968,54.60649],"type":"Point"},"properties":{"_source":"stockton-on-tees_council","address":"2 Forest Park, Stillington, TS21 1NW","description":"Accessible entrance, free Wi-Fi, hot and cold refreshments, charging facilities, reading materials, accessible toilets, activities, baby changing facilities, and free car parking.","hours":"Mo-Su 00:00-00:00","title":"Stillington Village Hall"},"type":"Feature"}
	]
}
