{
	"type": "FeatureCollection",
	"features": [
		{"geometry":{"coordinates":[-1.43626,54.34237],"type":"Point"},"properties":{"_source":"warm_welcome","address":"All Church Saints, Northallerton, North Yorkshire DL7 8LU","description":" We have a small library, magazines, jigsaws etc. We are a working church and occassionally times may change ","hours":"Tu 12:00-16:00, We 10:00-13:00","title":"All Saints Church"},"type":"Feature"},
		{"geometry":{"coordinates":[-1.65625,54.22234],"type":"Point"},"properties":{"_source":"warm_welcome","address":"7 Little Market Place, masham, Ripon HG4 4DY","description":" NYCC Libraries computer access for members, first 60 minutes free","hours":"Mo 10:00-15:00, Tu 10:00-15:00, We 10:00-15:00, Th 10:00-15:00, Fr 10:00-15:00, Sa 10:00-13:00","title":"Mashamshire Community Library"},"type":"Feature"},
		{"geometry":{"coordinates":[-1.43716,54.34311],"type":"Point"},"properties":{"_source":"warm_welcome","address":"52-54 High Street, Northallerton, North Yorkshire DL7 8EG","description":"Open from 28-11-2022. We will be open 10.00am - 4.00pm on Mon 28 & Tues 29 November, Mon 5 & Tues 6 December and Mon 12 & Tues 13 December 2022","hours":"Mo 10:00-16:00, Tu 10:00-16:00","title":"New Life Baptist Church, Northallerton"},"type":"Feature"},
		{"geometry":{"coordinates":[-1.43390,54.33859],"type":"Point"},"properties":{"_source":"warm_welcome","address":"178 High Street , Northallerton , North Yorkshire DL7 8JZ","description":"","hours":"We 10:00-12:00, Sa 10:00-12:00, Su 10:00-12:00","title":"Northallerton Zion URC "},"type":"Feature"},
		{"geometry":{"coordinates":[-1.59278,54.25362],"type":"Point"},"properties":{"_source":"warm_welcome","address":"Snape Methodist Church, Snape, Bedale, North Yorkshire DL8 2SZ","description":"Open from 02-11-2022. Our space is open on the first Wednesday of the month and thereafter fortnightly on a Wednesday. It is also open on the weeks in between on a Tuesday on a fortnightly basis.","hours":"Tu 13:30-16:30, We 13:30-16:30","title":"Snape Methodist Church and Snape Village Institute"},"type":"Feature"},
		{"geometry":{"coordinates":[-1.43608,54.34040],"type":"Point"},"properties":{"_source":"warm_welcome","address":"5 Garthway Arcade, Northallerton, North Yorkshire DL7 8NS","description":"Open from 06.12.2019. We offer a quiet shared space where it is ok not to be ok We are part of the Renew Wellbeing network https://www.renewwellbeing.org.uk/","hours":"Mo 10:00-13:00, Tu 10:00-13:00, We 10:00-13:00, Fr 10:00-13:00","title":"The Living Rooms, Northallerton"},"type":"Feature"}
	]
}
