{
	"type": "FeatureCollection",
	"features": [
		{"geometry":{"coordinates":[-1.45516,54.00867],"type":"Point"},"properties":{"_source":"warm_welcome","address":"Chain Lane Community Hub, Knaresborough, North Yorkshire HG5 0AS","description":"We cater for everyone We have a range of board games, books, hot drinks and biscuits every Friday 9-12pm We look forward to welcoming you at Chain Lane Community Hub","hours":"Fr 09:00-12:00","title":"Chain Lane Community Hub"},"type":"Feature"},
		{"geometry":{"coordinates":[-1.53421,54.00237],"type":"Point"},"properties":{"_source":"warm_welcome","address":"71 Skipton Road, Harrogate, North Yorkshire HG1 4LF","description":"","title":"Full Circle Funerals Ltd"},"type":"Feature"},
		{"geometry":{"coordinates":[-1.53420,53.99443],"type":"Point"},"properties":{"_source":"warm_welcome","address":"Harrogate Elim Church, Harrogate, North Yorkshire HG1 5LZ","description":"","hours":"We 11:00-14:00, Su 10:30-12:00","title":"Harrogate Elim Church"},"type":"Feature"},
		{"geometry":{"coordinates":[-1.53805,53.99080],"type":"Point"},"properties":{"_source":"warm_welcome","address":"Victoria Avenue, Harrogate, ENG HG1 1EG","description":"","hours":"Mo 09:00-19:00, Tu 09:00-19:00, We 09:00-19:00, Th 10:00-18:00, Fr 09:00-19:00, Sa 09:00-16:00","title":"Harrogate Library"},"type":"Feature"},
		{"geometry":{"coordinates":[-1.51208,53.99045],"type":"Point"},"properties":{"_source":"warm_welcome","address":"71 Wetherby Rd, Harrogate, North Yorkshire HG2 7SG","description":"","hours":"Fr 08:30-12:30","title":"Harrogate Vineyard, Woodlands Methodist, Kairos Network Church"},"type":"Feature"},
		{"geometry":{"coordinates":[-1.46709,54.00814],"type":"Point"},"properties":{"_source":"warm_welcome","address":"The Market Place, Knaresborough, North Yorkshire HG5 8AG","description":" We have a hot drinks machine - tea, coffee & hot choc is only Â£1 a cup","hours":"Mo 09:30-17:00, Tu 09:30-17:00, We 09:30-17:00, Th 09:30-13:30, Fr 09:30-19:00, Sa 09:30-13:30","title":"Knaresborough Library"},"type":"Feature"},
		{"geometry":{"coordinates":[-1.53528,53.99119],"type":"Point"},"properties":{"_source":"warm_welcome","address":"Harrogate Baptist Church Community Hall, Harrogate, North Yorkshire HG1 5RD","description":"","hours":"Mo 10:30-12:00","title":"Renew HG1"},"type":"Feature"},
		{"geometry":{"coordinates":[-1.52353,54.13128],"type":"Point"},"properties":{"_source":"warm_welcome","address":"Lister house, Ripon, North Yorks hg4 1pg","description":"Open from 07-12-2022.","hours":"We 14:00-16:00","title":"Royal British Legion"},"type":"Feature"},
		{"geometry":{"coordinates":[-1.55069,53.98805],"type":"Point"},"properties":{"_source":"warm_welcome","address":"2 Harlow Terrace, Harrogate, N Yorks HG2 0PN","description":"Open from 02/11/22. We cater for all ages, there is space for toddler play, adult and child-friendly craft and a quiet space. Come and join us for a coffee and chat, a chance to try something new, or some time to 'just be'. Take Time - Community Cafe with Activities.","hours":"We 10:00-11:30, Th 10:00-11:30","title":"Take Time - at Kairos Network Church"},"type":"Feature"}
	]
}
