{
	"type": "FeatureCollection",
	"features": [
		{"geometry":{"coordinates":[-1.42809,53.23733],"type":"Point"},"properties":{"_source":"warm_welcome","address":"38 Saltergate, Chesterfield, Derbyshire S40 1UH","description":"All are welcome. Children catered for Direct access from the street, all areas wheelchair accessible. TV screen for showing films, play video games , not mainstream TV. Cornerstone Christian Bookshop and Coffee Shop open every day except Wednesday and Sunday 10:00 - 15:00.","hours":"Fr 15:00-18:00","title":"Central Methodist Church, Chesterfield, Derbyshire S40 1UH"},"type":"Feature"},
		{"geometry":{"coordinates":[-1.43497,53.24006],"type":"Point"},"properties":{"_source":"warm_welcome","address":"Chesterfield Baptist Church, Cross Street, Chesterfield S40 4ST","description":" Every Wednesday - Renew Cross Street - Wellbeing Cafe. Saturdays (once a month) - Waste Not Cafe. Please visit our website for further details.","hours":"We 10:00-16:00; Su 18:00-19:30","title":"Chesterfield Baptist Church"},"type":"Feature"},
		{"geometry":{"coordinates":[-1.42478,53.25363],"type":"Point"},"properties":{"_source":"warm_welcome","address":"The Hub, East Stand., Chesterfield, Derbyshire s418nz","description":"","hours":"Mo 17:00-19:30; Tu 17:00-19:30; We 17:00-19:30; Th 17:00-19:30; Fr 17:00-19:30","title":"Chesterfield FC Community Trust"},"type":"Feature"},
		{"geometry":{"coordinates":[-1.47185,53.24622],"type":"Point"},"properties":{"_source":"warm_welcome","address":"41 Mercaston Close, Holme Hall, CHESTERFIELD, Derbyshire S40 4UE","description":"Our focus is on elderly people and those who are lonely and vulnerable.","hours":"Tu 12:00-16:00; Fr 12:00-16:00","title":"Holme Hall Unite"},"type":"Feature"},
		{"geometry":{"coordinates":[-1.45890,53.32235],"type":"Point"},"properties":{"_source":"warm_welcome","address":"Jordanthorpe Library, 15 Jordanthorpe Centre, Sheffield S8 8DX","description":"","hours":"Tu 09:30-12:30; We 10:00-13:00; Fr 13:30-16:30; Sa 10:00-13:00","title":"Jordanthorpe Library"},"type":"Feature"},
		{"geometry":{"coordinates":[-1.45976,53.24329],"type":"Point"},"properties":{"_source":"warm_welcome","address":"Loundsley Green Community Centre, Cuttholme Road, Chesterfield s40 4qu","description":"Open from 15-11-2022. All welcome, wheelchair friendly. Skilled volunteers. Toys, games, books and magazines available ","hours":"Tu 10:00-13:00","title":"morgansue"},"type":"Feature"},
		{"geometry":{"coordinates":[-1.67358,53.28361],"type":"Point"},"properties":{"_source":"warm_welcome","address":"The Church Centre, Church Street, Eyam S32 5QH","description":" We also holiday@home which is an all-day event with free food and various activities","hours":"Fr 11:00-16:00","title":"Open Doors Eyam Church Centre"},"type":"Feature"},
		{"geometry":{"coordinates":[-1.46864,53.23158],"type":"Point"},"properties":{"_source":"warm_welcome","address":"Upper Moor Street, Chesterfield, Derbyshire S40 3NR","description":"Open from 08/11/2022. 2nd, 3rd & 4th Tuesdays each month.","hours":"Tu 09:00-12:00","title":"Storrs Road Methodist Church"},"type":"Feature"},
		{"geometry":{"coordinates":[-1.49114,53.32024],"type":"Point"},"properties":{"_source":"warm_welcome","address":"232 Lowedges Road, SHEFFIELD, South Yorkshire S8 7JB","description":"","hours":"Mo 09:00-17:00; Tu 09:30-14:00; We 10:00-17:00; Th 09:30-12:00; Fr 09:30-15:00","title":"The Terminus Initiative"},"type":"Feature"},
		{"geometry":{"coordinates":[-1.59195,53.16079],"type":"Point"},"properties":{"_source":"warm_welcome","address":"The Whitworth, Station Road, Station Road, Darley Dale, Derbyshire DE4 2EQ","description":"Open from November until March.","hours":"We 09:30-16:30","title":"The Whitworth- Warm Wednesdays"},"type":"Feature"},
		{"geometry":{"coordinates":[-1.52568,53.31926],"type":"Point"},"properties":{"_source":"warm_welcome","address":"1 Grove Road , Totley , Sheffield S17 4DJ","description":"Open from 1/11/2022. Everyone welcome for free hot drinks, WiFi & charging station in this warm space. Everyone welcome every Tuesday 10am til 12pm. All welcome to join us for free w","hours":"Tu 10:00-12:00","title":"Totley Rise Methodist Church "},"type":"Feature"},
		{"geometry":{"coordinates":[-1.40856,53.19088],"type":"Point"},"properties":{"_source":"warm_welcome","address":"68 Queen Victoria Road , Chesterfield , Derbyshire S42 6BL","description":" Mondays (term-time), free toddler group. Thursdays, open living room with hot drinks and peace. Fridays, free caf√© with soup, cake, drinks and more! All are welcome.","hours":"Mo 09:00-11:00; Th 10:00-12:00; Fr 10:00-12:00","title":"Tupton Edge Centre, Edge Ministries "},"type":"Feature"},
		{"geometry":{"coordinates":[-1.43280,53.22034],"type":"Point"},"properties":{"_source":"warm_welcome","address":"Burns Close, Chesterfield , Derbyshire S40 2SW","description":"","hours":"Mo 10:00-15:00; Tu 10:00-15:00; Th 12:00-14:30; Fr 12:45-15:00","title":"Umbrellas Cosy Hub "},"type":"Feature"},
		{"geometry":{"coordinates":[-1.40840,53.19061],"type":"Point"},"properties":{"_source":"warm_spaces","address":"Tupton Edge Centre, Queen Victoria Road, Chesterfield, England, S42 6BL","title":"Tupton Edge Centre","url":"https://www.facebook.com/TuptonPC"},"type":"Feature"},
		{"geometry":{"coordinates":[-1.41545,53.18473],"type":"Point"},"properties":{"_source":"warm_spaces","address":"Old Tupton Methodist Church, 96 Nethermoor Road, Chesterfield, England, S42 6EN","title":"Old Tupton Methodist Church","url":"https://www.facebook.com/TuptonPC"},"type":"Feature"},
		{"geometry":{"coordinates":[-1.41712,53.18495],"type":"Point"},"properties":{"_source":"warm_spaces","address":"Tupton Community Hub, Nethermoor Road, Chesterfield, England, S42 6EN","title":"Tupton Community Hub","url":"https://www.facebook.com/TuptonPC"},"type":"Feature"}
	]
}
