{
	"type": "FeatureCollection",
	"features": [
		{"geometry":{"coordinates":[-1.47825,52.91685],"type":"Point"},"properties":{"_source":"warm_welcome","address":"10 Normanton Road, Derby, Derby DE1 2GW","description":" We have a free to use Community Shop where you can get food if you are struggling. We also run craft activities.","hours":"Tu 10:00-12:00, We 10:00-12:00, Th 10:00-12:00","title":"Derby City Mission"},"type":"Feature"},
		{"geometry":{"coordinates":[-1.45323,52.92695],"type":"Point"},"properties":{"_source":"warm_welcome","address":"119 Francis Street, Derby, Derbyshire DE21 6DE","hours":"We 12:30-14:30, Th 18:00-20:00","title":"Derwent oak"},"type":"Feature"},
		{"geometry":{"coordinates":[-1.47401,52.92320],"type":"Point"},"properties":{"_source":"warm_welcome","address":"The Council House, Corporation Street, Derby, Derbyshire DE1 2FS","description":" We have a Coffee Morning every Thursday morning 10.30-12.00 providing hot drinks","hours":"Mo 09:00-17:00, Tu 09:00-17:00, We 09:00-17:00, Th 09:00-17:00, Fr 09:00-17:00, Sa 09:00-13:00","title":"Riverside Library"},"type":"Feature"},
		{"geometry":{"coordinates":[-1.46849,52.91796],"type":"Point"},"properties":{"_source":"warm_welcome","address":"8 Liversage Square, Derby, Derby DE1 2LT","description":" Susanna Wesley House has a kitchen with a large table and a comfy lounge. Anyone is welcome to come in and we provide hot drinks and biscuits. ","hours":"Tu 10:00-12:00, Th 10:00-12:00","title":"Susanna Wesley House"},"type":"Feature"},
		{"geometry":{"coordinates":[-1.74200,53.01035],"type":"Point"},"properties":{"_source":"warm_spaces","address":"Waterside Road, Ashbourne, England, DE6 1DG","title":"Ashbourne Elim Church","url":"https://www.ashbourneelim.church"},"type":"Feature"},
		{"geometry":{"coordinates":[-1.48236,53.08431],"type":"Point"},"properties":{"_source":"warm_spaces","address":"The Crich Glebe Field Centre, Glebe Field Close, Matlock, England, DE4 5EU","title":"Crich Glebe Field Trust Ltd","url":"https://www.crichglebefieldcentre.org"},"type":"Feature"},
		{"geometry":{"coordinates":[-1.48433,53.02208],"type":"Point"},"properties":{"_source":"warm_spaces","address":"Belper Central Methodist Church, Chapel Street, Belper, England, DE56 1AR","hours":"Fr 10:00-16:00","title":"Belper Central Methodist Church","url":"http://www.belpercentralmethodist.co.uk"},"type":"Feature"}
	]
}
