{
	"type": "FeatureCollection",
	"features": [
		{"geometry":{"coordinates":[-1.65366,52.63766],"type":"Point"},"properties":{"_source":"warm_welcome","address":"The Green, Amington, Tamworth, Staffs B77 4AD","description":"Open from 27/10/2022. We cater for all ages at Place of Welcome every Thursday 2-4pm and also hold a Stay and Play Thursday morning 9:00 - 11:30 Term time ONLY. We hold a Place of Welcome every Thursday 2-4pm throughout the year, only closing for Christmas.","hours":"Th 14:00-16:00, Su 10:00-12:00","title":"Amington Parish Church "},"type":"Feature"},
		{"geometry":{"coordinates":[-1.48644,52.51302],"type":"Point"},"properties":{"_source":"warm_welcome","address":"Heath End Road , Nuneaton, Warwickshire CV10 7JB","description":" Welcome to Coffee & Chat. Hot and cold drinks available along with biscuits and cakes. Lots of friendly chatter. Baby and toddler toys available, and older children's toys available during the holidays. ","hours":"Mo 10:30-12:00","title":"Heath End Church"},"type":"Feature"},
		{"geometry":{"coordinates":[-1.47806,52.52549],"type":"Point"},"properties":{"_source":"warm_welcome","address":"Manor Court Road, Nuneaton, Warwickshire CV11 5HU","description":"Open from 07-11-2022.","hours":"Mo 12:00-14:30","title":"Manor Court Baptist Church"},"type":"Feature"},
		{"geometry":{"coordinates":[-1.47059,52.52116],"type":"Point"},"properties":{"_source":"warm_welcome","address":"Salvation Army, Victoria Street, Nuneaton, Warwickshire CV11 5QE","description":"Open from 7th November 2022.","hours":"We 10:00-12:30","title":"Nuneaton Salvation Army "},"type":"Feature"},
		{"geometry":{"coordinates":[-1.65122,52.61725],"type":"Point"},"properties":{"_source":"warm_welcome","address":"St Martin's Church & Centre, Stonydelph, Tamworth B77 4JA","description":"Open from 27/10/22. families only on Thursdays at the Make Lunch sessions - these aren't monthly but there was no other option to choose! dates are always in the school holidays and are advertised on our Facebook page Make Lunch Stonydelph Our coffee shop is open on Monday mornings and we offer refreshments after our Sunday services, anyone is welcome to come along to these!","hours":"Mo 10:00-12:00, Th 11:30-14:00, Su 10:00-11:30","title":"St Martin in the Delph"},"type":"Feature"},
		{"geometry":{"coordinates":[-1.45980,52.52718],"type":"Point"},"properties":{"_source":"warm_welcome","address":"46 Old Hinckley Road, Nuneaton, Warwickshire CV10 0AB","description":"Open from 16/11/2022.","hours":"We 10:00-16:00, Th 10:00-16:00","title":"The Church of Jesus Christ of Latter-day Saints"},"type":"Feature"},
		{"geometry":{"coordinates":[-1.69905,52.64466],"type":"Point"},"properties":{"_source":"warm_spaces","address":"103 Milton Avenue, Tamworth, England, B79 8JG","title":"St Andrewâ€™s Coffee Bar"},"type":"Feature"}
	]
}
