{
	"type": "FeatureCollection",
	"features": [
		{"geometry":{"coordinates":[-1.47470,52.39847],"type":"Point"},"properties":{"_source":"warm_welcome","address":"Acorn Street, Coventry, West Midlands CV3 1DP","description":"Open to all. Join for free to use full facilities.Groups for children and adults - see website for more info. Free PC use 2 hours a day for library members, spaces to sit and study/read, board games on request, adult and child colouring sheets.","hours":"Mo 12:00-18:00; Tu 10:00-14:00; Th 12:00-18:00; Fr 10:00-14:00; Sa 10:00-16:00","title":"Aldermoor Library"},"type":"Feature"},
		{"geometry":{"coordinates":[-1.55563,52.41303],"type":"Point"},"properties":{"_source":"warm_welcome","address":"Whitaker Road, Coventry, West Midlands CV5 9JE","description":"","hours":"Mo 12:00-18:00; Tu 10:00-14:00; Th 12:00-18:00; Fr 10:00-14:00; Sa 10:00-16:00","title":"Allesley Park Library"},"type":"Feature"},
		{"geometry":{"coordinates":[-1.49097,52.40322],"type":"Point"},"properties":{"_source":"warm_welcome","address":"Humber Avenue, Coventry CV1 2SF","description":"","hours":"Mo 08:30-17:00; Tu 08:30-17:00; We 08:30-17:00; Th 08:30-17:00; Fr 08:30-16:30","title":"Aspire Family Hub"},"type":"Feature"},
		{"geometry":{"coordinates":[-1.64637,52.39253],"type":"Point"},"properties":{"_source":"warm_welcome","address":"228 Station Road, Balsall Common, West Midlands CV77EE","description":"Open from 01-11-2022.","hours":"Mo 09:30-11:30; Fr 14:00-16:00","title":"Balsall Common Methodist Church"},"type":"Feature"},
		{"geometry":{"coordinates":[-1.51352,52.41013],"type":"Point"},"properties":{"_source":"warm_welcome","address":"Belgrade Square, Coventry CV1 1GS","description":"Open from 30-11-2022. Free tea, coffee and biscuits. Free wifi. Subsidised food menu incl. soup and a roll, and children's lunch box. Free play room for families. Programme of activities, including film screenings and arts and craft workshops from December.","hours":"We 15:00-17:00; Sa 10:00-12:00","title":"Belgrade Theatre"},"type":"Feature"},
		{"geometry":{"coordinates":[-1.47236,52.43603],"type":"Point"},"properties":{"_source":"warm_welcome","address":"17-23 Riley Square, Bell Green, Coventry CV2 1LS","description":"","hours":"Mo 09:00-19:00; Tu 09:00-19:00; Th 09:00-19:00; Fr 09:00-19:00; Sa 09:00-16:00","title":"Bell Green Library"},"type":"Feature"},
		{"geometry":{"coordinates":[-1.64620,52.38991],"type":"Point"},"properties":{"_source":"warm_welcome","address":"Blessed Robert Grissold Catholic Church, Meeting House Lane, Coventry CV77FX","description":"Open from 01/11/2022.","hours":"Tu 10:30-12:30","title":"BRG Catholic Church"},"type":"Feature"},
		{"geometry":{"coordinates":[-1.45314,52.41440],"type":"Point"},"properties":{"_source":"warm_welcome","address":"Axholme Road, Coventry CV2 5BD","description":"","hours":"Mo 14:00-18:00; Tu 14:00-18:00; Th 14:00-18:00; Fr 14:00-18:00; Sa 10:00-16:00","title":"Caludon Library"},"type":"Feature"},
		{"geometry":{"coordinates":[-1.56001,52.39439],"type":"Point"},"properties":{"_source":"warm_welcome","address":"Prior Deram Walk, Coventry, West Midlands CV4 8FT","description":"","hours":"Mo 12:00-18:00; Tu 10:00-14:00; Th 12:00-18:00; Fr 10:00-14:00; Sa 10:00-16:00","title":"Canley Library"},"type":"Feature"},
		{"geometry":{"coordinates":[-1.58431,52.28191],"type":"Point"},"properties":{"_source":"warm_welcome","address":"Castle Hill, Castle Hill, Warwick CV34 4EX","description":"Open from 31-10-2022. A place to just 'be', with books, jigsaws, board games, craft materials - a Home From Home. Help yourself to free drinks and snacks. Visit our website for clubs on during the month.","hours":"Mo 12:30-15:30","title":"Castle Hill Baptist Church, Warwick"},"type":"Feature"},
		{"geometry":{"coordinates":[-1.75614,52.37957],"type":"Point"},"properties":{"_source":"warm_welcome","address":"103 Mill Lane, Solihull, West Midlands B93 8NY","description":"Open from 30/11/2022.","hours":"We 14:00-16:00","title":"Dorridge Methodist church"},"type":"Feature"},
		{"geometry":{"coordinates":[-1.53353,52.40280],"type":"Point"},"properties":{"_source":"warm_welcome","address":"Earlsdon Avenue North, Coventry, West Midlands CV5 6FZ","description":" Everyone is welcome, regardless of whether you're a library member or not. Free hot drinks available!","hours":"Mo 10:00-17:00; Tu 10:00-17:00; Th 10:00-17:00; Fr 13:00-17:00; Sa 10:00-13:00","title":"Earlsdon Carnegie Community Library"},"type":"Feature"},
		{"geometry":{"coordinates":[-1.51859,52.29028],"type":"Point"},"properties":{"_source":"warm_welcome","address":"Newbold Comyn Leisure Centre, Newbold Terrace East, Leamington Spa, Warwickshire CV32 4EW","description":"","hours":"Mo 08:00-15:00; Tu 08:00-15:00; We 08:00-15:00; Th 08:00-15:00; Fr 08:00-15:00","title":"Everyone Active Newbold Comyn Leisure Centre"},"type":"Feature"},
		{"geometry":{"coordinates":[-1.49706,52.43145],"type":"Point"},"properties":{"_source":"warm_welcome","address":"454 Foleshill Road, Foleshill, Coventry CV6 5LB","description":"","hours":"Mo 08:30-17:00; Tu 08:30-17:00; We 08:30-17:00; Th 08:30-17:00; Fr 08:30-17:00","title":"Families For All Family Hub"},"type":"Feature"},
		{"geometry":{"coordinates":[-1.49521,52.42665],"type":"Point"},"properties":{"_source":"warm_welcome","address":"Broad Street, Coventry, West Midland CV6 5BG","description":"","hours":"Mo 09:00-19:00; Tu 09:00-19:00; Th 09:00-19:00; Fr 09:00-19:00; Sa 09:00-16:00","title":"Foleshill Library"},"type":"Feature"},
		{"geometry":{"coordinates":[-1.49930,52.41458],"type":"Point"},"properties":{"_source":"warm_welcome","address":"Clifton Street, Coventry CV1 5GR","description":"","hours":"Mo 08:30-17:00; Tu 08:30-17:00; We 08:30-17:00; Th 08:30-17:00; Fr 08:30-16:30","title":"Harmony Family Hub"},"type":"Feature"},
		{"geometry":{"coordinates":[-1.50845,52.44982],"type":"Point"},"properties":{"_source":"warm_welcome","address":"Holbrooks Community Centre, John Shelton Drive, Coventry CV6 4PE","description":"","hours":"Mo 12:00-15:00","title":"Holbrooks Community Association"},"type":"Feature"},
		{"geometry":{"coordinates":[-1.48994,52.40715],"type":"Point"},"properties":{"_source":"warm_welcome","address":"38-44 Binley Road, Coventry, West Midlands CV3 1JA","description":"Open from 31-10-2022.","hours":"Mo 10:00-14:00; Tu 10:00-14:00; We 10:00-14:00","title":"Hope Community Projects Coventry"},"type":"Feature"},
		{"geometry":{"coordinates":[-1.57552,52.40648],"type":"Point"},"properties":{"_source":"warm_welcome","address":"Jardine Crescent, Coventry CV4 9PL","description":"","hours":"Mo 08:30-17:00; Tu 08:30-17:00; We 08:30-17:00; Th 08:30-17:00; Fr 08:30-16:30","title":"Mosaic Family Hub"},"type":"Feature"},
		{"geometry":{"coordinates":[-1.54350,52.28213],"type":"Point"},"properties":{"_source":"warm_welcome","address":"Westbury Centre, Westlea Road, Leamington Spa, Warwickshire CV31 3JE","description":"Open from 01-11-2022.","hours":"Tu 13:00-15:30","title":"Myton Church"},"type":"Feature"},
		{"geometry":{"coordinates":[-1.47185,52.43738],"type":"Point"},"properties":{"_source":"warm_welcome","address":"Roseberry Avenue, Coventry, West Midlands CV2 1NE","description":"","hours":"Mo 08:30-17:00; Tu 08:30-17:00; We 08:30-17:00; Th 08:30-17:00; Fr 08:30-17:00","title":"Park Edge Family Hub"},"type":"Feature"},
		{"geometry":{"coordinates":[-1.52042,52.42019],"type":"Point"},"properties":{"_source":"warm_welcome","address":"Lawrence Saunders Road, Radford, Coventry CV6 1HD","description":"","hours":"Mo 08:30-17:00; Tu 08:30-17:00; We 08:30-17:00; Th 08:30-17:00; Fr 08:30-16:30","title":"Pathways Family Hub"},"type":"Feature"},
		{"geometry":{"coordinates":[-1.50582,52.39157],"type":"Point"},"properties":{"_source":"warm_welcome","address":"Quinton Park, Coventry, West Midlands CV3 5PZ","description":"Open from 01/11/2022. Tuesday is the main offering Wednesday is Coffee and Chat.","hours":"Tu 14:00-18:00; We 10:00-12:00","title":"Quinton Park Baptist Church (Community Hall)"},"type":"Feature"},
		{"geometry":{"coordinates":[-1.60066,52.42020],"type":"Point"},"properties":{"_source":"warm_welcome","address":"Church Lane, Coventry, West Midlands CV5 7BX","description":" During November and December, we will be hosting Warm Wednesdays in church, from 11 till 2 in the side room. Do join us for tea and coffee, games, soup and chat. All welcome!","hours":"We 11:00-14:00","title":"St Andrew's Church"},"type":"Feature"},
		{"geometry":{"coordinates":[-1.56893,52.40248],"type":"Point"},"properties":{"_source":"warm_welcome","address":"395 Tile Hill Lane, Coventry , West Midlands CV4 9DP","description":"","hours":"Fr 09:15-14:00","title":"St James Church "},"type":"Feature"},
		{"geometry":{"coordinates":[-1.56893,52.40248],"type":"Point"},"properties":{"_source":"warm_welcome","address":"395 Tile Hill Lane, Tile Hill, Coventry CV4 9DP","description":"Open from 11/11/2022. Open to all, of any age. Open for free hot drinks and soup. Bring your knitting or a book, or chat with one of our friendly volunteers. You can be sure of a warm welcome!","hours":"Fr 09:15-14:00","title":"St James Fletchamstead"},"type":"Feature"},
		{"geometry":{"coordinates":[-1.48016,52.43877],"type":"Point"},"properties":{"_source":"warm_welcome","address":"Old Church Road, Foleshill, Coventry CV6 7ED","description":" We are based in the Church Hall, and meet as part of the Hope Hub sessions.","hours":"Tu 13:00-14:30; Th 15:30-17:00","title":"St Laurence's Church"},"type":"Feature"},
		{"geometry":{"coordinates":[-1.50141,52.41285],"type":"Point"},"properties":{"_source":"warm_welcome","address":"St Peterâ€™s Hillfields, Charles Street , Coventry, West Midlands CV1 5NP","description":"","hours":"We 12:00-14:00","title":"St Peter's, Hillfields "},"type":"Feature"},
		{"geometry":{"coordinates":[-1.48673,52.40848],"type":"Point"},"properties":{"_source":"warm_welcome","address":"Kingsway, Coventry, West Midlands CV2 4EA","description":"","hours":"Mo 09:00-19:00; Tu 09:00-19:00; Th 09:00-19:00; Fr 09:00-19:00; Sa 09:00-16:00","title":"Stoke library"},"type":"Feature"},
		{"geometry":{"coordinates":[-1.46106,52.43731],"type":"Point"},"properties":{"_source":"warm_welcome","address":"Moat House Primary School, Deedmore Road, Coventry CV2 1EQ","description":"","hours":"Mo 08:30-17:00; Tu 08:30-17:00; We 08:30-17:00; Th 08:30-17:00; Fr 08:30-16:30","title":"The Moat Family Hub"},"type":"Feature"},
		{"geometry":{"coordinates":[-1.62281,52.28336],"type":"Point"},"properties":{"_source":"warm_welcome","address":"3 Slade Hill, Hampton Magna, Warwick, Warwickshire CV35 8SA","description":"","hours":"Mo 09:00-13:00; Tu 09:00-12:00; We 09:00-14:00; Th 09:00-12:00; Fr 09:00-12:00","title":"The Open Door"},"type":"Feature"},
		{"geometry":{"coordinates":[-1.57552,52.40648],"type":"Point"},"properties":{"_source":"warm_welcome","address":"Jardine Crescent, Coventry, West Midlands CV4 9PL","description":"","hours":"Mo 09:00-19:00; Tu 09:00-19:00; Th 09:00-19:00; Fr 09:00-19:00; Sa 09:00-16:00","title":"Tile Hill Library"},"type":"Feature"},
		{"geometry":{"coordinates":[-1.44174,52.42681],"type":"Point"},"properties":{"_source":"warm_welcome","address":"Adjacent to 50 Hinckley Road, Coventry, West Midlands CV2 2EX","description":"Open from 31-10-2022.","hours":"Mo 10:00-12:00; Tu 10:00-12:00; We 10:00-12:00; Th 10:00-12:00; Fr 10:00-12:00","title":"Walsgrave Baptist Church"},"type":"Feature"},
		{"geometry":{"coordinates":[-1.59076,52.28247],"type":"Point"},"properties":{"_source":"warm_welcome","address":"Warwick Methodist Church, Barrack St,, Warwick, Warwickshire CV34 4TH","description":"All are welcome, although we currently have limited resources for children. We have a commmunal hall for refreshments, board games and chat & a small quiet room for reading, phone charging etc.","hours":"Tu 10:30-16:00","title":"Warwick Methodist Church"},"type":"Feature"},
		{"geometry":{"coordinates":[-1.45959,52.38773],"type":"Point"},"properties":{"_source":"warm_welcome","address":"Willenhall Library Hagard Community Centre , Remembrance Road, Coventry CV3 3DG","description":" Open to everyone. You can Join for free to use all the facilities. Children and Adult activities see website for more info. 2 hours free computer use for Library members. you can sit and study/read as well as activity sheets for children.","hours":"Mo 10:00-19:00; Tu 10:00-19:00; Th 10:00-19:00; Fr 10:00-19:00; Sa 09:00-16:00","title":"Willenhall Library"},"type":"Feature"},
		{"geometry":{"coordinates":[-1.45963,52.38501],"type":"Point"},"properties":{"_source":"warm_welcome","address":"Upper Ride, Willenhall Wood, Coventry CV3 3GL","description":"","hours":"Mo 08:30-17:00; Tu 08:30-17:00; We 08:30-17:00; Th 08:30-17:00; Fr 08:30-16:30","title":"Wood Side Family Hub"},"type":"Feature"},
		{"geometry":{"coordinates":[-1.52017,52.43137],"type":"Point"},"properties":{"_source":"warm_spaces","address":"110 Treherne Road, Coventry, England, CV6 3DY","title":"St Francis Employability","url":"https://www.facebook.com/stfrancisemployability"},"type":"Feature"},
		{"geometry":{"coordinates":[-1.53095,52.40099],"type":"Point"},"properties":{"_source":"warm_spaces","address":"Earlsdon Avenue North, Coventry, England, CV5 6FZ","title":"Earlsdon Carnegie Community Library","url":"https://earlsdonlibrary.org.uk"},"type":"Feature"},
		{"geometry":{"coordinates":[-1.59194,52.28558],"type":"Point"},"properties":{"_source":"warm_spaces","address":"Albert Street, Warwick, England, CV34 4JX","title":"Saltisford Church Warm Spaces","url":"https://www.saltisfordchurch.org.uk"},"type":"Feature"},
		{"geometry":{"coordinates":[-1.49839,52.27949],"type":"Point"},"properties":{"_source":"warm_spaces","address":"Church Lane, Radford Semele, Leamington Spa, England, CV31","title":"St Nicholas church, Radford Semele","url":"https://Www.Stnicholasrestored.co.uk"},"type":"Feature"},
		{"geometry":{"coordinates":[-1.57317,52.34854],"type":"Point"},"properties":{"_source":"warm_spaces","address":"Copperhouse Club, 142 Albion Street, Kenilworth, England, CV8 2HJ","title":"Copperhouse Club","url":"https://copperhouseclub.co.uk"},"type":"Feature"}
	]
}
