{
	"type": "FeatureCollection",
	"features": [
		{"geometry":{"coordinates":[-1.72375,51.93071],"type":"Point"},"properties":{"_source":"warm_welcome","address":"Church Walk, Church Street, Stow-on-the-Wold, Gloucestershire GL54 1AB","description":"","hours":"We 14:00-16:00","title":"Church Room"},"type":"Feature"},
		{"geometry":{"coordinates":[-1.54664,51.94319],"type":"Point"},"properties":{"_source":"warm_welcome","address":"The Parish Rooms, Church Street, Chipping Norton OX7 5NT","description":"Our Wednesday session only caters for Carers and Toddlers","hours":"Tu 13:30-14:30; We 10:00-11:30; Fr 14:00-16:00","title":"St Mary's Church & The Branch Trust"},"type":"Feature"},
		{"geometry":{"coordinates":[-1.72248,51.92916],"type":"Point"},"properties":{"_source":"warm_welcome","address":"Stow on the Wold Baptist Church, Back Walls, Stow on the Wold GL54 1AA","description":"","hours":"Tu 14:00-16:00","title":"The Well Cafe"},"type":"Feature"},
		{"geometry":{"coordinates":[-1.70249,51.99023],"type":"Point"},"properties":{"_source":"warm_spaces","address":"Serenity Bean, 3A Oxford Street, Moreton-in-Marsh, England, GL56 0LA","title":"Serenity Bean","url":"https://www.serenitybean.co.uk"},"type":"Feature"},
		{"geometry":{"coordinates":[-1.48071,51.87403],"type":"Point"},"properties":{"_source":"warm_spaces","address":"Charlbury Community Centre, Enstone Road, Chipping Norton, England, OX7 3PQ","title":"Charlbury Community Centre","url":"https://www.charlburycommunitycentre.org.uk"},"type":"Feature"}
	]
}
