{
	"type": "FeatureCollection",
	"features": [
		{"geometry":{"coordinates":[-1.51330,51.41776],"type":"Point"},"properties":{"_source":"warm_welcome","address":"Bridge Street, Hungerford, Berkshire RG17 0EH","description":"Open from 06/11/2022.","hours":"Su 12:00-16:00","title":"Hungerford Methodist Church"},"type":"Feature"},
		{"geometry":{"coordinates":[-1.51597,51.41415],"type":"Point"},"properties":{"_source":"warm_welcome","address":"Hungerford URC, High Street, Hungerford, Berkshire RG17 0NF","description":" A welcoming church in the heart of Hungerford","hours":"We 10:00-12:00","title":"Hungerford United Reformed Church (URC)"},"type":"Feature"},
		{"geometry":{"coordinates":[-1.52072,51.41540],"type":"Point"},"properties":{"_source":"warm_welcome","address":"St Lawrence's Church, The Croft,, Hungerford, West Berkshire RG17 0JB","description":"Open from 01-11-2022.","hours":"Tu 14:30-15:30; Th 10:00-12:00","title":"St Lawrence's, Hungerford"},"type":"Feature"},
		{"geometry":{"coordinates":[-1.51830,51.41484],"type":"Point"},"properties":{"_source":"warm_welcome","address":"Church Street, Hungerford RG17 0JG","description":"","hours":"Tu 09:30-17:00; We 09:30-16:00; Fr 09:30-19:00; Sa 10:00-12:30","title":"West Berkshire Libraries - Hungerford library"},"type":"Feature"},
		{"geometry":{"coordinates":[-1.53213,51.50720],"type":"Point"},"properties":{"_source":"warm_welcome","address":"High Street, Lambourn RG17 8XL","description":"","hours":"Tu 14:00-18:00; We 10:00-12:00; Fr 10:00-17:00; Sa 10:00-12:30","title":"West Berkshire Libraries - Lambourn Library"},"type":"Feature"},
		{"geometry":{"coordinates":[-1.73446,51.41760],"type":"Point"},"properties":{"_source":"warm_spaces","address":"St Peterâ€™s Church, High Street, Marlborough, England, SN8 1HQ","title":"St Peters, Marlborough","url":"https://Www.stpetersMarlborough.org.uk"},"type":"Feature"}
	]
}
