{
	"type": "FeatureCollection",
	"features": [
		{"geometry":{"coordinates":[-1.48812,51.21230],"type":"Point"},"properties":{"_source":"warm_welcome","address":"Andover Baptist Church, Charlton Road, Andover, Hampshire SP10 3JH","description":"Open from 17-11-2022.","hours":"Th 15:00-17:00","title":"Andover Baptist Church"},"type":"Feature"},
		{"geometry":{"coordinates":[-1.48016,51.20977],"type":"Point"},"properties":{"_source":"warm_welcome","address":"Andover Library, Chantry Centre, Andover SP10 1LT","hours":"Mo 09:30-17:00; Tu 09:30-13:30; We 09:30-17:00; Th 09:30-17:00; Fr 09:30-17:00; Sa 09:30-17:00","title":"Andover Library- Hampshire Libraries"},"type":"Feature"},
		{"geometry":{"coordinates":[-1.47970,51.20631],"type":"Point"},"properties":{"_source":"warm_welcome","address":"31-33 Bridge Street, Andover, Hants SP10 1BE","description":"Open from Thursday 1st December. everyone is welcome We have a pay-it-forward scheme and a sensory playroom","hours":"Mo 09:30-14:00; Tu 09:30-14:00; We 09:30-14:00; Th 09:30-14:00; Fr 09:30-14:00","title":"the Bridge"},"type":"Feature"},
		{"geometry":{"coordinates":[-1.48130,51.20720],"type":"Point"},"properties":{"_source":"warm_spaces","address":"Bridge Street, Andover, England, SP10 1BL","title":"Andover Methodist Church","url":"https://Andovermethodist.org.uk"},"type":"Feature"},
		{"geometry":{"coordinates":[-1.48061,51.20612],"type":"Point"},"properties":{"_source":"warm_spaces","address":"31-33 Bridge Street, Andover, England, SP10 1BE","title":"The Bridge","url":"https://thevalleychurch.co.uk"},"type":"Feature"},
		{"geometry":{"coordinates":[-1.48646,51.21244],"type":"Point"},"properties":{"_source":"warm_spaces","address":"Charlton Road, Andover, England, SP10 3JH","title":"Andover Baptist Church","url":"https://www.andoverbaptist.org.uk"},"type":"Feature"}
	]
}
