{
	"type": "FeatureCollection",
	"features": [
		{"geometry":{"coordinates":[-1.43762,50.97630],"type":"Point"},"properties":{"_source":"warm_welcome","address":"23 Fleming Avenue, North Baddesley, Southampton SO52 9EJ","description":"On Tuesday mornings we run our Tots and toddlers (birth to school age) songs, signing and stories group. We have to control the numbers slightly to ensure the safety of the children, but do contact info.communitylifecentre@gmail.com to contact Rosie. We have a range of comfy seating, plenty of toys for babies and toddlers, free hot/cold drinks and biscuits, sometimes even cake!","hours":"Mo 10:00-12:00; We 10:00-13:00; Th 10:00-12:00; Fr 01:30-15:00","title":"Community Life Centre"},"type":"Feature"},
		{"geometry":{"coordinates":[-1.50286,50.99834],"type":"Point"},"properties":{"_source":"warm_welcome","address":"Freedom Centre, Unit 6, Greatbridge Business Park, Budds Lane, Romsey SO51 0HA","description":"Open from 01-11-2022.","hours":"Tu 09:00-12:00; We 09:00-17:00; Th 09:00-12:00","title":"Freedom Church UK"},"type":"Feature"},
		{"geometry":{"coordinates":[-1.49944,50.98776],"type":"Point"},"properties":{"_source":"warm_welcome","address":"Bell Street, Romsey, Hampshire SO51 8GW","description":"","hours":"Sa 10:00-12:30; Su 10:30-12:30","title":"Romsey Baptist Church"},"type":"Feature"},
		{"geometry":{"coordinates":[-1.49687,50.98868],"type":"Point"},"properties":{"_source":"warm_welcome","address":"37a The Hundred, Romsey, Hampshire SO51 8GE","description":"We support people affected by cancer, both patients and family members Services available for cancer patients and their families.","hours":"Mo 10:00-16:30; Tu 10:00-16:30; We 10:00-16:30; Th 10:00-16:30; Fr 10:00-16:30","title":"Romsey Cancer Support Centre - Jane Scarth House"},"type":"Feature"},
		{"geometry":{"coordinates":[-1.49709,50.99088],"type":"Point"},"properties":{"_source":"warm_welcome","address":"Romsey Library, Station Road, Romsey SO51 8DN","description":"Open for everyone We have various sessions throughout the week from toddlers to adults see website for details","hours":"Mo 09:30-13:30; Tu 09:30-17:00; Th 09:30-17:00; Fr 09:30-17:00; Sa 09:30-17:00","title":"Romsey Library- Hampshire Libraries"},"type":"Feature"},
		{"geometry":{"coordinates":[-1.49517,50.98859],"type":"Point"},"properties":{"_source":"warm_welcome","address":"The Hundred, Romsey, Hampshire SO51 8BZ","description":"Open from 19/10/2022. Everyone is welcome, there is lots of space for buggies/wheelchairs. Toys available. A friendly cafe offering homemade cakes, tea cakes etc.","hours":"We 14:00-16:00; Fr 10:00-12:00","title":"Romsey Methodist Church - Beacon Cafe"},"type":"Feature"},
		{"geometry":{"coordinates":[-1.55038,51.00553],"type":"Point"},"properties":{"_source":"warm_welcome","address":"Dunwood Oaks Centre, Danes Road, Awbridge, ROMSEY, Hampshire SO51 0GF","description":" ** Open from 02-11-2022. Countryside location. Walks nearby. comfortable seating. friendly people. Disabled parking/toilets. Changing mats/ Children's toilet. Level access. Warm building - Warm welcome. ","hours":"Tu 10:30-15:30; Th 10:30-15:30","title":"Sozo Ministries International"},"type":"Feature"}
	]
}
