{
	"type": "FeatureCollection",
	"features": [
		{"geometry":{"coordinates":[-1.41648,50.93530],"type":"Point"},"properties":{"_source":"warm_welcome","address":"All Saints' Church Centre, Southampton, Hampshire SO16 7DL","description":"Open from 21-11-2022. All are welcome. We are a small group of people but are looking forward to welcoming you here.","hours":"Mo 10:00-16:00, Tu 10:00-16:00, Fr 10:00-16:00, Sa 10:15-11:30","title":"All Saints' Church, Old Bassett"},"type":"Feature"},
		{"geometry":{"coordinates":[-1.43082,50.92456],"type":"Point"},"properties":{"_source":"warm_welcome","address":"Church Street, Southampton, Hampshire SO15 5SD","description":"Over 18s We offer a clean, stress free safe area for you to come and meet likeminded people, have some biscuits and a cuppa, perhaps try some arts & crafts, or some board games. We also have some computers available to help you with basic IT queries .","hours":"Mo 11:00-16:00, We 11:00-16:00","title":"Friends of St. James' Park"},"type":"Feature"},
		{"geometry":{"coordinates":[-1.42698,50.94072],"type":"Point"},"properties":{"_source":"warm_welcome","address":"King's Church Centre , 414 Coxford Road, Southampton SO16 5LL","description":"Open from 21 November. All welcome Monday mornings - A warm welcome with free hot drinks/biscuits. Closed on 26 Dec and 2 Jan. On Sundays we have free refreshments served 10.30-10.50am prior to our service which you would be most welcome to join.","hours":"Mo 09:30-12:30, Su 10:30-12:30","title":"Kings Church"},"type":"Feature"},
		{"geometry":{"coordinates":[-1.44836,50.94117],"type":"Point"},"properties":{"_source":"warm_welcome","address":"Lordshill Library, Lordshill District Centre, Southamton, Hants SO16 8HY","description":"","hours":"Tu 10:00-19:00, We 10:00-17:00, Th 10:00-19:00, Fr 10:00-16:00, Sa 10:00-16:00","title":"Lordshill library"},"type":"Feature"},
		{"geometry":{"coordinates":[-1.54141,50.76153],"type":"Point"},"properties":{"_source":"warm_welcome","address":"Lymington Library, North Close, Lymington SO41 9BW","description":"Everyone is welcome. Game On! Takes place all day on a Saturday and free hot drinks and biscuits are available.","hours":"Mo 09:30-17:00, Tu 09:30-17:00, We 09:30-13:30, Th 09:30-17:00, Fr 09:30-17:00, Sa 09:30-17:00","title":"Lymington Library- Hampshire Libraries"},"type":"Feature"},
		{"geometry":{"coordinates":[-1.65920,50.75244],"type":"Point"},"properties":{"_source":"warm_welcome","address":"New Milton Library, Gore Road, New Milton BH25 6RW","description":"","hours":"Mo 09:30-17:00, Tu 09:30-17:00, Th 09:30-17:00, Fr 09:30-17:00, Sa 09:30-13:30","title":"New Milton Library- Hampshire Libraries"},"type":"Feature"},
		{"geometry":{"coordinates":[-1.43418,50.92373],"type":"Point"},"properties":{"_source":"warm_welcome","address":"Shirley Library, Shirley Precinct, Shirley High Street , Southampton, Hampshire SO15 5LL","description":"We cater for all age groups. Newspapers & magazines available to read in the Library; free activities","hours":"Mo 10:00-19:00, Tu 10:00-19:00, We 10:00-19:00, Th 10:00-16:00, Fr 10:00-17:00, Sa 10:00-16:00","title":"Shirley Library"},"type":"Feature"},
		{"geometry":{"coordinates":[-1.40658,50.90761],"type":"Point"},"properties":{"_source":"warm_welcome","address":"Civic Centre, Southampton, Hampshire SO14 7LW","description":"Open from 07/11/2022. There is a programme of free activities (with free refreshments), plus access to books, newspapers and magazines, computer facilities and wi-fi. https://www.southampton.gov.uk/libraries/library-activities/local-library-activities/","hours":"Mo 10:00-19:00, Tu 10:00-19:00, We 10:00-18:00, Th 10:00-19:00, Fr 10:00-17:00, Sa 10:00-16:00","title":"Southampton Central Library"},"type":"Feature"},
		{"geometry":{"coordinates":[-1.60791,50.78451],"type":"Point"},"properties":{"_source":"warm_welcome","address":"Sway Youth Centre, Station Road, Sway SO41 6BA","description":"Open from 21-11-2022. Everyone! Children must be accompanied by a responsible adult; activities for young and old available; hot and cold drinks and light snacks provided by Co-op","hours":"Mo 09:00-16:00, Tu 12:30-16:00, We 09:00-16:00, Th 09:00-16:00, Fr 09:00-16:00","title":"Sway Parish Council"},"type":"Feature"},
		{"geometry":{"coordinates":[-1.49079,50.91973],"type":"Point"},"properties":{"_source":"warm_welcome","address":"Totton Library, Library Road, Totton SO40 3RS","description":"Chatabout Jubilee Club on Tuesdays 10.30. ","hours":"Mo 09:30-17:00, Tu 09:30-17:00, Th 09:30-17:00, Fr 09:30-13:30, Sa 09:30-17:00","title":"Totton Library- Hampshire Libraries"},"type":"Feature"},
		{"geometry":{"coordinates":[-1.60681,50.78399],"type":"Point"},"properties":{"_source":"warm_spaces","address":"Sway Youth Centre, 9a Station Road, Sway, Lymington, England, SO41 6BA","title":"Sway Warm Space","url":"https://www.sway-pc.gov.uk"},"type":"Feature"},
		{"geometry":{"coordinates":[-1.69337,50.74252],"type":"Point"},"properties":{"_source":"warm_spaces","address":"5 Stuart Road, Christchurch, England, BH23 5JS","title":"Highcliffe Nursing Home","url":"https://kingsleyhealthcare.co.uk"},"type":"Feature"}
	]
}
