{
	"type": "FeatureCollection",
	"features": [
		{"geometry":{"coordinates":[-4.39226,55.79920],"type":"Point"},"properties":{"_source":"warm_welcome","address":"Ralston Road, Barrhead, East Renfrewshire G782QQ","description":"Open from 01-11/2022.","hours":"Th 10:00-12:00","title":"Barrhead St Andrews Parish Church of Scotland"},"type":"Feature"},
		{"geometry":{"coordinates":[-4.38656,55.80213],"type":"Point"},"properties":{"_source":"warm_welcome","address":"Main Street , Barrhead, East Renfrewshire G78 1SW","description":"Everyone is welcome","hours":"Tu 13:00-15:00","title":"Bourock Parish Church Barrhead"},"type":"Feature"},
		{"geometry":{"coordinates":[-4.27294,55.81428],"type":"Point"},"properties":{"_source":"warm_welcome","address":"96 Merrylee Road, Cathcart, Glasgow G43 2RA","description":"Open from 02/11/2022.","hours":"We 14:00-17:00","title":"Cathcart Baptist Church"},"type":"Feature"},
		{"geometry":{"coordinates":[-4.36715,55.84665],"type":"Point"},"properties":{"_source":"warm_welcome","address":"49 Kelhead Path, Glasgow G52 2QD","description":"Our cafe offers free refreshments and is open to all","hours":"We 10:30-12:30","title":"CBC Community Church"},"type":"Feature"},
		{"geometry":{"coordinates":[-4.25831,55.82388],"type":"Point"},"properties":{"_source":"warm_welcome","address":"1220 Cathcart Road, Glasgow, Lanarkshire G42 9EU","description":"Open from 10/11/2022. All ages We will be providing soup, tea and coffee. Access through conservatory door facing Cathcart Road.","hours":"Th 13:00-16:00","title":"Clincarthill Church"},"type":"Feature"},
		{"geometry":{"coordinates":[-4.38377,55.89590],"type":"Point"},"properties":{"_source":"warm_welcome","address":"28 Sylvania Way South, Clydebank, West Dunbartonshire G81 1ER","description":"Open from 19/10/2022.","hours":"We 10:00-14:00","title":"Clydebank Salvation Army Community Church"},"type":"Feature"},
		{"geometry":{"coordinates":[-4.25661,55.85284],"type":"Point"},"properties":{"_source":"warm_welcome","address":"37 South Portland Street, Gorbals, Glasgow G5 9JL","description":"Open from 1st October 2022.","hours":"Mo 10:00-14:30; Tu 10:00-14:30; We 10:00-14:30; Th 10:00-14:30; Fr 10:00-14:30","title":"Destiny Church Trust"},"type":"Feature"},
		{"geometry":{"coordinates":[-4.26842,55.87184],"type":"Point"},"properties":{"_source":"warm_welcome","address":"56 Clarendon Place, St Georges Cross, Glasgow G20 7PZ","description":" Open to all in the community, including families who would like a warm space to get a heat, connect with others and enjoy some refreshments. From 3pm on a Wednesday children and families are especially welcome to drop in after school.","hours":"We 12:00-16:30; Su 10:30-11:30","title":"Findlay Church"},"type":"Feature"},
		{"geometry":{"coordinates":[-4.26687,55.82454],"type":"Point"},"properties":{"_source":"warm_welcome","address":"Langside Church, , 167 Ledard Road, Glasgow G42 9QU","description":"","hours":"Mo 09:30-21:00; Tu 09:30-21:00; We 09:30-21:00; Th 09:30-21:00; Fr 09:30-14:00","title":"Finn's Place"},"type":"Feature"},
		{"geometry":{"coordinates":[-4.21993,55.84478],"type":"Point"},"properties":{"_source":"warm_welcome","address":"231 Dalmarnock Road, Bridgeton , Glasgow G40 4NB","description":"Open from 16/11/22.","hours":"We 10:00-14:00","title":"Gateway Church Glasgow "},"type":"Feature"},
		{"geometry":{"coordinates":[-4.27545,55.78381],"type":"Point"},"properties":{"_source":"warm_welcome","address":"36 Eaglesham Road, Clarkston, Glasgow G76 7DJ","description":"Open from 18-11-2022. Friendly, accessible sociable spaces | Hot refreshments in the morning from 10am and afternoon from 2pm | A warm lunch | Parent/carer & toddler space | Board and table games | Electric charging points & wifi | Company | Participation | Support & help","hours":"Fr 10:00-12:00","title":"Greenbank Parish Church"},"type":"Feature"},
		{"geometry":{"coordinates":[-4.29362,55.82796],"type":"Point"},"properties":{"_source":"warm_welcome","address":"1439 Pollokshaws Road, Glasgow G41 3RQ","description":" First night on the 5th November and then fortnightly until 17th December 2022. Re-commences from Saturday 7th January 2023. A warm meal will be provided along with a family friendly film and some basic activities for children ","hours":"Sa 17:00-19:00","title":"Greenview Church"},"type":"Feature"},
		{"geometry":{"coordinates":[-4.27912,55.87803],"type":"Point"},"properties":{"_source":"warm_welcome","address":"Belmont Street, Glasgow , Glasgow G20 6JR","description":"Anyone Come and spend time in a warm space, have a bowl of soup, tea, coffee and biscuits. Its all free. We have people to talk too, board games and colouring. ","hours":"We 11:00-14:00","title":"Kelvinbridge Parish Church"},"type":"Feature"},
		{"geometry":{"coordinates":[-4.39798,55.90879],"type":"Point"},"properties":{"_source":"warm_welcome","address":"Melfort Avenue, Clydebank, Dunbartonshire G81 2HX","description":"We are open to everyone within the community Our doors are open to provide a warm space for people to come and enjoy company and food and refreshments free of charge","hours":"We 10:00-14:00","title":"Kilbowie St.Andrews Parish Church"},"type":"Feature"},
		{"geometry":{"coordinates":[-4.34088,55.89378],"type":"Point"},"properties":{"_source":"warm_welcome","address":"183 Knightswood Road, Knightswood Cross, Glasgow G13 2XL","description":" Hot rolls at 11:30am, soup at 12:30pm, all free","hours":"Fr 11:00-14:00","title":"Knightswood Baptist Church"},"type":"Feature"},
		{"geometry":{"coordinates":[-4.28593,55.88557],"type":"Point"},"properties":{"_source":"warm_welcome","address":"15-17 Shakespeare Street, Glasgow G20 8TH","description":"","hours":"Fr 12:00-16:00","title":"Maryhill Ruchill Parish Church"},"type":"Feature"},
		{"geometry":{"coordinates":[-4.34279,55.78124],"type":"Point"},"properties":{"_source":"warm_welcome","address":"2 Greenfarm Road, GLASGOW, East Renfrewshire G77 6FA","description":"","hours":"Mo 10:00-12:00; We 10:00-12:00; Th 10:00-12:00","title":"Newton Mearns Baptist Church"},"type":"Feature"},
		{"geometry":{"coordinates":[-4.29368,55.80044],"type":"Point"},"properties":{"_source":"warm_welcome","address":"12 Church Road, Giffnock, East Renfrewshire G46 6JR","description":" Our cafe is open for soup/hot drinks on a donation only basis. Warm welcome and friendly chat guaranteed","hours":"Tu 10:00-14:00; Th 10:00-12:30","title":"Orchardhill Parish Church"},"type":"Feature"},
		{"geometry":{"coordinates":[-4.41657,55.84621],"type":"Point"},"properties":{"_source":"warm_welcome","address":"3 Mill Street, Paisley, Renfrewshire PA2 6AT","description":" Open from 06-11-2022. We cater for all, other than Tuesday evening which will be aimed first at families.There are other groups that run around the times we are open as a 'warm welcome' space.","hours":"Mo 09:00-13:00; Tu 15:00-18:00; We 09:00-12:00; Fr 08:00-10:00; Su 12:00-15:00","title":"Paisley Salvation Army"},"type":"Feature"},
		{"geometry":{"coordinates":[-4.30110,55.82325],"type":"Point"},"properties":{"_source":"warm_welcome","address":"74 Shawholm Crescent , Glasgow , Lanarkshire G431LH","description":" Hot soup, bread rolls + a cuppa plus different activities each week","hours":"Tu 11:30-13:30","title":"Pollokshaws Methodist Church "},"type":"Feature"},
		{"geometry":{"coordinates":[-4.27614,55.84283],"type":"Point"},"properties":{"_source":"warm_welcome","address":"525 Shields Road, Glasgow G41 2RF","description":"Open from 03-11-22.","hours":"Th 11:00-14:00","title":"Pollokshields Church"},"type":"Feature"},
		{"geometry":{"coordinates":[-4.27518,55.84533],"type":"Point"},"properties":{"_source":"warm_welcome","address":"423 Shields Rd., Pollokshields , Glasgow G41 2QY","description":" Hot food for Sunday socials; Warm drinks & snacks available every day, welcome warm space, individualised food parcels, signposting & mutual support. Donations welcome but everything free on site. Halal food & multiple languages spoken. Volunteer opportuni","hours":"Mo 15:00-17:00; Sa 15:00-17:00; Su 11:00-17:00","title":"Pollokshields Community Food Point"},"type":"Feature"},
		{"geometry":{"coordinates":[-4.27101,55.83546],"type":"Point"},"properties":{"_source":"warm_welcome","address":"The Point, 180 Queens Drive, Glasgow G42 8QD","description":" Open 7pm till 9pm. Feel free to pop in have a cup of tea or coffee, charge your phone, have a chat or just do your own thing. ","hours":"Mo 19:00-21:00","title":"Queens Park Baptist Church"},"type":"Feature"},
		{"geometry":{"coordinates":[-4.26985,55.83479],"type":"Point"},"properties":{"_source":"warm_welcome","address":"170 Queens Drive, Glasgow, Glasgow G42 8QZ","description":"","hours":"Tu 10:00-16:00; Th 10:00-12:00; Fr 10:00-12:00","title":"Queens Park Govanhill"},"type":"Feature"},
		{"geometry":{"coordinates":[-4.23294,55.88060],"type":"Point"},"properties":{"_source":"warm_welcome","address":"Palermo Street, Springburn, Glasgow G21 4SX","description":" Our FREE Community Cafe is open as a warm space every Thursday morning, everyone is welcome. We serve hot drinks, hot food & cakes and have card/board games to play and you will be guaranteed a warm welcome. ","hours":"Th 10:00-12:00","title":"Springburn AOG Church"},"type":"Feature"},
		{"geometry":{"coordinates":[-4.25326,55.86212],"type":"Point"},"properties":{"_source":"warm_welcome","address":"163 Buchanan Street, Glasgow G1 2JX","hours":"Mo 10:30-16:30; Tu 10:30-16:30; We 10:30-16:30; Th 10:30-16:30; Fr 10:30-16:30; Sa 10:30-16:30; Su 12:00-15:00","title":"St George's Tron Church of Scotland"},"type":"Feature"},
		{"geometry":{"coordinates":[-4.35245,55.82144],"type":"Point"},"properties":{"_source":"warm_welcome","address":"Pollok Baptist church, 14 Haughburn Road, Glasgow G53 6AB","description":"Open from Every Tuesday . We are very inclusive We have a free cafe, cooking classes and games. ","hours":"Tu 10:00-14:00","title":"Toasty Tuesday "},"type":"Feature"}
	]
}
