{
	"type": "FeatureCollection",
	"features": [
		{"geometry":{"coordinates":[-4.49284,55.60955],"type":"Point"},"properties":{"_source":"warm_welcome","address":"2 London Road, Kilmarnock , Ayrshire KA3 7AA","description":"Our focus is to help people of all ages in the community We have board games for adults and toys and crèche area for children. Pet Friendly.","hours":"Tu 10:00-13:00; We 10:00-12:00","title":"Kaypark church "},"type":"Feature"},
		{"geometry":{"coordinates":[-4.49348,55.60663],"type":"Point"},"properties":{"_source":"warm_welcome","address":"Old Mill Road, Kilmarnock, East Ayrshire KA1 3AN","description":"Open from Renew KBC wellbeing cafe. Open to all over the age of 18 years. Activities are based around the 5 ways to wellbeing which promote good mental and emotional health. Our cafe is a warm, safe space where it's OK not to be OK. A community space for sharing a variety of hobbies and activities, which are all free. You can come and relax, chat, keep warm or enjoy the peace in our quiet area.","hours":"Th 10:30-14:00","title":"Kilmarnock Baptist Church"},"type":"Feature"},
		{"geometry":{"coordinates":[-4.49517,55.60865],"type":"Point"},"properties":{"_source":"warm_welcome","address":"20 Sturrock Street , Kilmarnock , East Ayrshire KA1 3AH","description":"Open from 19/10/22. Thursday - aimed at those who are homeless or at risk of homelessness Monday we are open for free tea and coffee until 2.00pm. Soup and sandwich served from 11.30 till 1.00 (optional for a small charge). Home League (group for all) begins at 2.00, all are welcome. Wednesday is our ‘Knit and natter’ group.","hours":"Mo 10:30-14:00; We 11:00-12:00; Th 11:00-12:30","title":"Kilmarnock Salvation Army"},"type":"Feature"},
		{"geometry":{"coordinates":[-4.28145,55.60979],"type":"Point"},"properties":{"_source":"warm_welcome","address":"VERVE, 9 East Main Street, Darvel, County (optional) KA17 0DA","description":"","hours":"Sa 14:00-16:00","title":"no website as yet"},"type":"Feature"},
		{"geometry":{"coordinates":[-4.47148,55.61944],"type":"Point"},"properties":{"_source":"warm_welcome","address":"Fraser Walk, Kilmarnock, Ayrshire Ka3 7ph","description":"","hours":"Mo 09:00-21:00; Tu 09:00-21:00; We 09:00-21:00; Th 09:00-21:00; Fr 09:00-17:00; Sa 10:00-17:00; Su 10:00-21:00","title":"Take A Bow Opportunity Centre"},"type":"Feature"},
		{"geometry":{"coordinates":[-4.47634,55.61731],"type":"Point"},"properties":{"_source":"warm_spaces","address":"Dunbar Drive, Kilmarnock, Scotland, KA3 7PR","title":"St Kentigern's Church","url":"http://stkentigern.org.uk/about-us/"},"type":"Feature"}
	]
}
