{
	"type": "FeatureCollection",
	"features": [
		{"geometry":{"coordinates":[-4.36931,50.36184],"type":"Point"},"properties":{"_source":"warm_welcome","address":"The Zone, Downderry Methodist Church, Downderry, Cornwall PL11 3JZ","description":"Open from Monday 7th November. On a Monday you could have a go at a craft, on Tuesday try painting or drawing. Wednesday mornings is for companionship . Wednesday evening is an opportunity to play table tennis or other games. Thursday mornings activities for parents & young children.n We have a range of games available-cards and board. We would offer more if requested . Diffferent sessions offer different alternative activities. ","hours":"Mo 14:00-16:00, Tu 09:30-11:30, We 10:00-12:00, Th 09:30-11:30","title":"Deviock Activities Group, Bread & Babes Parent & Toddler Group & The Zone,Downderry Methodist Church he"},"type":"Feature"},
		{"geometry":{"coordinates":[-4.51988,50.33149],"type":"Point"},"properties":{"_source":"warm_welcome","address":"Polperro Methodist Church, Polperro, Cornwall PL13 2QR","description":"","hours":"Th 10:00-14:00","title":"Polperro Methodist Church"},"type":"Feature"},
		{"geometry":{"coordinates":[-4.45153,50.45907],"type":"Point"},"properties":{"_source":"warm_welcome","address":"St Martin's Church Centre, Church Street, Liskeard, Cornwall PL14 3NW","description":"All are welcome We are offering free soup, roll and hot drink in our Upper Hall, Church Centre on Wednesdays during the winter months.","hours":"We 12:00-13:30","title":"St Martin's Church, Liskeard"},"type":"Feature"},
		{"geometry":{"coordinates":[-4.22811,50.40526],"type":"Point"},"properties":{"_source":"warm_welcome","address":"The Core, Church Rd, Saltash PL12 4AE","description":"Child and breastfeeding friendly community caf√© We are only open during term time. ","hours":"Th 09:00-12:00","title":"The Core"},"type":"Feature"},
		{"geometry":{"coordinates":[-4.31456,50.50217],"type":"Point"},"properties":{"_source":"warm_spaces","address":"Town Hall, New Road, Callington, England, PL17","title":"Callington Town Hall Complex"},"type":"Feature"},
		{"geometry":{"coordinates":[-4.29767,50.36459],"type":"Point"},"properties":{"_source":"warm_spaces","address":"Crafthole Methodist Church, Main Street Crafthole, Torpoint, England, PL11 3BQ","title":"Crafthole Methodist church, Crafthole Cornwall"},"type":"Feature"},
		{"geometry":{"coordinates":[-4.46049,50.45380],"type":"Point"},"properties":{"_source":"warm_spaces","address":"St Martin&#39;s Church Centre, Church Street, Liskeard, England, PL14 3BH","title":"St Martin's Church, Liskeard","url":"https://www.smartchurchliskeard.co.uk"},"type":"Feature"},
		{"geometry":{"coordinates":[-4.46269,50.45423],"type":"Point"},"properties":{"_source":"warm_spaces","address":"Salvation Army, 17 Church Street, Liskeard, England, PL14 3AG","title":"The Salvation Army","url":"https://www.salvationarmy.org.uk/liskeard"},"type":"Feature"}
	]
}
