{
	"type": "FeatureCollection",
	"features": [
		{"geometry":{"coordinates":[0.49242,52.93909],"type":"Point"},"properties":{"_source":"warm_welcome","address":"12 - 14 Valentine Road, Hunstanton, Norfolk PE36 5EF","description":"You can access most Libraries outside staffed hours with “Open Library” providing extra access to the library, its books and computers. Check if it's currently available at your local library here www.norfolk.gov.uk/openlibrary","hours":{"_text":"Tuesday: 9:00 - 19:00, Wednesday: 9:00 - 19:00, Friday: 9:00 - 19:00, Saturday: 9:00 - 16:00","opening":"Tu 09:00-19:00; We 09:00-19:00; Fr 09:00-19:00; Sa 09:00-16:00"},"title":"Hunstanton Library"},"type":"Feature"},
		{"geometry":{"coordinates":[0.49221,52.94156],"type":"Point"},"properties":{"_source":"warm_welcome","address":"Hunstanton Methodist Church, Austin St, Hunstanton PE36 6AJ","description":"Currently we cater for adults but children's toys are available in the church We have other activities on throughout the week","hours":{"_text":"Thursday: 10:00 - 12:00","opening":"Th 10:00-12:00"},"title":"Hunstanton Methodist Church"},"type":"Feature"},
		{"geometry":{"coordinates":[0.49020,52.94073],"type":"Point"},"properties":{"_source":"norfolk_community_foundation","address":"King's Lynn and West Norfolk, PE366BE","description":"Local Authority: Local Authority Name: King's Lynn and West Norfolk Area of Benefit Postcode: PE366BE","loc_pcd":true,"title":"St Edmund's"},"type":"Feature"},
		{"geometry":{"coordinates":[0.64340,52.96299],"type":"Point"},"properties":{"_source":"norfolk_community_foundation","address":"King's Lynn and West Norfolk, PE318AA","description":"Local Authority: Local Authority Name: King's Lynn and West Norfolk Area of Benefit Postcode: PE318AA","loc_pcd":true,"title":"St Mary's Brancaster"},"type":"Feature"},
		{"geometry":{"coordinates":[0.48883,52.94028],"type":"Point"},"properties":{"_source":"norfolk_community_foundation","address":"King's Lynn and West Norfolk, PE366BQ","description":"Local Authority: Local Authority Name: King's Lynn and West Norfolk Area of Benefit Postcode: PE366BQ","loc_pcd":true,"title":"Hunstanton Town Council"},"type":"Feature"}
	]
}
