{
	"type": "FeatureCollection",
	"features": [
		{"geometry":{"coordinates":[0.49242,52.93909],"type":"Point"},"properties":{"_source":"warm_welcome","address":"12 - 14 Valentine Road, Hunstanton, Norfolk PE36 5EF","description":"You can access most Libraries outside staffed hours with “Open Library” providing extra access to the library, its books and computers. Check if it's currently available at your local library here www.norfolk.gov.uk/openlibrary","hours":{"_text":"Tuesday: 9:00 - 19:00, Wednesday: 9:00 - 19:00, Friday: 9:00 - 19:00, Saturday: 9:00 - 16:00","opening":"Tu 09:00-19:00; We 09:00-19:00; Fr 09:00-19:00; Sa 09:00-16:00"},"title":"Hunstanton Library"},"type":"Feature"},
		{"geometry":{"coordinates":[0.49221,52.94156],"type":"Point"},"properties":{"_source":"warm_welcome","address":"Hunstanton Methodist Church, Austin St, Hunstanton PE36 6AJ","hours":{"_text":"Thursday: 10:00 - 12:00","opening":"Th 10:00-12:00"},"title":"Hunstanton Methodist Church"},"type":"Feature"},
		{"geometry":{"coordinates":[0.49549,52.93796],"type":"Point"},"properties":{"_source":"warm_spaces","address":"Downs Close, Hunstanton, England, PE36 5HU","hours":{"_text":"Tuesday 12pm-4pm","opening":"Tu 12:00-16:00"},"title":"The Way CF","url":"https://www.thewaycf.org.uk"},"type":"Feature"},
		{"geometry":{"coordinates":[0.49116,52.94176],"type":"Point"},"properties":{"_source":"warm_spaces","address":"Austin Street, Hunstanton, England, PE36","hours":{"_text":"Thursday 10am-12noon","opening":"Th 10:00-12:00"},"title":"Hunstanton Methodist Church","url":"https://hunstantonmethomdistchurch.com"},"type":"Feature"},
		{"geometry":{"coordinates":[0.49294,52.93934],"type":"Point"},"properties":{"_source":"warm_spaces","address":"14 Valentine Road, Hunstanton, England, PE36 5EF","hours":{"_text":"Tuesday, Wednesday, Friday 9am-7pm; Saturday 9am-4pm","opening":"Tu 09:00-19:00; We 09:00-19:00; Fr 09:00-19:00; Sa 09:00-16:00"},"title":"Hunstanton Library","url":"https://www.norfolk.gov.uk/libraries"},"type":"Feature"},
		{"geometry":{"coordinates":[0.48818,52.93975],"type":"Point"},"properties":{"_source":"warm_spaces","address":"Helping Hands Hub, Town Hall, The Green, Hunstanton, England, PE36 6BQ","hours":{"_text":"Mon, 10am-1pm","opening":"Mo 10:00-13:00"},"title":"Hunstanton Town Council","url":"https://www.hunstantontowncouncil.gov.uk"},"type":"Feature"},
		{"geometry":{"coordinates":[0.49020,52.94073],"type":"Point"},"properties":{"_source":"norfolk_community_foundation","address":"King's Lynn and West Norfolk, PE366BE","hours":{},"loc_pcd":true,"title":"St Edmund's"},"type":"Feature"},
		{"geometry":{"coordinates":[0.64340,52.96299],"type":"Point"},"properties":{"_source":"norfolk_community_foundation","address":"King's Lynn and West Norfolk, PE318AA","hours":{},"loc_pcd":true,"title":"St Mary's Brancaster"},"type":"Feature"},
		{"geometry":{"coordinates":[0.48883,52.94028],"type":"Point"},"properties":{"_source":"norfolk_community_foundation","address":"King's Lynn and West Norfolk, PE366BQ","hours":{},"loc_pcd":true,"title":"Hunstanton Town Council"},"type":"Feature"}
	]
}
