{
	"type": "FeatureCollection",
	"features": [
		{"geometry":{"coordinates":[0.37704,52.60176],"type":"Point"},"properties":{"_source":"warm_welcome","address":"The Priory Centre, 78 Priory Road, Downham Market, Norfolk PE38 9JS","description":"You can access most Libraries outside staffed hours with “Open Library” providing extra access to the library, its books and computers. Check if it's currently available at your local library at www.norfolk.gov.uk/openlibrary. Free hot drinks available, please see our What’s On page or ask in the library for times: https://www.norfolk.gov.uk/libraries-local-history-and-archives/libraries/whats-on.","hours":{"_text":"Tuesday: 10:00 - 19:00, Wednesday: 10:00 - 19:00, Thursday: 10:00 - 19:00, Friday: 10:00 - 19:00, Saturday: 13:00 - 16:00","opening":"Tu 10:00-19:00; We 10:00-19:00; Th 10:00-19:00; Fr 10:00-19:00; Sa 13:00-16:00"},"title":"Downham Market Library"},"type":"Feature"},
		{"geometry":{"coordinates":[0.55375,52.52318],"type":"Point"},"properties":{"_source":"warm_spaces","address":"16 High Street, Thetford, England, IP26 4NT, United Kingdom","description":"Free Food/Drink, Free Wi-Fi, People to chat to, Wheelchair Accessible, Toilets, Accessible Toilet, Parking, Child Friendly","hours":{"_text":"Wednesday 3pm-7pm","opening":"We 15:00-19:00"},"title":"Methwold HotSpot"},"type":"Feature"},
		{"geometry":{"coordinates":[0.45241,52.58663],"type":"Point"},"properties":{"_source":"warm_spaces","address":"Church Road, King&#39;s Lynn, England, PE33 9RF, United Kingdom","description":"Free Food/Drink, People to chat to, Wheelchair Accessible, Toilets, Accessible Toilet, Parking","hours":{"_text":"Wednesday 11am-2 pm","opening":"We 11:00-14:00"},"title":"West Dereham Village Hall"},"type":"Feature"},
		{"geometry":{"coordinates":[0.69019,52.64654],"type":"Point"},"properties":{"_source":"warm_spaces","address":"The Pightle, Swaffham, England, PE37 7DF, United Kingdom","description":"Free Food/Drink, Free Wi-Fi, Advice, People to chat to, Space to work, Wheelchair Accessible, Parking, Child Friendly, Computer Access. You can access most Libraries outside staffed hours with “Open Library” providing extra access to the library, its books and computers.","hours":{"_text":"Tuesday and Thursday 10am-7pm; Friday 1pm-7pm; Saturday 10am-4pm","opening":"Tu 10:00-19:00; Th 10:00-19:00; Fr 13:00-19:00; Sa 10:00-16:00"},"title":"Swaffham Library","url":"https://www.norfolk.gov.uk/libraries"},"type":"Feature"},
		{"geometry":{"coordinates":[0.37623,52.60160],"type":"Point"},"properties":{"_source":"warm_spaces","address":"78 Priory Road, Downham Market, England, PE38 9JS, United Kingdom","description":"Free Food/Drink, Free Wi-Fi, Advice, People to chat to, Space to work, Accessible Toilet, Child Friendly, Computer Access. You can access most Libraries outside staffed hours with “Open Library” providing extra access to the library, its books and computers.","hours":{"_text":"Tuesday-Friday 10am-7pm; Saturday 1pm-4pm","opening":"Tu-Fr 10:00-19:00; Sa 13:00-16:00"},"title":"Downham Market Library","url":"https://www.norfolk.gov.uk/libraries"},"type":"Feature"},
		{"geometry":{"coordinates":[0.51031,52.57332],"type":"Point"},"properties":{"_source":"warm_spaces","address":"The Blue Bell Pub-Cafe, Lynn Road, King&#39;s Lynn, England, PE33 9SW, United Kingdom","description":"Free Wi-Fi, Device Charging, People to chat to, Space to work, Food/Drink for sale, Accessible entrance and toilet, Baby Changing Facility, Hearing Loop, underfloor heating and log burner","hours":{"_text":"Monday &amp; Tuesdays 9am-4pm, Wednesday &amp; Thursday 9am-4pm, 6.30pm-10pm, Friday 9am-11pm, Saturday 12pm-11pm, Sunday 12pm-8pm.","opening":"Mo 09:00-16:00; Tu 09:00-16:00; We 09:00-16:00,18:30-22:00; Th 09:00-16:00,18:30-22:00; Fr 09:00-23:00; Sa 12:00-23:00; Su 12:00-20:00"},"title":"Stoke Ferry Community Enterprise Limited","url":"https://www.bluebellstokeferry.org"},"type":"Feature"},
		{"geometry":{"coordinates":[0.69114,52.64672],"type":"Point"},"properties":{"_source":"norfolk_community_foundation","address":"Breckland, PE377RB","description":"Local Authority: Local Authority Name: Breckland Area of Benefit Postcode: PE377RB","loc_pcd":true,"title":"Iceni Partnership"},"type":"Feature"},
		{"geometry":{"coordinates":[0.57418,52.58492],"type":"Point"},"properties":{"_source":"norfolk_community_foundation","address":"Breckland, PE339QB","description":"Local Authority: Local Authority Name: Breckland Area of Benefit Postcode: PE339QB","loc_pcd":true,"title":"Oxborough Village Hall"},"type":"Feature"},
		{"geometry":{"coordinates":[0.50932,52.57332],"type":"Point"},"properties":{"_source":"norfolk_community_foundation","address":"King's Lynn and West Norfolk, PE339SW","description":"Local Authority: Local Authority Name: King's Lynn and West Norfolk Area of Benefit Postcode: PE339SW","loc_pcd":true,"title":"Stoke Ferry Community Enterprise Limited"},"type":"Feature"},
		{"geometry":{"coordinates":[0.51003,52.57043],"type":"Point"},"properties":{"_source":"norfolk_community_foundation","address":"King's Lynn and West Norfolk, PE339SG","description":"Local Authority: Local Authority Name: King's Lynn and West Norfolk Area of Benefit Postcode: PE339SG","loc_pcd":true,"title":"Stoke Ferry Playing Field Association"},"type":"Feature"},
		{"geometry":{"coordinates":[0.45482,52.58756],"type":"Point"},"properties":{"_source":"norfolk_community_foundation","address":"King's Lynn and West Norfolk, PE339RF","description":"Local Authority: Local Authority Name: King's Lynn and West Norfolk Area of Benefit Postcode: PE339RF","loc_pcd":true,"title":"West Dereham Village Hall Management Committee"},"type":"Feature"},
		{"geometry":{"coordinates":[0.37452,52.60273],"type":"Point"},"properties":{"_source":"norfolk_community_foundation","address":"King's Lynn and West Norfolk, PE389DW","description":"Local Authority: Local Authority Name: King's Lynn and West Norfolk Area of Benefit Postcode: PE389DW","loc_pcd":true,"title":"SWAN Youth Project (Norfolk)"},"type":"Feature"},
		{"geometry":{"coordinates":[0.60801,52.56048],"type":"Point"},"properties":{"_source":"norfolk_community_foundation","address":"Breckland, IP265AB","description":"Local Authority: Local Authority Name: Breckland Area of Benefit Postcode: IP265AB","loc_pcd":true,"title":"Foulden Parish Council"},"type":"Feature"},
		{"geometry":{"coordinates":[0.55423,52.52310],"type":"Point"},"properties":{"_source":"norfolk_community_foundation","address":"King's Lynn and West Norfolk, IP264NT","description":"Local Authority: Local Authority Name: King's Lynn and West Norfolk Area of Benefit Postcode: IP264NT","loc_pcd":true,"title":"Methwold Community Action Group"},"type":"Feature"},
		{"geometry":{"coordinates":[0.55423,52.52310],"type":"Point"},"properties":{"_source":"norfolk_community_foundation","address":"King's Lynn and West Norfolk, IP264NT","description":"Local Authority: Local Authority Name: King's Lynn and West Norfolk Area of Benefit Postcode: IP264NT","loc_pcd":true,"title":"Methwold Hall Complex Charitable Trust"},"type":"Feature"},
		{"geometry":{"coordinates":[0.48024,52.58628],"type":"Point"},"properties":{"_source":"norfolk_community_foundation","address":"King's Lynn and West Norfolk, PE339AP","description":"Local Authority: Local Authority Name: King's Lynn and West Norfolk Area of Benefit Postcode: PE339AP","loc_pcd":true,"title":"Wereham Village Hall"},"type":"Feature"},
		{"geometry":{"coordinates":[0.37732,52.60408],"type":"Point"},"properties":{"_source":"norfolk_community_foundation","address":"King's Lynn and West Norfolk, PE389HS","description":"Local Authority: Local Authority Name: King's Lynn and West Norfolk Area of Benefit Postcode: PE389HS","loc_pcd":true,"title":"Downham Market Town Council"},"type":"Feature"},
		{"geometry":{"coordinates":[0.52933,52.62186],"type":"Point"},"properties":{"_source":"norfolk_community_foundation","address":"King's Lynn and West Norfolk, PE339GF","description":"Local Authority: Local Authority Name: King's Lynn and West Norfolk Area of Benefit Postcode: PE339GF","loc_pcd":true,"title":"Barton Bendish Village Hall Trust"},"type":"Feature"},
		{"geometry":{"coordinates":[0.49168,52.62920],"type":"Point"},"properties":{"_source":"norfolk_community_foundation","address":"King's Lynn and West Norfolk, PE339EJ","description":"Local Authority: Local Authority Name: King's Lynn and West Norfolk Area of Benefit Postcode: PE339EJ","loc_pcd":true,"title":"Fincham Memorial Hall"},"type":"Feature"},
		{"geometry":{"coordinates":[0.52569,52.65910],"type":"Point"},"properties":{"_source":"norfolk_community_foundation","address":"King's Lynn and West Norfolk, PE339JA","description":"Local Authority: Local Authority Name: King's Lynn and West Norfolk Area of Benefit Postcode: PE339JA","loc_pcd":true,"title":"Marham Parish Council"},"type":"Feature"}
	]
}
