{
	"type": "FeatureCollection",
	"features": [
		{"geometry":{"coordinates":[0.37704,52.60176],"type":"Point"},"properties":{"_source":"warm_welcome","address":"The Priory Centre, 78 Priory Road, Downham Market, Norfolk PE38 9JS","description":"You can access most Libraries outside staffed hours with “Open Library” providing extra access to the library, its books and computers. Check if it's currently available at your local library here www.norfolk.gov.uk/openlibrary","hours":{"_text":"Tuesday: 10:00 - 19:00, Wednesday: 10:00 - 19:00, Thursday: 10:00 - 19:00, Friday: 10:00 - 19:00, Saturday: 13:00 - 16:00","opening":"Tu 10:00-19:00; We 10:00-19:00; Th 10:00-19:00; Fr 10:00-19:00; Sa 13:00-16:00"},"title":"Downham Market Library"},"type":"Feature"},
		{"geometry":{"coordinates":[0.37704,52.60176],"type":"Point"},"properties":{"_source":"warm_welcome","address":"The Priory Centre, 78 Priory Road, Downham Market, Norfolk PE38 9JS","description":"You can access most Libraries outside staffed hours with “Open Library” providing extra access to the library, its books and computers. Check if it's currently available at your local library here www.norfolk.gov.uk/openlibrary","hours":{"_text":"Tuesday: 10:00 - 19:00, Wednesday: 10:00 - 19:00, Thursday: 10:00 - 19:00, Friday: 10:00 - 19:00, Saturday: 13:00 - 16:00","opening":"Tu 10:00-19:00; We 10:00-19:00; Th 10:00-19:00; Fr 10:00-19:00; Sa 13:00-16:00"},"title":"Downham Market Library"},"type":"Feature"},
		{"geometry":{"coordinates":[0.55375,52.52318],"type":"Point"},"properties":{"_source":"warm_spaces","address":"16 High Street, Thetford, England, IP26 4NT","hours":{"_text":"Wednesday 3pm-7pm","opening":"We 15:00-19:00"},"title":"Methwold HotSpot"},"type":"Feature"},
		{"geometry":{"coordinates":[0.45241,52.58663],"type":"Point"},"properties":{"_source":"warm_spaces","address":"Church Road, King&#39;s Lynn, England, PE33 9RF","hours":{"_text":"Wednesday 11am-2 pm","opening":"We 11:00-02:00"},"title":"West Dereham Village Hall"},"type":"Feature"},
		{"geometry":{"coordinates":[0.69019,52.64654],"type":"Point"},"properties":{"_source":"warm_spaces","address":"The Pightle, Swaffham, England, PE37 7DF","hours":{"_text":"Tuesday and Thursday 10am-7pm; Friday 1pm-7pm; Saturday 10am-4pm","opening":"Tu 10:00-19:00; Th 10:00-19:00; Fr 13:00-19:00; Sa 10:00-16:00"},"title":"Swaffham Library","url":"https://www.norfolk.gov.uk/libraries"},"type":"Feature"},
		{"geometry":{"coordinates":[0.37623,52.60160],"type":"Point"},"properties":{"_source":"warm_spaces","address":"78 Priory Road, Downham Market, England, PE38 9JS","hours":{"_text":"Tuesday-Friday 10am-7pm; Saturday 1pm-4pm","opening":"Tu-Fr 10:00-19:00; Sa 13:00-16:00"},"title":"Downham Market Library","url":"https://www.norfolk.gov.uk/libraries"},"type":"Feature"},
		{"geometry":{"coordinates":[0.51031,52.57332],"type":"Point"},"properties":{"_source":"warm_spaces","address":"The Blue Bell Pub-Cafe, Lynn Road, King&#39;s Lynn, England, PE33 9SW","hours":{"_text":"Monday &amp; Tuesdays 9am-4pm, Wednesday &amp; Thursday 9am-4pm, 6.30pm-10pm, Friday 9am-11pm, Saturday 12pm-11pm, Sunday 12pm-8pm.","opening":"Mo 09:00-16:00; Tu 09:00-16:00; We 09:00-16:00,18:30-22:00; Th 09:00-16:00,18:30-22:00; Fr 09:00-23:00; Sa 12:00-23:00; Su 12:00-20:00"},"title":"Stoke Ferry Community Enterprise Limited","url":"https://www.bluebellstokeferry.org"},"type":"Feature"},
		{"geometry":{"coordinates":[0.50932,52.57332],"type":"Point"},"properties":{"_source":"norfolk_community_foundation","address":"King's Lynn and West Norfolk, PE339SW","hours":{},"loc_pcd":true,"title":"Stoke Ferry Community Enterprise Limited"},"type":"Feature"},
		{"geometry":{"coordinates":[0.51003,52.57043],"type":"Point"},"properties":{"_source":"norfolk_community_foundation","address":"King's Lynn and West Norfolk, PE339SG","hours":{},"loc_pcd":true,"title":"Stoke Ferry Playing Field Association"},"type":"Feature"},
		{"geometry":{"coordinates":[0.45509,52.58762],"type":"Point"},"properties":{"_source":"norfolk_community_foundation","address":"King's Lynn and West Norfolk, PE339RF","hours":{},"loc_pcd":true,"title":"West Dereham Village Hall Management Committee"},"type":"Feature"},
		{"geometry":{"coordinates":[0.37452,52.60273],"type":"Point"},"properties":{"_source":"norfolk_community_foundation","address":"King's Lynn and West Norfolk, PE389DW","hours":{},"loc_pcd":true,"title":"SWAN Youth Project (Norfolk)"},"type":"Feature"},
		{"geometry":{"coordinates":[0.60705,52.56110],"type":"Point"},"properties":{"_source":"norfolk_community_foundation","address":"Breckland, IP265AB","hours":{},"loc_pcd":true,"title":"Foulden Parish Council"},"type":"Feature"},
		{"geometry":{"coordinates":[0.55423,52.52310],"type":"Point"},"properties":{"_source":"norfolk_community_foundation","address":"King's Lynn and West Norfolk, IP264NT","hours":{},"loc_pcd":true,"title":"Methwold Community Action Group"},"type":"Feature"},
		{"geometry":{"coordinates":[0.55423,52.52310],"type":"Point"},"properties":{"_source":"norfolk_community_foundation","address":"King's Lynn and West Norfolk, IP264NT","hours":{},"loc_pcd":true,"title":"Methwold Hall Complex Charitable Trust"},"type":"Feature"},
		{"geometry":{"coordinates":[0.48024,52.58628],"type":"Point"},"properties":{"_source":"norfolk_community_foundation","address":"King's Lynn and West Norfolk, PE339AP","hours":{},"loc_pcd":true,"title":"Wereham Village Hall"},"type":"Feature"},
		{"geometry":{"coordinates":[0.37732,52.60408],"type":"Point"},"properties":{"_source":"norfolk_community_foundation","address":"King's Lynn and West Norfolk, PE389HS","hours":{},"loc_pcd":true,"title":"Downham Market Town Council"},"type":"Feature"},
		{"geometry":{"coordinates":[0.52933,52.62186],"type":"Point"},"properties":{"_source":"norfolk_community_foundation","address":"King's Lynn and West Norfolk, PE339GF","hours":{},"loc_pcd":true,"title":"Barton Bendish Village Hall Trust"},"type":"Feature"},
		{"geometry":{"coordinates":[0.49168,52.62920],"type":"Point"},"properties":{"_source":"norfolk_community_foundation","address":"King's Lynn and West Norfolk, PE339EJ","hours":{},"loc_pcd":true,"title":"Fincham Memorial Hall"},"type":"Feature"},
		{"geometry":{"coordinates":[0.52569,52.65910],"type":"Point"},"properties":{"_source":"norfolk_community_foundation","address":"King's Lynn and West Norfolk, PE339JA","hours":{},"loc_pcd":true,"title":"Marham Parish Council"},"type":"Feature"}
	]
}
