{
	"type": "FeatureCollection",
	"features": [
		{"geometry":{"coordinates":[0.41003,52.24273],"type":"Point"},"properties":{"_source":"warm_welcome","address":"All Saints Church, All Saints Road, Newmarket, Suffolk CB8 8ES","description":"Open from 22-11-2022. Every Tuesday 9.00am to 3.00 pm, come in for a chat, light refreshments, games and newspapers, a children’s corner. All welcome!","hours":{"_text":"Monday: 10:00 - 14:00, Tuesday: 09:00 - 15:00, Wednesday: 10:00 - 14:00, Thursday: 10:00 - 14:00, Friday: 10:00 - 14:00, Saturday: 10:00 - 14:00, Sunday: 9:00 - 13:00","opening":"Mo 10:00-14:00; Tu 09:00-15:00; We 10:00-14:00; Th 10:00-14:00; Fr 10:00-14:00; Sa 10:00-14:00; Su 09:00-13:00"},"title":"All Saints Church"},"type":"Feature"},
		{"geometry":{"coordinates":[0.69276,52.24340],"type":"Point"},"properties":{"_source":"warm_welcome","address":"All Saints Church, Park Road,, Bury St Edmunds, Suffolk IP33 3QW","description":"Open from 03/11/2022. Everyone welcome.","hours":{"_text":"Thursday: 10:15 - 13:00","opening":"Th 10:15-13:00"},"title":"All Saints Church"},"type":"Feature"},
		{"geometry":{"coordinates":[0.68924,52.24797],"type":"Point"},"properties":{"_source":"warm_welcome","address":"Dettingen Way, Bury St Edmunds, Suffolk IP33 3TU","description":"Open from 03-01-2023. We are one of your local warm spaces and all are welcome. Somewhere warm to sit, read the paper, play some board games or just chat with others","hours":{"_text":"Tuesday: 10:00 - 13:00","opening":"Tu 10:00-13:00"},"title":"Gatehouse"},"type":"Feature"},
		{"geometry":{"coordinates":[0.44273,52.08588],"type":"Point"},"properties":{"_source":"warm_welcome","address":"Chalkstone Community Centre, Haverhill, Suffolk CB9 0JB","hours":{"_text":"Monday: 10:00 - 15:00 / -","opening":"Mo 10:00-15:00"},"title":"River Of Life Community Church"},"type":"Feature"},
		{"geometry":{"coordinates":[0.43887,52.08226],"type":"Point"},"properties":{"_source":"warm_welcome","address":"St Mary's Church , High Street , Haverhill Suffolk CB9 8AX","description":"Open from 07/10/2022. All faiths and none are welcome. We may be closed for special services such as a funeral occasionally","hours":{"_text":"Friday: 09:30 - 15:00, Saturday: 10:00 - 12:00","opening":"Fr 09:30-15:00; Sa 10:00-12:00"},"title":"St Mary's Church, Haverhill"},"type":"Feature"},
		{"geometry":{"coordinates":[0.40517,52.24567],"type":"Point"},"properties":{"_source":"warm_spaces","address":"Fred Archer Way, Newmarket, England, CB8 8NT","hours":{"_text":"Mon-Fri 8am-4pm","opening":"Mo-Fr 08:00-16:00"},"title":"Newmarket Day Centre","url":"https://newmarketdaycentre.co.uk"},"type":"Feature"},
		{"geometry":{"coordinates":[0.37396,52.26413],"type":"Point"},"properties":{"_source":"warm_spaces","address":"Exning Community Church Hall, Church Lane, Newmarket, England, CB8 7HF","hours":{"_text":"2nd, 3rd, 4th Monday of the Month - 12.30pm-3pm"},"title":"Exning Warm Space - The Soup Bowl"},"type":"Feature"},
		{"geometry":{"coordinates":[0.66172,52.10040],"type":"Point"},"properties":{"_source":"warm_spaces","address":"Unit 2B, Clock House Farm, Cavendish Lane, Sudbury, England, CO10 7PZ","hours":{"_text":"Monday, Tuesday, Thursday, Friday, Saturday 9.30am-5pm","opening":"Mo 09:30-17:00; Tu 09:30-17:00; Th 09:30-17:00; Fr 09:30-17:00; Sa 09:30-17:00"},"title":"The Craft Cabin Cafe","url":"https://www.Facebook.com/craftcabinuk"},"type":"Feature"},
		{"geometry":{"coordinates":[0.40561,52.24481],"type":"Point"},"properties":{"_source":"warm_spaces","address":"The Guineas, Newmarket, England, CB8 8EQ","hours":{"_text":"Monday Closed, Tuesday 8:30-6pm, Wednesday 9am-5pm, Thursday 8:30-5pm, Friday 8:30-6:30pm, Saturday 9am-5pm, Sunday 10am-4pm","opening":"Tu 08:30-18:00; We 09:00-17:00; Th 08:30-17:00; Fr 08:30-18:30; Sa 09:00-17:00; Su 10:00-16:00"},"title":"Newmarket Library","url":"https://www.suffolklibraries.co.uk/visit/locations-and-times/newmarket-library"},"type":"Feature"},
		{"geometry":{"coordinates":[0.57999,52.07917],"type":"Point"},"properties":{"_source":"warm_spaces","address":"Clare Library, The Guildhall, High Street, Sudbury, England, CO10 8NY","hours":{"_text":"Tues, Wed, Fri - 10am-1pm &amp; 2pm-5pm, Sat 10am-1pm, Sun 10am-2pm","opening":"Tu 10:00-13:00; We 10:00-13:00; Fr 10:00-13:00; Sa 10:00-13:00; Su 10:00-14:00"},"title":"Clare Library","url":"https://suffolklibraries.co.uk"},"type":"Feature"},
		{"geometry":{"coordinates":[0.63431,52.26562],"type":"Point"},"properties":{"_source":"warm_spaces","address":"Risby Village Hall, Aylmer Close, Bury Saint Edmunds, England, IP28 6RT","hours":{"_text":"Flexible"},"title":"Cozy Coffee Club","url":"https://www.risbyvillagehall.co.uk"},"type":"Feature"},
		{"geometry":{"coordinates":[0.48388,52.22460],"type":"Point"},"properties":{"_source":"cambridgeshire_acre","address":"Ashley Pavilion, High Street, Ashley, Newmarket, CB8 9DX","hours":{"_text":"Last Thursday of every month, 1pm - 3.30pm","opening":"Th[-1] 13:00-15:30"},"loc_pcd":true,"title":"Ashley Warm Hub"},"type":"Feature"},
		{"geometry":{"coordinates":[0.39339,52.17455],"type":"Point"},"properties":{"_source":"cambridgeshire_acre","address":"Burrough Green Reading Room, Bradley Road, Burrough Green, Newmarket, CB8 9NH","hours":{"_text":"Thursday, 3.30pm - 5pm and Friday, 9.30am - 11.30am","opening":"Th 15:30-17:00; Fr 09:30-11:30"},"loc_pcd":true,"title":"Burrough Green Warm Hub"},"type":"Feature"},
		{"geometry":{"coordinates":[0.40131,52.19853],"type":"Point"},"properties":{"_source":"cambridgeshire_acre","address":"Ellesmere Centre, Ley Road, Stetchworth, Newmarket, CB8 9TS","hours":{"_text":"Monday, 9am - 12pm, Wednesday, 9am - 12pm","opening":"Mo 09:00-12:00; We 09:00-12:00"},"loc_pcd":true,"title":"Stetchworth Warm Hub"},"type":"Feature"},
		{"geometry":{"coordinates":[0.37205,52.14510],"type":"Point"},"properties":{"_source":"cambridgeshire_acre","address":"Weston Colville Reading Room, Chapel Road, Weston Colville, Cambridge, CB21 5NX","description":"This Warm Hub will close from 17-Dec-2022 - 8-Jan-2023, reopening on 9-Jan-2023.","hours":{"_text":"Monday - Friday, 11am - 5pm","opening":"Mo-Fr 11:00-17:00"},"loc_pcd":true,"title":"Weston Colville Warm Hub"},"type":"Feature"},
		{"geometry":{"coordinates":[0.58035,52.07910],"type":"Point"},"properties":{"_source":"suffolk_-_rural_coffee_caravan","address":"The Guildhall Surgery, High Street, Clare, Sudbury CO10 8NY, UK","contact":"Phone:01787 277702","hours":{"_text":"Open 5 days a week, please follow the website link for opening times "},"title":"WARM SPACES - Clare Library","url":"https://www.suffolklibraries.co.uk/visit/locations-and-times/clare-library"},"type":"Feature"},
		{"geometry":{"coordinates":[0.43682,52.08304],"type":"Point"},"properties":{"_source":"suffolk_-_rural_coffee_caravan","address":"Haverhill Library, Camps Road, Haverhill CB9 8HB, UK","contact":"Phone:01440 848095","hours":{"_text":"Open 7 days a week, please follow the website link for opening times "},"title":"WARM SPACES - Haverhill Library","url":"https://www.suffolklibraries.co.uk/visit/locations-and-times/haverhill-library"},"type":"Feature"},
		{"geometry":{"coordinates":[0.48881,52.08977],"type":"Point"},"properties":{"_source":"suffolk_-_rural_coffee_caravan","address":"Kedington Community Centre, Kedington, Haverhill CB9 7QQ, UK","contact":"Phone:01440 703449","hours":{"_text":"Open 5 days a week, please follow the website link for opening times "},"title":"WARM SPACES - Kedington Library","url":"https://www.suffolklibraries.co.uk/visit/locations-and-times/kedington-library"},"type":"Feature"},
		{"geometry":{"coordinates":[0.40566,52.24513],"type":"Point"},"properties":{"_source":"suffolk_-_rural_coffee_caravan","address":"1a The Guineas-Shopping Centre, Newmarket CB8 8EQ, UK","contact":"Phone:01638 661216","hours":{"_text":"Open 6 days a week, please follow the website link for opening times "},"title":"WARM SPACES - Newmarket Library","url":"https://www.suffolklibraries.co.uk/visit/locations-and-times/newmarket-library"},"type":"Feature"},
		{"geometry":{"coordinates":[0.44336,52.08448],"type":"Point"},"properties":{"_source":"suffolk_-_rural_coffee_caravan","address":"Chalkstone Community Centre, Millfields Way, Haverhill CB9 0JB, UK","description":"Haverhill Churches - WARM HUB - Open for all to keep warm in winter","hours":{"_text":"Mondays (Except 26th December) 09.00 - 15.00","opening":"Mo 09:00-15:00"},"title":"Warm Spaces - River of Life Community Church","url":"https://www.rolcc.org.uk/"},"type":"Feature"},
		{"geometry":{"coordinates":[0.43402,52.08207],"type":"Point"},"properties":{"_source":"suffolk_-_rural_coffee_caravan","address":"28 Camps Road, Haverhill CB9 8HF, UK","description":"Haverhill Churches - WARM HUB - Open for all to keep warm in winter","hours":{"_text":"Wednesdays 09.00 - 15.00","opening":"We 09:00-15:00"},"title":"WARM SPACES - Haverhill Methodist Church","url":"http://www.haverhillmethodist.co.uk/"},"type":"Feature"},
		{"geometry":{"coordinates":[0.43937,52.08238],"type":"Point"},"properties":{"_source":"suffolk_-_rural_coffee_caravan","address":"High Street, Haverhill CB9 8AD, UK","description":"Haverhill Churches - WARM HUB - Open for all to keep warm in winter","hours":{"_text":"Fridays 09.00 - 15.00","opening":"Fr 09:00-15:00"},"title":"WARM SPACES - St Mary's Church","url":"https://stmaryshaverhill.org.uk/"},"type":"Feature"},
		{"geometry":{"coordinates":[0.41706,52.09063],"type":"Point"},"properties":{"_source":"suffolk_-_rural_coffee_caravan","address":"2 Park Road, Haverhill CB9 7SR, UK","description":"A space for you to come in, stay warm and socialise, or if you prefer to simply take a seat, quietly read a book or newspaper and enjoy a warm drink and snack in a comfortable safe environment. Not only can we offer a warm and friendly welcome but if you would like to, the chance to learn a new skill, to try something different and the opportunity to gain recognised qualifications. Most of courses we provide are fully funded and can be offered to you for free.","hours":{"_text":"Mondays & Wednesdays (01.11.2022 - 31.03.2023) (except 26th & 28th Dec and 2nd Jan) 10.00 - 15.00","opening":"Mo 10:00-15:00; We 10:00-15:00"},"title":"WARM SPACES - West Suffolk College Haverhill","url":"www.wsc.ac.uk"},"type":"Feature"},
		{"geometry":{"coordinates":[0.58943,52.20860],"type":"Point"},"properties":{"_source":"suffolk_-_rural_coffee_caravan","address":"Bury Road, Bury Saint Edmunds IP29 5HP, UK","description":"Free lunch included and free food larder is also available 24hrs a day from the Church","hours":{"_text":"Saturdays - (Next date is 17th December) 11.00 - 15.00","opening":"Sa 11:00-15:00"},"title":"WARM SPACES - Hargrave Village Hall","url":"http://hargrave-suffolk.co.uk/VillageHall/VillageHall.html"},"type":"Feature"},
		{"geometry":{"coordinates":[0.44063,52.08081],"type":"Point"},"properties":{"_source":"suffolk_-_rural_coffee_caravan","address":"Haverhill Arts Centre, High Street, Haverhill CB9 8AR, UK","contact":"Phone:01440 714140","description":"Watch classic movies in a warm space, free-of-charge. No need to book, just turn up. Click on the word 'website' above to open a poster with film screening details.","hours":{"_text":"Mondays, Wednesdays and Fridays in January 2023 Films commence at 1pm."},"title":"WARM SPACES - Warm Watches at Haverhill Arts Centre","url":"https://ruralcoffeecaravan.org.uk/wp-content/uploads/Haverhill-Arts-Centre-Watch-in-the-Warm-January-2023.pdf"},"type":"Feature"},
		{"geometry":{"coordinates":[0.40624,52.24393],"type":"Point"},"properties":{"_source":"suffolk_-_rural_coffee_caravan","address":"65 High Street, Newmarket CB8 8NB, UK","contact":"Phone:01638 662311","description":"A community café that is open to the general public but will provide a warm welcome to those who wish to share the heated building","hours":{"_text":"Tuesdays - Saturdays (except 24th Dec - 3rd Jan) 10.00 - 13.30 ","opening":"Tu-Sa 10:00-13:30"},"title":"WARM SPACES - The Stable","url":"https://www.elyandnewmarketmethodists.org.uk/thestable.htm"},"type":"Feature"},
		{"geometry":{"coordinates":[0.69105,52.24342],"type":"Point"},"properties":{"_source":"suffolk_-_rural_coffee_caravan","address":"Park Road, Bury St Edmunds, Suffolk IP33 3QW, UK","description":"Everyone welcome. We have hot drinks, accessible toilets and we are a child friendly space.","hours":{"_text":"Thursdays 10.15 - 13.00","opening":"Th 10:15-13:00"},"title":"WARM SPACES - All Saints Church, BSE","url":"https://www.northburychurches.org.uk/"},"type":"Feature"},
		{"geometry":{"coordinates":[0.63291,52.26541],"type":"Point"},"properties":{"_source":"suffolk_-_rural_coffee_caravan","address":"Aylmer Close, Risby, Bury Saint Edmunds IP28 6RT, UK","contact":"Phone:07835 515710","description":"Free tea/coffee and biscuits/cake. with a warm welcome to share the heated building.","hours":{"_text":"Monthly on Saturdays - Next Date 10th December Times - 10.00 - 12.00 "},"title":"WARM SPACES - Risby Village Hall","url":"https://www.risbyvillagehall.co.uk/"},"type":"Feature"},
		{"geometry":{"coordinates":[0.50567,52.16349],"type":"Point"},"properties":{"_source":"suffolk_-_rural_coffee_caravan","address":"Queen Street, Cowlinge, Newmarket, Suffolk CB8 9QB, UK","description":"This coincides with the visit from the chip shop van so helps with all needs! Teas and coffees and soups are also available.","hours":{"_text":"Tuesdays (fortnightly) from 22nd November (except 2nd Jan( 11.00 - 14.00"},"title":"WARM SPACES - Cowlinge Village Hall","url":"https://yourhall.co.uk/hall/cowlinge-village-hall/"},"type":"Feature"},
		{"geometry":{"coordinates":[0.40942,52.24295],"type":"Point"},"properties":{"_source":"suffolk_-_rural_coffee_caravan","address":"All Saints Road, Newmarket CB8 8ES, UK","description":"All are welcome and we offer light refreshments, newspapers, games, a children's corner and signposting to essential services. Well behaved dogs are welcome.","hours":{"_text":"Tuesdays 9.00 - 15.00","opening":"Tu 09:00-15:00"},"title":"WARM SPACES - All Saints Church, Newmarket","url":"https://www.allsaintsnewmarket.org/welcome.htm"},"type":"Feature"},
		{"geometry":{"coordinates":[0.45008,52.12766],"type":"Point"},"properties":{"_source":"suffolk_-_rural_coffee_caravan","address":"The Street, Thurlow, Suffolk CB9 7LA, UK","description":"Free Soup, & Roll, Tea, Coffee and a natter. Run by Thurlow W.I.","hours":{"_text":"Thursdays 15.00 - 17.00","opening":"Th 15:00-17:00"},"title":"WARM SPACES - Thurlow Village Hall","url":"www. TheThurlows.org.uk"},"type":"Feature"},
		{"geometry":{"coordinates":[0.70199,52.25823],"type":"Point"},"properties":{"_source":"suffolk_-_rural_coffee_caravan","address":"Bury Saint Edmunds IP32 6RH, UK","contact":"Phone:01284 754967","description":"Christmas Day lunch – Advance booking required on 01284 754967","hours":{"_text":"25th December 2022 "},"title":"WARM SPACES - St Benedict's School"},"type":"Feature"},
		{"geometry":{"coordinates":[0.37280,52.26406],"type":"Point"},"properties":{"_source":"suffolk_-_rural_coffee_caravan","address":"Church Lane, Exning, Newmarket CB8 7HF, UK","contact":"Phone: 07709 539036","description":"Open for warm space proving free tea, coffee and soup and cake. Open to all, young and old to socialise or meet up with friends.","hours":{"_text":"Every 2nd, 3rd & 4th Monday of the Month 12.30 - 15.00"},"title":"WARM SPACES - Exning Community Church Hall"},"type":"Feature"},
		{"geometry":{"coordinates":[0.68655,52.24775],"type":"Point"},"properties":{"_source":"suffolk_-_rural_coffee_caravan","address":"Gatehouse, Dettingen Way, Bury Saint Edmunds IP33 3TU, UK","description":"Warm Welcome Space. All welcome. Somewhere warm to sit, read the papers, play board games or just chat with others. Free hot drinks, soup & bread & charging facilities.","hours":{"_text":"Tuesdays 10.00 - 13.00","opening":"Tu 10:00-13:00"},"title":"WARM SPACES - Gatehouse"},"type":"Feature"},
		{"geometry":{"coordinates":[0.66826,52.09579],"type":"Point"},"properties":{"_source":"suffolk_-_rural_coffee_caravan","address":"THE ANGEL, Egremont St, Glemsford, Sudbury CO10 7SA, UK","description":"Warm Space, open daily, everyone welcome, no questions. Free tea, coffee and biscuits til 4pm. Free hot meal offered daily, dessert sometimes also offered. Visitors will still be able to come in and order from the main menu but can choose the free meal of the day. Lifts are available. We have games. Wednesdays will include a bingo afternoon. Our venue is very dog friendly.","hours":{"_text":"Every day 12.00 - 16.00","opening":"Mo-Su 12:00-16:00"},"title":"WARM SPACES - The Angel","url":"https://www.facebook.com/people/The-Angel-Glemsford/100063609818577/"},"type":"Feature"},
		{"geometry":{"coordinates":[0.66842,52.09442],"type":"Point"},"properties":{"_source":"suffolk_-_rural_coffee_caravan","address":"Egremont Street, Glemsford, Sudbury CO10 7SA, UK","contact":"Phone:07187 281559","description":"Open daily, everyone welcome, no questions. Free tea, coffee and biscuits til 4pm. Free hot meal offered daily; dessert sometimes also offered. Visitors will still be able to come in and order from the main menu but can choose the free meal of the day. Lifts are available. We have games. Wednesdays will include a bingo afternoon.","hours":{"_text":"Mondays - Sundays 12.00 - 16.00","opening":"Mo-Su 12:00-16:00"},"title":"WARM SPACES - The Angel, Glemsford","url":"https://www.facebook.com/people/The-Angel-Glemsford/100063609818577/"},"type":"Feature"}
	]
}
