{
	"type": "FeatureCollection",
	"features": [
		{"geometry":{"coordinates":[1.29955,52.93192],"type":"Point"},"properties":{"_source":"warm_welcome","address":"Cromer Community Centre, Cromer, norfolk NR27 9HN","description":"We cater for everyone, wheel chair access We have Jigsaws, Games etc. On Wednesday we have rag rugging","hours":"We 10:00-14:00; Fr 10:00-14:00","title":"Cromer Community Association CIO"},"type":"Feature"},
		{"geometry":{"coordinates":[1.29788,52.93174],"type":"Point"},"properties":{"_source":"warm_welcome","address":"Prince of Wales Road, Cromer, Norfolk NR27 9HS","description":" You can access most Libraries outside staffed hours with “Open Library” providing extra access to the library, its books and computers. Check if it's currently available at your local library here www.norfolk.gov.uk/openlibrary ","hours":"Mo 10:30-19:00; Tu 10:30-19:00; Th 10:30-19:00; Fr 10:30-19:00; Sa 12:00-16:00","title":"Cromer Library"},"type":"Feature"},
		{"geometry":{"coordinates":[1.21203,52.94259],"type":"Point"},"properties":{"_source":"warm_welcome","address":"New Road, Sheringham, Norfolk NR26 8EB","description":" You can access most Libraries outside staffed hours with “Open Library” providing extra access to the library, its books and computers. Check if it's currently available at your local library here www.norfolk.gov.uk/openlibrary ","hours":"Mo 10:00-19:00; Tu 10:00-19:00; We 13:00-19:00; Fr 13:00-19:00; Sa 11:00-16:00","title":"Sheringham Library"},"type":"Feature"},
		{"geometry":{"coordinates":[1.21288,52.94064],"type":"Point"},"properties":{"_source":"warm_welcome","address":"St Andrews Road, Sheringham, Norfolk NR26 8SA","description":"","hours":"Tu 10:00-16:00","title":"Sheringham St Andrews Methodist Church"},"type":"Feature"},
		{"geometry":{"coordinates":[1.29891,52.93149],"type":"Point"},"properties":{"_source":"warm_spaces","address":"Garden Street, Cromer, England, NR27 9HL","title":"Cromer Warm Space","url":"https://www.cromercommunity.co.uk"},"type":"Feature"},
		{"geometry":{"coordinates":[1.21196,52.94276],"type":"Point"},"properties":{"_source":"warm_spaces","address":"New Road, Sheringham, England, NR26 8EB","title":"Sheringham Library","url":"https://www.norfolk.gov.uk/libraries"},"type":"Feature"},
		{"geometry":{"coordinates":[1.29779,52.93103],"type":"Point"},"properties":{"_source":"warm_spaces","address":"Prince of Wales Road, Cromer, England, NR27 9HS","title":"Cromer Library","url":"https://www.norfolk.gov.uk/libraries"},"type":"Feature"},
		{"geometry":{"coordinates":[1.20874,52.94303],"type":"Point"},"properties":{"_source":"warm_spaces","address":"41 Church Street, Sheringham, England, NR26 8QS","title":"Noah’s Ark Baby and Toddler Group","url":"https://m.facebook.com/StPetersSheringham/photos/a.1089398397813359/3958942667525570/"},"type":"Feature"},
		{"geometry":{"coordinates":[1.20874,52.94303],"type":"Point"},"properties":{"_source":"warm_spaces","address":"St Peter’s Church Hall, Church Street, Sheringham, England, NR26 8QS","title":"St Peter’s Church, Sheringham ‘Monday Cuppa’","url":"https://www.achurchnearyou.com/church/10042/news/?page=64"},"type":"Feature"},
		{"geometry":{"coordinates":[1.20570,52.93529],"type":"Point"},"properties":{"_source":"warm_spaces","address":"Sheringham Community Centre, Holway Road, Sheringham, England, NR26 8NP","title":"Little Fishes Sheringham","url":"https://communitydirectory.norfolk.gov.uk/Services/10398"},"type":"Feature"}
	]
}
