{
	"type": "FeatureCollection",
	"features": [
		{"geometry":{"coordinates":[1.25088,52.79469],"type":"Point"},"properties":{"_source":"warm_welcome","address":"7 Hungate Street, Aylsham, Norwich NR11 6AA","description":" You can access most Libraries outside staffed hours with “Open Library” providing extra access to the library, its books and computers. Check if it's currently available at your local library here www.norfolk.gov.uk/openlibrary ","hours":"Mo 10:00-19:00, Tu 10:00-19:00, We 14:00-19:00, Th 10:00-19:00, Fr 10:00-19:00, Sa 10:00-16:00","title":"Aylsham Library"},"type":"Feature"},
		{"geometry":{"coordinates":[1.09082,52.90601],"type":"Point"},"properties":{"_source":"warm_welcome","address":"9 Church Street, Holt , Norfolk NR25 6BB","description":" You can access most Libraries outside staffed hours with “Open Library” providing extra access to the library, its books and computers. Check if it's currently available at your local library here www.norfolk.gov.uk/openlibrary ","hours":"Tu 10:00-19:00, We 14:00-19:00, Fr 10:00-19:00, Sa 13:00-16:00","title":"Holt Library"},"type":"Feature"},
		{"geometry":{"coordinates":[1.39132,52.82052],"type":"Point"},"properties":{"_source":"warm_welcome","address":"New Road, North Walsham, Norfolk NR28 9DE","description":" You can access most Libraries outside staffed hours with “Open Library” providing extra access to the library, its books and computers. Check if it's currently available at your local library here www.norfolk.gov.uk/openlibrary ","hours":"Mo 10:30-19:00, Tu 10:30-19:00, We 10:30-19:00, Th 10:30-19:00, Fr 10:30-19:00, Sa 10:30-16:00","title":"North Walsham Library"},"type":"Feature"},
		{"geometry":{"coordinates":[1.11039,52.76242],"type":"Point"},"properties":{"_source":"warm_welcome","address":"Bircham Centre, Market Place, Reepham, Norfolk NR10 4JJ","description":" You can access most Libraries outside staffed hours with “Open Library” providing extra access to the library, its books and computers. Check if it's currently available at your local library here www.norfolk.gov.uk/openlibrary ","hours":"Mo 14:00-19:00, We 09:30-13:00, Fr 10:00-13:00, Sa 09:30-12:30","title":"Reepham Library"},"type":"Feature"},
		{"geometry":{"coordinates":[1.09249,52.90312],"type":"Point"},"properties":{"_source":"warm_welcome","address":"Old Station Way, Hempstead Road, Holt, Norfolk NR25 6DH","description":"We offer a warm space for children in a youth club ","hours":"We 17:30-20:30","title":"The Holt Youth Project"},"type":"Feature"},
		{"geometry":{"coordinates":[1.05940,52.85378],"type":"Point"},"properties":{"_source":"warm_welcome","address":"Holt Road, Briston, Melton Constable NR24 2HR","description":"","hours":"Tu 10:30-13:00, Fr 14:00-16:00, Su 14:00-16:00","title":"The Salvation Army"},"type":"Feature"},
		{"geometry":{"coordinates":[1.11253,52.76263],"type":"Point"},"properties":{"_source":"warm_welcome","address":"St Michaels Church Street, Reepham, Norfolk NR10 4JL","description":"","hours":"Tu 09:00-15:00, Sa 09:00-13:00, Su 10:00-12:00","title":"Warm Welcome local church"},"type":"Feature"},
		{"geometry":{"coordinates":[1.39968,52.70222],"type":"Point"},"properties":{"_source":"warm_welcome","address":"Norwich Road, Wroxham, Norwich NR12 8RX","description":" You can access most Libraries outside staffed hours with “Open Library” providing extra access to the library, its books and computers. Check if it's currently available at your local library here www.norfolk.gov.uk/openlibrary ","hours":"Tu 10:00-19:00, We 10:00-19:00, Th 10:00-19:00, Fr 10:00-19:00, Sa 10:00-16:00","title":"Wroxham Library"},"type":"Feature"},
		{"geometry":{"coordinates":[1.11041,52.76456],"type":"Point"},"properties":{"_source":"warm_spaces","address":"29 Station Road, Norwich, England, NR10 4LF","title":"Reepham Methodist Chapel"},"type":"Feature"},
		{"geometry":{"coordinates":[1.25373,52.78902],"type":"Point"},"properties":{"_source":"warm_spaces","address":"Norwich Road, Norwich, England, NR11 6JG","title":"Community Hot-Spot at Jubilee Family Centre","url":"https://aylshamcommunitychurch.org"},"type":"Feature"},
		{"geometry":{"coordinates":[1.38999,52.82179],"type":"Point"},"properties":{"_source":"warm_spaces","address":"Hall Lane, North Walsham, England, NR28 9DT","title":"The Salvation Army, North Walsham","url":"https://www.salvationarmy.org.uk/north-walsham"},"type":"Feature"},
		{"geometry":{"coordinates":[1.25919,52.87265],"type":"Point"},"properties":{"_source":"warm_spaces","address":"Hanworth Memorial Hall, The Common, Norwich, England, NR11 7HP","title":"Hanworth Memorial Hall Warm Hub","url":"https://en-gb.facebook.com/HanworthMemorialHall/"},"type":"Feature"},
		{"geometry":{"coordinates":[1.09337,52.90310],"type":"Point"},"properties":{"_source":"warm_spaces","address":"Old Station Way, Holt, England, NR25 6DH","title":"The Holt Youth Project","url":"https://www.holtyouthproject.org.uk"},"type":"Feature"},
		{"geometry":{"coordinates":[1.37859,52.89879],"type":"Point"},"properties":{"_source":"warm_spaces","address":"Cromer Road, Norwich, England, NR11 8HY","title":"Trimingham Village Hall","url":"https://TRIMINGHAM.ORG"},"type":"Feature"},
		{"geometry":{"coordinates":[1.33483,52.90446],"type":"Point"},"properties":{"_source":"warm_spaces","address":"Northrepps Village Hall, School Close, Cromer, England, NR27 0LB","title":"Northrepps Community Cafe"},"type":"Feature"},
		{"geometry":{"coordinates":[1.11136,52.76245],"type":"Point"},"properties":{"_source":"warm_spaces","address":"The Bircham Centre, Market Place, Norwich, England, NR10 4JJ","title":"The Bircham Centre","url":"https://www.birchamcentrereepham.org"},"type":"Feature"},
		{"geometry":{"coordinates":[1.11214,52.76206],"type":"Point"},"properties":{"_source":"warm_spaces","address":"Reepham Town Hall, Church Street, Norwich, England, NR10 4JW","title":"Reepham Town Council","url":"https://www.reephamtowncouncil.org.uk"},"type":"Feature"}
	]
}
