{
	"type": "FeatureCollection",
	"features": [
		{"geometry":{"coordinates":[1.25433,52.78726],"type":"Point"},"properties":{"_source":"warm_welcome","address":"Jubilee Family Centre, Norwich Road, Aylsham, Norfolk NR11 6JG","description":"","hours":{"_text":"Thursday: 09:00 - 13:00","opening":"Th 09:00-13:00"},"title":"Aylsham Community Church"},"type":"Feature"},
		{"geometry":{"coordinates":[1.25088,52.79469],"type":"Point"},"properties":{"_source":"warm_welcome","address":"7 Hungate Street, Aylsham, Norwich NR11 6AA","description":" You can access most Libraries outside staffed hours with “Open Library” providing extra access to the library, its books and computers. Check if it's currently available at your local library here www.norfolk.gov.uk/openlibrary ","hours":{"_text":"Monday: 10:00 - 19:00, Tuesday: 10:00 - 19:00, Wednesday: 14:00 - 19:00, Thursday: 10:00 - 19:00, Friday: 10:00 - 19:00, Saturday: 10:00 - 16:00","opening":"Mo 10:00-19:00; Tu 10:00-19:00; We 14:00-19:00; Th 10:00-19:00; Fr 10:00-19:00; Sa 10:00-16:00"},"title":"Aylsham Library"},"type":"Feature"},
		{"geometry":{"coordinates":[1.09082,52.90601],"type":"Point"},"properties":{"_source":"warm_welcome","address":"9 Church Street, Holt , Norfolk NR25 6BB","description":" You can access most Libraries outside staffed hours with “Open Library” providing extra access to the library, its books and computers. Check if it's currently available at your local library here www.norfolk.gov.uk/openlibrary ","hours":{"_text":"Tuesday: 10:00 - 19:00, Wednesday: 14:00 - 19:00, Friday: 10:00 - 19:00, Saturday: 13:00 - 16:00","opening":"Tu 10:00-19:00; We 14:00-19:00; Fr 10:00-19:00; Sa 13:00-16:00"},"title":"Holt Library"},"type":"Feature"},
		{"geometry":{"coordinates":[1.39132,52.82052],"type":"Point"},"properties":{"_source":"warm_welcome","address":"New Road, North Walsham, Norfolk NR28 9DE","description":" You can access most Libraries outside staffed hours with “Open Library” providing extra access to the library, its books and computers. Check if it's currently available at your local library here www.norfolk.gov.uk/openlibrary ","hours":{"_text":"Monday: 10:30 - 19:00, Tuesday: 10:30 - 19:00, Wednesday: 10:30 - 19:00, Thursday: 10:30 - 19:00, Friday: 10:30 - 19:00, Saturday: 10:30 - 16:00","opening":"Mo 10:30-19:00; Tu 10:30-19:00; We 10:30-19:00; Th 10:30-19:00; Fr 10:30-19:00; Sa 10:30-16:00"},"title":"North Walsham Library"},"type":"Feature"},
		{"geometry":{"coordinates":[1.11039,52.76242],"type":"Point"},"properties":{"_source":"warm_welcome","address":"Bircham Centre, Market Place, Reepham, Norfolk NR10 4JJ","description":" You can access most Libraries outside staffed hours with “Open Library” providing extra access to the library, its books and computers. Check if it's currently available at your local library here www.norfolk.gov.uk/openlibrary ","hours":{"_text":"Monday: 14:00 - 19:00, Wednesday: 9:30 - 13:00 / 14:00 - 17:00, Friday: 10:00 - 13:00 / 14:00 - 17:00, Saturday: 9:30 - 12:30","opening":"Mo 14:00-19:00; We 09:30-13:00,14:00-17:00; Fr 10:00-13:00,14:00-17:00; Sa 09:30-12:30"},"title":"Reepham Library"},"type":"Feature"},
		{"geometry":{"coordinates":[1.09249,52.90312],"type":"Point"},"properties":{"_source":"warm_welcome","address":"Old Station Way, Hempstead Road, Holt, Norfolk NR25 6DH","description":"We offer a warm space for children in a youth club ","hours":{"_text":"Wednesday: 17:30 - 20:30","opening":"We 17:30-20:30"},"title":"The Holt Youth Project"},"type":"Feature"},
		{"geometry":{"coordinates":[1.05940,52.85378],"type":"Point"},"properties":{"_source":"warm_welcome","address":"Holt Road, Briston, Melton Constable NR24 2HR","description":"","hours":{"_text":"Tuesday: 10:30 - 13:00, Friday: 14:00 - 16:00, Sunday: 14:00 - 16:00","opening":"Tu 10:30-13:00; Fr 14:00-16:00; Su 14:00-16:00"},"title":"The Salvation Army"},"type":"Feature"},
		{"geometry":{"coordinates":[1.11253,52.76263],"type":"Point"},"properties":{"_source":"warm_welcome","address":"St Michaels Church Street, Reepham, Norfolk NR10 4JL","description":"","hours":{"_text":"Tuesday: 09:00 - 15:00, Saturday: 09:00 - 13:00, Sunday: 10:00 - 12:00","opening":"Tu 09:00-15:00; Sa 09:00-13:00; Su 10:00-12:00"},"title":"Warm Welcome local church"},"type":"Feature"},
		{"geometry":{"coordinates":[1.39968,52.70222],"type":"Point"},"properties":{"_source":"warm_welcome","address":"Norwich Road, Wroxham, Norwich NR12 8RX","description":" You can access most Libraries outside staffed hours with “Open Library” providing extra access to the library, its books and computers. Check if it's currently available at your local library here www.norfolk.gov.uk/openlibrary ","hours":{"_text":"Tuesday: 10:00 - 19:00, Wednesday: 10:00 - 19:00, Thursday: 10:00 - 19:00, Friday: 10:00 - 19:00, Saturday: 10:00 - 16:00","opening":"Tu 10:00-19:00; We 10:00-19:00; Th 10:00-19:00; Fr 10:00-19:00; Sa 10:00-16:00"},"title":"Wroxham Library"},"type":"Feature"},
		{"geometry":{"coordinates":[1.38550,52.81906],"type":"Point"},"properties":{"_source":"warm_spaces","address":"Sacred Hearts Hall, 4 Norwich Road, North Walsham, England, NR28 9JP","hours":{"_text":"1st and 3rd Tuesday of the month 10:30am-12pm (from 3rd Jan)","opening":"Tu[1,3] 10:30-12:00"},"title":"Singing for Health, Wellbeing and Fun","url":"http://playingforcake.uk"},"type":"Feature"},
		{"geometry":{"coordinates":[1.11136,52.76245],"type":"Point"},"properties":{"_source":"warm_spaces","address":"Market Place, Norwich, England, NR10 4JJ","hours":{"_text":"Monday 2pm-7pm; Wednesday 9.30am-1pm and 2pm-5pm; Friday 10am-1pm and 2pm-5pm; Saturday 9.30am-12.30pm","opening":"Mo 14:00-19:00; We 09:30-13:00,14:00-17:00; Fr 10:00-13:00,14:00-17:00; Sa 09:30-12:30"},"title":"Reepham Library","url":"https://www.norfolk.gov.uk/libraries"},"type":"Feature"},
		{"geometry":{"coordinates":[1.38964,52.82069],"type":"Point"},"properties":{"_source":"warm_spaces","address":"New Road, North Walsham, England, NR28 9DE","hours":{"_text":"Monday to Friday 10.30am-7pm; Saturday 10.30am-4pm","opening":"Mo-Fr 10:30-19:00; Sa 10:30-16:00"},"title":"North Walsham Library","url":"https://www.norfolk.gov.uk/libraries"},"type":"Feature"},
		{"geometry":{"coordinates":[1.09169,52.90621],"type":"Point"},"properties":{"_source":"warm_spaces","address":"9 Church Street, Holt, England, NR25 6BB","hours":{"_text":"Tue &amp; Fri 10am-7pm; Wed 2pm-7; Sat 1pm-4pm","opening":"Tu 10:00-19:00; Fr 10:00-19:00; We 14:00-07:00; Sa 13:00-16:00"},"title":"Holt Library","url":"https://www.norfolk.gov.uk/libraries"},"type":"Feature"},
		{"geometry":{"coordinates":[1.25090,52.79467],"type":"Point"},"properties":{"_source":"warm_spaces","address":"7 Hungate Street, Norwich, England, NR11 6AA","hours":{"_text":"Mon, Tue, Thu, Fri 10am-7pm; Tue: 10am-7pm; Wed 2pm-7pm; Sat 10am-4pm","opening":"Mo 10:00-19:00; Tu 10:00-19:00; Th 10:00-19:00; Fr 10:00-19:00; Tu 10:00-19:00; We 14:00-19:00; Sa 10:00-16:00"},"title":"Aylsham Library","url":"https://www.norfolk.gov.uk/libraries"},"type":"Feature"},
		{"geometry":{"coordinates":[1.11041,52.76456],"type":"Point"},"properties":{"_source":"warm_spaces","address":"29 Station Road, Norwich, England, NR10 4LF","hours":{"_text":"Thursday 10am-12noon","opening":"Th 10:00-12:00"},"title":"Reepham Methodist Chapel"},"type":"Feature"},
		{"geometry":{"coordinates":[1.25373,52.78902],"type":"Point"},"properties":{"_source":"warm_spaces","address":"Norwich Road, Norwich, England, NR11 6JG","hours":{"_text":"Thursdays 9am-1pm","opening":"Th 09:00-13:00"},"title":"Community Hot-Spot at Jubilee Family Centre","url":"https://aylshamcommunitychurch.org"},"type":"Feature"},
		{"geometry":{"coordinates":[1.38999,52.82179],"type":"Point"},"properties":{"_source":"warm_spaces","address":"Hall Lane, North Walsham, England, NR28 9DT","hours":{"_text":"Tuesday 1pm-4pm, Wednesday 1pm-3pm, Thursday 1pm-4pm","opening":"Tu 13:00-16:00; We 13:00-15:00; Th 13:00-16:00"},"title":"The Salvation Army, North Walsham","url":"https://www.salvationarmy.org.uk/north-walsham"},"type":"Feature"},
		{"geometry":{"coordinates":[1.25919,52.87265],"type":"Point"},"properties":{"_source":"warm_spaces","address":"Hanworth Memorial Hall, The Common, Norwich, England, NR11 7HP","hours":{"_text":"Wednesdays 12noon-5pm (from 23rd Nov)","opening":"We 12:00-17:00"},"title":"Hanworth Memorial Hall Warm Hub","url":"https://en-gb.facebook.com/HanworthMemorialHall/"},"type":"Feature"},
		{"geometry":{"coordinates":[1.09337,52.90310],"type":"Point"},"properties":{"_source":"warm_spaces","address":"Old Station Way, Holt, England, NR25 6DH","hours":{"_text":""},"title":"The Holt Youth Project","url":"https://www.holtyouthproject.org.uk"},"type":"Feature"},
		{"geometry":{"coordinates":[1.37859,52.89879],"type":"Point"},"properties":{"_source":"warm_spaces","address":"Cromer Road, Norwich, England, NR11 8HY","hours":{"_text":"See website"},"title":"Trimingham Village Hall","url":"https://TRIMINGHAM.ORG"},"type":"Feature"},
		{"geometry":{"coordinates":[1.33483,52.90446],"type":"Point"},"properties":{"_source":"warm_spaces","address":"Northrepps Village Hall, School Close, Cromer, England, NR27 0LB","hours":{"_text":"11am-1.30pm 2nd Fridays monthly; subject to change","opening":"Fr 11:00-13:30"},"title":"Northrepps Community Cafe"},"type":"Feature"},
		{"geometry":{"coordinates":[1.11136,52.76245],"type":"Point"},"properties":{"_source":"warm_spaces","address":"The Bircham Centre, Market Place, Norwich, England, NR10 4JJ","hours":{"_text":"Monday, 9am-1pm","opening":"Mo 09:00-13:00"},"title":"The Bircham Centre","url":"https://www.birchamcentrereepham.org"},"type":"Feature"},
		{"geometry":{"coordinates":[1.11214,52.76206],"type":"Point"},"properties":{"_source":"warm_spaces","address":"Reepham Town Hall, Church Street, Norwich, England, NR10 4JW","hours":{"_text":"Friday, 9am-12pm","opening":"Fr 09:00-12:00"},"title":"Reepham Town Council","url":"https://www.reephamtowncouncil.org.uk"},"type":"Feature"},
		{"geometry":{"coordinates":[1.11041,52.76456],"type":"Point"},"properties":{"_source":"warm_spaces","address":"Reepham Methodist Church, Station Road, Norwich, England, NR10 4LF","hours":{"_text":"Varies. Toddlers Group: Wed 9am-11.30am. Sunday service and coffee 10am-12pm","opening":"We 09:00-11:30"},"title":"Reepham Methodist Church"},"type":"Feature"},
		{"geometry":{"coordinates":[1.24724,52.79372],"type":"Point"},"properties":{"_source":"warm_spaces","address":"Friendship Hall, Mill Road, Norwich, England, NR11 6DS","hours":{"_text":"8:30am-11pm"},"title":"Aylsham Older Peoples Association","url":"https://communitydirectory.norfolk.gov.uk/Services/4688/Aylsham-Older-People"},"type":"Feature"},
		{"geometry":{"coordinates":[1.09744,52.90154],"type":"Point"},"properties":{"_source":"warm_spaces","address":"The Treehouse Cafe, Charles Road, Holt, England, NR25 6DA","hours":{"_text":"Weekdays, 9am-2pm","opening":"Mo-Fr 09:00-14:00"},"title":"The Treehouse Cafe","url":"https://www.thetreehousecafe.co.uk"},"type":"Feature"}
	]
}
