{
	"type": "FeatureCollection",
	"features": [
		{"geometry":{"coordinates":[1.29738,52.64329],"type":"Point"},"properties":{"_source":"warm_welcome","address":"Christ Church Centre, Norwich, US Addresses Only NR3 4LA","description":"Open to anyone in the community. Book Swap is held in the large hall. We have hot drinks, a variety of cakes and a wide selection of books available to borrow.","hours":"We 10:00-12:00","title":"Christ Church Centre"},"type":"Feature"},
		{"geometry":{"coordinates":[1.27261,52.61831],"type":"Point"},"properties":{"_source":"warm_welcome","address":"Church Avenue, Norwich, Norfolk NR2 2AQ","description":"If you don’t have a little one, please feel free to sit in another area of the church. Christ Church is open daily for visitors but is only heated on Sunday mornings for services and on Mondays. In the afternoon from 2-3.30, Chat over a Cuppa takes place. This is a chance to meet others over a (free!) cup of tea/coffee and is open to anyone.","hours":"Mo 09:30-16:00","title":"Christ Church Eaton"},"type":"Feature"},
		{"geometry":{"coordinates":[1.29925,52.61436],"type":"Point"},"properties":{"_source":"warm_welcome","address":"Corton House Community Hot Spot at The Jubilee Centre, Long John Hill, Norwich, Norfolk NR1 2EX","description":"Open from 06-12-2022. For people over 65. Free simple hot meal, activities and social opportunities, and advice and info hub from our charity partners.","hours":"Tu 13:00-15:00","title":"Corton House"},"type":"Feature"},
		{"geometry":{"coordinates":[1.22191,52.64588],"type":"Point"},"properties":{"_source":"warm_welcome","address":"Breckland Road, Costessey, Norwich NR5 0RW","description":" You can access most Libraries outside staffed hours with “Open Library” providing extra access to the library, its books and computers. Check if it's currently available at your local library here www.norfolk.gov.uk/openlibrary ","hours":"Mo 09:30-19:00; Tu 14:00-19:00; We 09:30-19:00; Fr 14:00-19:00; Sa 11:00-16:00","title":"Costessey Library"},"type":"Feature"},
		{"geometry":{"coordinates":[1.24813,52.63348],"type":"Point"},"properties":{"_source":"warm_welcome","address":"St Elizabeth's Cadge Road , Norwich, Norfolk NR5 8DG","description":" Open from 02-11-22. Our focus is on supporting the local community and partnering with themWe currently partner with our Community Connectors who will frequently be on site, and Food Bank distribute from St Elizabeth's on Thursdays.","hours":"We 09:00-11:45; Th 10:00-13:30","title":"Crossroads St Elizabeth's Church "},"type":"Feature"},
		{"geometry":{"coordinates":[1.26064,52.62365],"type":"Point"},"properties":{"_source":"warm_welcome","address":"Colman Road, Norwich, Norfolk NR4 7HG","description":" You can access most Libraries outside staffed hours with “Open Library” providing extra access to the library, its books and computers. Check if it's currently available at your local library here www.norfolk.gov.uk/openlibrary ","hours":"Tu 10:00-19:00; We 10:00-19:00; Th 10:00-19:00; Fr 11:00-19:00; Sa 10:00-16:00","title":"Earlham Library"},"type":"Feature"},
		{"geometry":{"coordinates":[1.25907,52.66535],"type":"Point"},"properties":{"_source":"warm_welcome","address":"Woodview Road, Hellesdon, Norwich NR6 5QB","description":" You can access most Libraries outside staffed hours with “Open Library” providing extra access to the library, its books and computers. Check if it's currently available at your local library here www.norfolk.gov.uk/openlibrary ","hours":"Mo 10:00-19:00; We 10:00-19:00; Th 10:00-19:00; Fr 10:00-19:00; Sa 10:00-16:00","title":"Hellesdon Library "},"type":"Feature"},
		{"geometry":{"coordinates":[1.25907,52.66535],"type":"Point"},"properties":{"_source":"warm_welcome","address":"WOOD VIEW ROAD, HELLESDON, NORWICH, Norfolk NR6 5QB","description":"","hours":"Mo 08:00-22:00; Tu 08:00-22:00; We 08:00-22:00; Th 08:00-22:00; Fr 08:00-22:00; Sa 08:00-22:00","title":"Hellesdon Parish Council"},"type":"Feature"},
		{"geometry":{"coordinates":[1.18154,52.59927],"type":"Point"},"properties":{"_source":"warm_welcome","address":"40 Queens Road, Hethersett, Norwich NR9 3DB","description":" You can access most Libraries outside staffed hours with “Open Library” providing extra access to the library, its books and computers. Check if it's currently available at your local library here www.norfolk.gov.uk/openlibrary ","hours":"Mo 13:30-19:00; We 11:00-19:00; Th 13:30-19:00; Fr 13:30-19:00; Sa 11:00-16:00","title":"Hethersett Library"},"type":"Feature"},
		{"geometry":{"coordinates":[1.23469,52.48799],"type":"Point"},"properties":{"_source":"warm_welcome","address":"The Street, Long Stratton, Norfolk NR15 2XJ","description":" You can access most Libraries outside staffed hours with “Open Library” providing extra access to the library, its books and computers. Check if it's currently available at your local library here www.norfolk.gov.uk/openlibrary ","hours":"Mo 11:00-19:00; Tu 13:00-19:00; Th 13:00-19:00; Sa 11:00-16:00","title":"Long Stratton Library"},"type":"Feature"},
		{"geometry":{"coordinates":[1.28980,52.62664],"type":"Point"},"properties":{"_source":"warm_welcome","address":"The Risebrow Centre, Chantry Road, Norwich, Norfolk NR2 1RF","description":"We welcome young people aged 11 to 26 into our advice space.","hours":"Mo 13:30-17:00; Tu 13:30-17:00; We 13:30-17:00; Th 13:30-17:00; Fr 13:30-17:00","title":"Mancroft Advice Project"},"type":"Feature"},
		{"geometry":{"coordinates":[1.28119,52.64912],"type":"Point"},"properties":{"_source":"warm_welcome","address":"Aylsham Road, Norwich, Norfolk NR3 2RJ","description":" You can access most Libraries outside staffed hours with “Open Library” providing extra access to the library, its books and computers. Check if it's currently available at your local library here www.norfolk.gov.uk/openlibrary ","hours":"Tu 14:00-19:00; We 10:00-19:00; Th 14:00-19:00; Fr 10:00-19:00; Sa 10:00-16:00","title":"Mile Cross Library"},"type":"Feature"},
		{"geometry":{"coordinates":[1.05751,52.53878],"type":"Point"},"properties":{"_source":"warm_welcome","address":"Golf Links Road, Morley, Wymondham, Norfolk NR18 9SU","description":"Open from Thursday's.","hours":"Th 10:00-14:00","title":"Morley Village & Sports Hall"},"type":"Feature"},
		{"geometry":{"coordinates":[1.29102,52.62778],"type":"Point"},"properties":{"_source":"warm_welcome","address":"The Forum, Millennium Plain, Norwich , Norfolk NR2 1AW","description":" You can access most Libraries outside staffed hours with “Open Library” providing extra access to the library, its books and computers. Check if it's currently available at your local library here www.norfolk.gov.uk/openlibrary ","hours":"Mo 10:00-19:00; Tu 10:00-19:00; We 10:00-19:00; Th 10:00-19:00; Fr 10:00-19:00; Sa 09:00-17:00; Su 10:30-16:30","title":"Norfolk and Norwich Millennium Library"},"type":"Feature"},
		{"geometry":{"coordinates":[1.30129,52.62849],"type":"Point"},"properties":{"_source":"warm_welcome","address":"c/o Aston Shaw, The Union Building, 51-59 Rose Lane, Norwich, Norfolk NR1 1BY","description":"We are wheelchair accessible and there is a play space for children. We are piloting a Community Cafe. There is a charge for food and drink. ","hours":"We 10:30-12:30","title":"Norfolk Clubhouse and St Matthew’s Church, Norwich"},"type":"Feature"},
		{"geometry":{"coordinates":[1.29267,52.63258],"type":"Point"},"properties":{"_source":"warm_welcome","address":"Duke Street, Norwich, Norfolk NR3 3AP","hours":"Mo 10:00-15:00; Tu 10:00-15:00","title":"Norwich Central Baptist Church"},"type":"Feature"},
		{"geometry":{"coordinates":[1.29564,52.60708],"type":"Point"},"properties":{"_source":"warm_welcome","address":"Old Lakenham Community Centre, Harwood Road, Norwich NR1 2NG","description":"Open from 16-11-2022.","hours":"We 13:00-16:00","title":"Old Lakenham Community Centre"},"type":"Feature"},
		{"geometry":{"coordinates":[1.32332,52.63562],"type":"Point"},"properties":{"_source":"warm_welcome","address":"Plumstead Road, Norwich, Norfolk NR1 4JS","description":" You can access most Libraries outside staffed hours with “Open Library” providing extra access to the library, its books and computers. Check if it's currently available at your local library here www.norfolk.gov.uk/openlibrary ","hours":"Tu 13:00-19:00; We 10:00-19:00; Th 13:00-19:00; Fr 10:00-19:00; Sa 10:00-16:00","title":"Plumstead Road Library"},"type":"Feature"},
		{"geometry":{"coordinates":[1.34411,52.57007],"type":"Point"},"properties":{"_source":"warm_welcome","address":"Overtons Way, Poringland, Norwich NR14 7WB","description":" You can access most Libraries outside staffed hours with “Open Library” providing extra access to the library, its books and computers. Check if it's currently available at your local library here www.norfolk.gov.uk/openlibrary ","hours":"Mo 14:00-19:00; Tu 10:00-19:00; We 10:00-19:00; Fr 14:00-19:00; Sa 10:00-16:00","title":"Poringland Library"},"type":"Feature"},
		{"geometry":{"coordinates":[1.31722,52.65572],"type":"Point"},"properties":{"_source":"warm_welcome","address":"Sprowston Recreation Ground, Recreation Ground Road, Sprowston, Norwich NR7 8EW","description":" You can access most Libraries outside staffed hours with “Open Library” providing extra access to the library, its books and computers. Check if it's currently available at your local library here www.norfolk.gov.uk/openlibrary ","hours":"Tu 10:00-19:00; We 10:00-19:00; Th 14:00-19:00; Fr 10:00-19:00; Sa 09:30-16:00","title":"Sprowston Library"},"type":"Feature"},
		{"geometry":{"coordinates":[1.28045,52.65037],"type":"Point"},"properties":{"_source":"warm_welcome","address":"298 Aylsham Road, Norwich, Norfolk NR3 2RJ","description":"Open from 4th Dec/8th Jan/5th Feb/5th March.","hours":"Su 12:30-16:30","title":"St Catherine’s church "},"type":"Feature"},
		{"geometry":{"coordinates":[1.33712,52.63727],"type":"Point"},"properties":{"_source":"warm_welcome","address":"Williams Loke, St Williams Way, Norwich NR7 0AJ","description":" You can access most Libraries outside staffed hours with “Open Library” providing extra access to the library, its books and computers. Check if it's currently available at your local library here www.norfolk.gov.uk/openlibrary ","hours":"Tu 12:00-19:00; Th 10:00-19:00; Fr 10:00-19:00; Sa 12:00-16:00","title":"St Williams Way Library"},"type":"Feature"},
		{"geometry":{"coordinates":[1.19645,52.68260],"type":"Point"},"properties":{"_source":"warm_welcome","address":"Sandy Lane, Taverham, Norwich NR8 6JR","description":" You can access most Libraries outside staffed hours with “Open Library” providing extra access to the library, its books and computers. Check if it's currently available at your local library here www.norfolk.gov.uk/openlibrary ","hours":"Mo 10:30-19:00; Tu 12:30-19:00; Th 10:30-19:00; Fr 10:30-19:00; Sa 10:00-16:00","title":"Taverham Library"},"type":"Feature"},
		{"geometry":{"coordinates":[1.15186,52.53321],"type":"Point"},"properties":{"_source":"warm_welcome","address":"The Ashwellthorpe and Fundenhall Community CIO, Muskett Road, Ashwellthorpe NR16 1FD","description":"","hours":"Tu 10:00-14:00","title":"Thorpe Hall - The Ashwellthorpe and Fundenhall Community CIO"},"type":"Feature"},
		{"geometry":{"coordinates":[1.34247,52.63521],"type":"Point"},"properties":{"_source":"warm_welcome","address":"St Andrew's Centre, Brenda James Close , Thorpe St Andrew , Norwich NR7 0LH","description":"","hours":"Th 10:00-14:00","title":"Thorpe St Andrew Parish Church"},"type":"Feature"},
		{"geometry":{"coordinates":[1.28158,52.60849],"type":"Point"},"properties":{"_source":"warm_welcome","address":"Robin Hood Road, Tuckswood, Norwich NR4 6BX","description":" You can access most Libraries outside staffed hours with “Open Library” providing extra access to the library, its books and computers. Check if it's currently available at your local library here www.norfolk.gov.uk/openlibrary ","hours":"Tu 11:00-19:00; Fr 11:00-19:00; Sa 10:00-16:00","title":"Tuckswood Library"},"type":"Feature"},
		{"geometry":{"coordinates":[1.24104,52.63182],"type":"Point"},"properties":{"_source":"warm_welcome","address":"17/18 Earlham West Centre, West Earlham, Norwich NR5 8AD","description":" You can access most Libraries outside staffed hours with “Open Library” providing extra access to the library, its books and computers. Check if it's currently available at your local library here www.norfolk.gov.uk/openlibrary ","hours":"Tu 10:00-13:00; Th 10:00-13:00; Sa 09:00-13:00","title":"West Earlham Library"},"type":"Feature"},
		{"geometry":{"coordinates":[1.11216,52.56899],"type":"Point"},"properties":{"_source":"warm_welcome","address":"Queen Street, Wymondham, Norfolk NR18 0AY","description":"Open from 05/10/2022.","hours":"We 14:00-17:00; Th 14:00-17:00","title":"Wymondham Baptist church"},"type":"Feature"},
		{"geometry":{"coordinates":[1.11318,52.57115],"type":"Point"},"properties":{"_source":"warm_welcome","address":"Back Lane, Wymondham, Norwich NR18 0QB","description":" You can access most Libraries outside staffed hours with “Open Library” providing extra access to the library, its books and computers. Check if it's currently available at your local library here www.norfolk.gov.uk/openlibrary ","hours":"Mo 10:00-19:00; Tu 10:00-19:00; We 10:00-19:00; Th 10:00-19:00; Fr 10:00-19:00; Sa 10:00-16:00","title":"Wymondham Library"},"type":"Feature"},
		{"geometry":{"coordinates":[1.10964,52.57310],"type":"Point"},"properties":{"_source":"warm_welcome","address":"Town Green, Wymondham, Norfolk NR18 0PW","description":"","hours":"Tu 10:00-12:00","title":"Wymondham Methodist Church"},"type":"Feature"},
		{"geometry":{"coordinates":[1.29314,52.65265],"type":"Point"},"properties":{"_source":"warm_spaces","address":"70 Catton Grove Road, Norwich, England, NR3 3NT","title":"Oak Grove Community Church","url":"https://www.oakgrovecommunitychurch.co.uk"},"type":"Feature"},
		{"geometry":{"coordinates":[1.34416,52.56990],"type":"Point"},"properties":{"_source":"warm_spaces","address":"Overtons Way, Norwich, England, NR14 7WB","title":"Poringland Library","url":"https://www.norfolk.gov.uk/libraries"},"type":"Feature"},
		{"geometry":{"coordinates":[1.32134,52.63530],"type":"Point"},"properties":{"_source":"warm_spaces","address":"Plumstead Road, Norwich, England, NR1 4JS","title":"Plumstead Road Library","url":"https://www.norfolk.gov.uk/libraries"},"type":"Feature"},
		{"geometry":{"coordinates":[1.29131,52.62772],"type":"Point"},"properties":{"_source":"warm_spaces","address":"The Forum, Millennium Plain, Norwich, England, NR2 1TF","title":"Norfolk and Norwich Millennium Library","url":"https://www.norfolk.gov.uk/libraries"},"type":"Feature"},
		{"geometry":{"coordinates":[1.28040,52.64995],"type":"Point"},"properties":{"_source":"warm_spaces","address":"Aylsham Road, Norwich, England, NR3 2RJ","title":"Mile Cross Library","url":"https://www.norfolk.gov.uk/libraries"},"type":"Feature"},
		{"geometry":{"coordinates":[1.23455,52.48760],"type":"Point"},"properties":{"_source":"warm_spaces","address":"The Street, Norwich, England, NR15 2XJ","title":"Long Stratton Library","url":"https://www.norfolk.gov.uk/libraries"},"type":"Feature"},
		{"geometry":{"coordinates":[1.18158,52.59946],"type":"Point"},"properties":{"_source":"warm_spaces","address":"40 Queen&#39;s Road, Norwich, England, NR9 3DB","title":"Hethersett Library","url":"https://www.norfolk.gov.uk/libraries"},"type":"Feature"},
		{"geometry":{"coordinates":[1.25941,52.66531],"type":"Point"},"properties":{"_source":"warm_spaces","address":"Wood View Road, Norwich, England, NR6 5QB","title":"Hellesdon Library","url":"https://www.norfolk.gov.uk/libraries"},"type":"Feature"},
		{"geometry":{"coordinates":[1.26052,52.62585],"type":"Point"},"properties":{"_source":"warm_spaces","address":"Colman Road, Norwich, England, NR4 7HG","title":"Earlham Library","url":"https://www.norfolk.gov.uk/libraries"},"type":"Feature"},
		{"geometry":{"coordinates":[1.22164,52.64592],"type":"Point"},"properties":{"_source":"warm_spaces","address":"Breckland Road, Norwich, England, NR5 0RW","title":"Costessey Library","url":"https://www.norfolk.gov.uk/libraries"},"type":"Feature"},
		{"geometry":{"coordinates":[1.10744,52.57043],"type":"Point"},"properties":{"_source":"warm_spaces","address":"Church Street, Wymondham, England, NR18 0PH","title":"Wymondham Abbey","url":"https://www.wymondhamabbey.org.uk"},"type":"Feature"},
		{"geometry":{"coordinates":[1.22921,52.48819],"type":"Point"},"properties":{"_source":"warm_spaces","address":"Manor Road, Norwich, England, NR15 2XS","title":"Long Stratton Warm Space"},"type":"Feature"},
		{"geometry":{"coordinates":[1.29823,52.61416],"type":"Point"},"properties":{"_source":"warm_spaces","address":"Long John Hill, Norwich, England, NR1 2EX","title":"Corton House Over 65's Community Hot Spot","url":"https://www.cortonhouse.co.uk"},"type":"Feature"},
		{"geometry":{"coordinates":[1.25094,52.64977],"type":"Point"},"properties":{"_source":"warm_spaces","address":"St Mary’s Church Community Room, Low Road, Norwich, England, NR6 5AT","title":"St Mary’s Church ‘Tea on Tuesday’"},"type":"Feature"},
		{"geometry":{"coordinates":[1.27242,52.61846],"type":"Point"},"properties":{"_source":"warm_spaces","address":"Church Avenue, Norwich, England, NR2 2AQ","title":"Christ Church Eaton","url":"https://christchurch-eaton.org.uk"},"type":"Feature"},
		{"geometry":{"coordinates":[1.05672,52.53960],"type":"Point"},"properties":{"_source":"warm_spaces","address":"Golf Links Road, Wymondham, England, NR18 9SU","title":"Morley Village &amp; Sports Hall","url":"https://www.morleyvillageandsportshall.co.uk"},"type":"Feature"},
		{"geometry":{"coordinates":[1.24755,52.63369],"type":"Point"},"properties":{"_source":"warm_spaces","address":"75 Cadge Road, Norwich, England, NR5 8DG","title":"St Elizabeth's","url":"https://www.earlham.church"},"type":"Feature"},
		{"geometry":{"coordinates":[1.29926,52.65238],"type":"Point"},"properties":{"_source":"warm_spaces","address":"170 Saint Clements Hill, Norwich, England, NR3 4DG","title":"St Clements Nursing Home","url":"https://kingsleyhealthcare.co.uk/pages/home/st-clements-nursing-home"},"type":"Feature"},
		{"geometry":{"coordinates":[1.32017,52.65657],"type":"Point"},"properties":{"_source":"warm_spaces","address":"Sprowston Methodist Church, Cozens-Hardy Road, Norwich, England, NR7 8AD","title":"Renew Wellbeing Sprowston"},"type":"Feature"},
		{"geometry":{"coordinates":[1.23851,52.56151],"type":"Point"},"properties":{"_source":"warm_spaces","address":"Mulbarton Village Hall, The Common, Norwich, England, NR14 8AE","title":"Mulbarton Village Hall"},"type":"Feature"},
		{"geometry":{"coordinates":[1.28945,52.62597],"type":"Point"},"properties":{"_source":"warm_spaces","address":"Risebrow Centre, 1 Chantry Road, Norwich, England, NR2 1RF","title":"MAP Drop-In","url":"https://www.map.uk.net"},"type":"Feature"},
		{"geometry":{"coordinates":[1.21604,52.63586],"type":"Point"},"properties":{"_source":"warm_spaces","address":"Bowthorpe Church Centre, The Worship Centre, Bowthorpe Hall Road, Norwich, England, NR5 9AA","title":"Bowthorpe Church Centre"},"type":"Feature"},
		{"geometry":{"coordinates":[1.29223,52.62660],"type":"Point"},"properties":{"_source":"warm_spaces","address":"St Stephen&#39;s Church, Rampant Horse Street, Norwich, England, NR2, UK","title":"St Stephen's Church, Norwich","url":"https://www.ststephensnorwich.org"},"type":"Feature"},
		{"geometry":{"coordinates":[1.21230,52.68710],"type":"Point"},"properties":{"_source":"warm_spaces","address":"11 The Square, Thorpe Marriott, Norwich, England, NR8 6XE","title":"Trinity Ecumenical Church Centre","url":"https://Thorpemarriottchurch.org"},"type":"Feature"},
		{"geometry":{"coordinates":[1.29748,52.60721],"type":"Point"},"properties":{"_source":"warm_spaces","address":"Old Lakenham Community Centre, Harwood Road, Norwich, England, NR1 2NG","title":"Old Lakenham Community Centre","url":"https://www.facebook.com/Oldlakenhamcommunitycentre"},"type":"Feature"},
		{"geometry":{"coordinates":[1.30277,52.63841],"type":"Point"},"properties":{"_source":"warm_spaces","address":"Silver Road Community Centre, Silver Road, Norwich, England, NR3 4TB","title":"Silver Road Community Centre","url":"https://silverroadcommunitycentre.com"},"type":"Feature"},
		{"geometry":{"coordinates":[1.23817,52.64220],"type":"Point"},"properties":{"_source":"warm_spaces","address":"The Baseline Centre, 65-67 Knowland Grove, Norwich, England, NR5 8YD","title":"Future Projects"},"type":"Feature"},
		{"geometry":{"coordinates":[1.28945,52.62597],"type":"Point"},"properties":{"_source":"warm_spaces","address":"The Risebrow Centre, Chantry Road, Norwich, England, NR2 1RF","title":"MAP - Mancroft Advice Project","url":"https://www.map.uk.net"},"type":"Feature"},
		{"geometry":{"coordinates":[1.29637,52.62740],"type":"Point"},"properties":{"_source":"warm_spaces","address":"Honesty Library, Level 2 , Castle Quarter, Norwich, England, NR1 3DD","hours":"Tu-Sa 10:00-16:00","title":"Honesty Library","url":"https://www.new-ultd.co.uk"},"type":"Feature"},
		{"geometry":{"coordinates":[1.30322,52.60986],"type":"Point"},"properties":{"_source":"warm_spaces","address":"New Hope Christian Centre, Martineau Lane, Norwich, England, NR1 2HX","hours":"We 10:00-14:00","title":"Community Action Norwich","url":"https://www.communityactionnorwich.co.uk"},"type":"Feature"},
		{"geometry":{"coordinates":[1.29079,52.63484],"type":"Point"},"properties":{"_source":"warm_spaces","address":"NCBC, Duke St, England, NR3 1DL","hours":"Mo 10:00-15:00; Tu 10:00-15:00","title":"NCBC","url":"https://www.norwichcentral.org"},"type":"Feature"},
		{"geometry":{"coordinates":[1.11240,52.56965],"type":"Point"},"properties":{"_source":"warm_spaces","address":"Queen Street, Wymondham, England, NR18 0AY","hours":"We 14:00-17:00; Th 14:00-17:00","title":"Wymondham Baptist Church — Home from Home","url":"https://www.wymondhambaptist.org"},"type":"Feature"}
	]
}
