{
	"type": "FeatureCollection",
	"features": [
		{"geometry":{"coordinates":[1.12121,52.11465],"type":"Point"},"properties":{"_source":"warm_welcome","address":"Church Lane, Barham, Ipswich IP6 0pT","description":" Friday morning drop-in. Free local Library housed in Church over winter","hours":"Fr 10:00-12:30","title":"Claydon & Barham Church"},"type":"Feature"},
		{"geometry":{"coordinates":[1.15223,52.05730],"type":"Point"},"properties":{"_source":"warm_welcome","address":"King Street, Ipswich, Suffolk IP1 1DH","description":"Open from 17/10/2022. Microwave, kettle, cutlery, crockery and toys for younger children available. ","hours":"Mo 10:00-17:00; Tu 10:00-17:00; We 10:00-17:00; Th 10:00-17:00; Fr 10:00-17:00; Sa 10:00-17:00","title":"Ipswich Town Hall (Ipswich Borough Council)"},"type":"Feature"},
		{"geometry":{"coordinates":[1.18369,52.06715],"type":"Point"},"properties":{"_source":"warm_welcome","address":"Sidegate Avenue, Ipswich, Suffolk IP4 4JJ","description":"Open from 17/10/2022. Microwave, kettle, cutlery, crockery and toys for younger children available.","hours":"Mo 08:30-18:00; Tu 08:30-18:00; We 08:30-18:00; Th 08:30-18:00; Fr 08:30-18:00","title":"Ransomes Sports Pavilion (Ipswich Borough Council)"},"type":"Feature"},
		{"geometry":{"coordinates":[1.15912,52.06042],"type":"Point"},"properties":{"_source":"warm_welcome","address":"Christchurch Park, Bolton Lane, Ipswich, Suffolk IP4 2BX","description":"Open from 17/10/2022. Microwave, kettle, cutlery, crockery and toys for younger children available. ","hours":"Mo 10:00-16:00; Tu 10:00-16:00; We 10:00-16:00; Th 10:00-16:00; Fr 10:00-16:00; Sa 10:00-16:00; Su 10:00-16:00","title":"Reg Driver Centre, Christchurch Park"},"type":"Feature"},
		{"geometry":{"coordinates":[1.12969,52.08582],"type":"Point"},"properties":{"_source":"warm_welcome","address":"Whitton Church Lane, Ipswich, Suffolk IP1 6LW","description":"Open from 17/10/2022. Microwave, kettle, cutlery, crockery and toys for younger children available. ","hours":"Mo 08:30-18:30; Tu 08:30-18:30; We 08:30-18:30; Th 08:30-18:30; Fr 08:30-18:30; Sa 13:00-17:30; Su 08:30-17:30","title":"Whitton Sports Centre (Ipswich Borough Council)"},"type":"Feature"},
		{"geometry":{"coordinates":[1.31642,52.09235],"type":"Point"},"properties":{"_source":"warm_welcome","address":"Quay Street, Woodbridge, Suffolk IP12 1BX","hours":"We 09:45-12:00; Su 10:00-13:00","title":"Woodbridge Quay Church"},"type":"Feature"},
		{"geometry":{"coordinates":[1.24400,52.10808],"type":"Point"},"properties":{"_source":"warm_spaces","address":"Ipswich Road, Woodbridge, England, IP13 6TJ","title":"Grundisburgh Village Hall"},"type":"Feature"},
		{"geometry":{"coordinates":[1.24553,52.11188],"type":"Point"},"properties":{"_source":"warm_spaces","address":"The Street, Woodbridge, England, IP13","title":"Grundisburgh Parish Room"},"type":"Feature"},
		{"geometry":{"coordinates":[1.30879,52.09476],"type":"Point"},"properties":{"_source":"warm_spaces","address":"5 Burkitt Road, Woodbridge, England, IP12 4JJ","title":"Woodbridge Lodge Residential Care Home","url":"https://kingsleyhealthcare.co.uk/pages/home/woodbridge-lodge-residential-care-home"},"type":"Feature"}
	]
}
