{
	"type": "FeatureCollection",
	"features": [
		{"geometry":{"coordinates":[1.27104,51.84735],"type":"Point"},"properties":{"_source":"warm_welcome","address":"New Pier Street, Walton on the Naze , Essex CO14 8EB","description":"Open from 01-12-2022.","hours":"Th 10:00-15:30","title":"Emmanuel Church "},"type":"Feature"},
		{"geometry":{"coordinates":[1.33980,51.96931],"type":"Point"},"properties":{"_source":"warm_welcome","address":"Seaton Road, Felixstowe, Suffolk IP11 9BT","description":"","hours":"Th 11:00-15:00","title":"Felixstowe Peninsula Methodist Churches @ Seaton Road"},"type":"Feature"},
		{"geometry":{"coordinates":[1.27070,51.93528],"type":"Point"},"properties":{"_source":"warm_welcome","address":"Harwich Arts & Heritage Centre, Harwich, Essex CO12 4AJ","description":"","hours":"Mo 10:00-16:00; Tu 10:00-16:00; We 10:00-16:00; Th 10:00-16:00; Fr 10:00-16:00; Sa 10:00-13:00","title":"Harwich Arts & Heritage Centre"},"type":"Feature"},
		{"geometry":{"coordinates":[1.25067,51.84599],"type":"Point"},"properties":{"_source":"warm_welcome","address":"Garden Road, Walton on the Naze, Essex CO14 8SJ","description":"","hours":"Tu 13:30-15:30; Fr 10:00-12:00; Su 10:30-12:30","title":"Homelands Free Church"},"type":"Feature"},
		{"geometry":{"coordinates":[1.18673,52.03107],"type":"Point"},"properties":{"_source":"warm_welcome","address":"Gainsborough Sports Centre, Ipswich, Suffolk IP3 0SP","description":"Open from Monday 17th October 2022.","hours":"Mo 08:30-18:30; Tu 08:30-18:30; We 08:30-18:30; Th 08:30-18:30; Fr 08:30-18:30; Sa 08:30-12:00; Su 08:30-17:30","title":"Ipswich Borough Council "},"type":"Feature"},
		{"geometry":{"coordinates":[1.18466,52.03647],"type":"Point"},"properties":{"_source":"warm_welcome","address":"Landseer Road, Ipswich, Suffolk IP3 9LX","description":"","hours":"Fr 08:45-12:00","title":"Landseer Road Methodist CHurch"},"type":"Feature"},
		{"geometry":{"coordinates":[1.28934,51.94530],"type":"Point"},"properties":{"_source":"warm_welcome","address":"31 Kings Quay Street, Harwich, Essex CO12 3ES","description":"","hours":"Tu 19:00-20:30; Th 10:00-14:00","title":"The Lounge"},"type":"Feature"},
		{"geometry":{"coordinates":[1.19244,52.03982],"type":"Point"},"properties":{"_source":"warm_spaces","address":"Nansen Road, Ipswich, England, IP3 9HN","title":"Nansen Road Baptist Church","url":"https://www.nrbconline.org"},"type":"Feature"},
		{"geometry":{"coordinates":[1.12068,52.04474],"type":"Point"},"properties":{"_source":"suffolk_-_rural_coffee_caravan","address":"Hawthorn Drive, Ipswich IP2 0QY, UK","contact":"Phone:01473 927275","description":"","title":"WARM SPACES - Chantry Library","url":"https://www.suffolklibraries.co.uk/visit/locations-and-times/chantry-library"},"type":"Feature"},
		{"geometry":{"coordinates":[1.35105,51.96360],"type":"Point"},"properties":{"_source":"suffolk_-_rural_coffee_caravan","address":"Crescent Road, Felixstowe IP11 7BY, UK","contact":"Phone:01394 330850","description":"","title":"WARM SPACES - Felixstowe Library","url":"https://www.suffolklibraries.co.uk/visit/locations-and-times/felixstowe-library"},"type":"Feature"},
		{"geometry":{"coordinates":[1.18308,52.03366],"type":"Point"},"properties":{"_source":"suffolk_-_rural_coffee_caravan","address":"Clapgate Lane, Ipswich IP3 0RL, UK","contact":"Phone:01473 927270","description":"","title":"WARM SPACES - Gainsborough Community Library","url":"https://www.suffolklibraries.co.uk/visit/locations-and-times/gainsborough-community-library"},"type":"Feature"},
		{"geometry":{"coordinates":[1.18177,52.05094],"type":"Point"},"properties":{"_source":"suffolk_-_rural_coffee_caravan","address":"Tomline Road, Ipswich IP3 8DB, UK","contact":"Phone:01473 719279","description":"","title":"WARM SPACES - Rosehill Library","url":"https://www.suffolklibraries.co.uk/visit/locations-and-times/rosehill-library"},"type":"Feature"},
		{"geometry":{"coordinates":[1.25245,51.96890],"type":"Point"},"properties":{"_source":"suffolk_-_rural_coffee_caravan","address":"Shotley Village Hall, The Street, Shotley, Ipswich IP9 1LX, UK","description":"","title":"WARM SPACES - Shotley Library (Suffolk Libraries Local)","url":"https://www.suffolklibraries.co.uk/visit/locations-and-times/shotley"},"type":"Feature"},
		{"geometry":{"coordinates":[1.14903,52.04302],"type":"Point"},"properties":{"_source":"suffolk_-_rural_coffee_caravan","address":"Stoke High School, Maidenhall Approach, Ipswich IP2 8PL, UK","contact":"Phone:01473 681751","description":"","title":"WARM SPACES - Stoke Library","url":"https://www.suffolklibraries.co.uk/visit/locations-and-times/stoke-library"},"type":"Feature"},
		{"geometry":{"coordinates":[1.36708,51.97180],"type":"Point"},"properties":{"_source":"suffolk_-_rural_coffee_caravan","address":"Ferry Road, Felixstowe IP11 9NB, UK","description":"Emmaus Suffolk - Free to attend hub drop in hub","hours":"We 10:00-12:00","title":"WARM SPACES - Old Felixstowe Community Centre","url":"www.emmaussuffolk.org.uk"},"type":"Feature"},
		{"geometry":{"coordinates":[1.35248,51.96700],"type":"Point"},"properties":{"_source":"suffolk_-_rural_coffee_caravan","address":"Great Eastern Square, Felixstowe IP11 7DY, UK","description":"Emmaus Suffolk - Free to attend hub drop in hub","hours":"We 13:30-15:30","title":"WARM SPACES - Drop in Hub at Station Cafe","url":"www.emmaussuffolk.org.uk"},"type":"Feature"},
		{"geometry":{"coordinates":[1.18113,52.04802],"type":"Point"},"properties":{"_source":"suffolk_-_rural_coffee_caravan","address":"175 Felixstowe Road, Ipswich IP3 8EB, UK","description":"Emmaus Suffolk - Free to attend hub drop in hub","hours":"We 14:00-16:00","title":"WARM SPACES - Drop in Hub at The Royal Oak","url":"www.emmaussuffolk.org.uk"},"type":"Feature"},
		{"geometry":{"coordinates":[1.18113,52.04802],"type":"Point"},"properties":{"_source":"suffolk_-_rural_coffee_caravan","address":"175 Felixstowe Road, Ipswich IP3 8EB, UK","description":"Emmaus Suffolk - Free to attend hub drop in hub","hours":"Th 09:00-11:30","title":"WARM SPACES - Kids & Carers Lunch Club at The Royal Oak","url":"www.emmaussuffolk.org.uk"},"type":"Feature"},
		{"geometry":{"coordinates":[1.19881,52.04152],"type":"Point"},"properties":{"_source":"suffolk_-_rural_coffee_caravan","address":"The Lantern Room, St Augustine's Church, Bucklesham Road, Ipswich, UK","description":"We are extending the opening times of our TLC Renew Wellbeing CafÃ© - A quiet shared space where it's ok not to be ok. We are open every Wednesday from 10am until 4pm and offer a soup lunch (Â£1 charge) which will be served between 12.30 and 1.30pm. We offer a warm space, cooked meal, signposting to other services, tea/coffee and light refreshments internet access and wellbeing support.","hours":"We 10:00-16:00","title":"WARM SPACES - Winter Warmth at St Augustine's","url":"https://www.helpishere.uk/listings/winter-warmth"},"type":"Feature"},
		{"geometry":{"coordinates":[1.15230,52.05055],"type":"Point"},"properties":{"_source":"suffolk_-_rural_coffee_caravan","address":"St Mary at Stoke, Stoke Street, Ipswich IP2 8BX, UK","description":"We offer a warm space and tea/coffee and light refreshments. Just come along, all welcome.","hours":"We 09:00-13:00","title":"WARM SPACES - Winter Warmth at St Mary Stoke","url":"https://www.helpishere.uk/listings/winter-warmth"},"type":"Feature"},
		{"geometry":{"coordinates":[1.12196,52.04639],"type":"Point"},"properties":{"_source":"suffolk_-_rural_coffee_caravan","address":"St Francis Church, Hawthorn Drive, Ipswich, UK","description":"We will offer a warm space, activities for children, tea/coffee and light refreshments, internet access and wellbeing support or activities.","hours":"Mo 09:00-16:00","title":"WARM SPACES - Winter Warmth at St Francis","url":"https://www.togetherforipswich.uk/cost-of-living/"},"type":"Feature"},
		{"geometry":{"coordinates":[1.10832,52.04215],"type":"Point"},"properties":{"_source":"suffolk_-_rural_coffee_caravan","address":"Shepherd Drive Baptist Church, Pinewood, Ipswich, UK","description":"We offer a warm space, signposting to other services, tea/coffee/soup and light refreshments and board games/gentle activities and a space to chat. Just come along, all welcome.","hours":"We 13:00-17:00","title":"WARM SPACES - Winter Warmth at Shepherd Drive","url":"https://www.helpishere.uk/listings/winter-warmth"},"type":"Feature"},
		{"geometry":{"coordinates":[1.18332,52.03614],"type":"Point"},"properties":{"_source":"suffolk_-_rural_coffee_caravan","address":"Landseer Road, Ipswich, Suffolk IP3 9LX, UK","description":"","hours":"Fr 08:45-12:00","title":"WARM SPACES - Landseer Road Methodist Church","url":"https://landseer.methodistic.org.uk/"},"type":"Feature"},
		{"geometry":{"coordinates":[1.19190,52.03975],"type":"Point"},"properties":{"_source":"suffolk_-_rural_coffee_caravan","address":"Nansen Road, Ipswich IP3 9HN, UK","contact":"Phone:07759 501523","description":"Cwarm space, activities for children, signposting to other services, tea/coffee and light refreshments and internet access","hours":"Th 10:00-15:00","title":"WARM SPACES - Winter Warmth at Nansen Road Baptist Church"},"type":"Feature"},
		{"geometry":{"coordinates":[1.36840,51.97007],"type":"Point"},"properties":{"_source":"suffolk_-_rural_coffee_caravan","address":"Church Rd, Felixstowe IP11 9NF, UK","description":"Warm Space organised by Churches Together Felixstowe, all welcome. ","hours":"Mo 14:00-17:00","title":"WARM SPACES - St Peter & St Paul's Church","url":"https://churchestogetherfelixstowe.org/"},"type":"Feature"},
		{"geometry":{"coordinates":[1.35282,51.96366],"type":"Point"},"properties":{"_source":"suffolk_-_rural_coffee_caravan","address":"Cobbold Road, Felixstowe IP11 7EL, UK","description":"Warm Space organised by Churches Together Felixstowe, all welcome. Soup and a roll provided at lunchtimes.","hours":"Tu 10:00-15:00","title":"WARM SPACES - The Salvation Army - Felixstowe","url":"https://churchestogetherfelixstowe.org/"},"type":"Feature"},
		{"geometry":{"coordinates":[1.30762,51.99157],"type":"Point"},"properties":{"_source":"suffolk_-_rural_coffee_caravan","address":"High Rd, Trimley St Martin, Felixstowe IP11 0RL, UK","description":"Warm Space organised by Churches Together Felixstowe, all welcome. Soup and a roll provided at lunchtimes.","hours":"Tu 11:00-15:00","title":"WARM SPACES - Trimley Methodist Church","url":"https://churchestogetherfelixstowe.org/"},"type":"Feature"},
		{"geometry":{"coordinates":[1.33437,51.96373],"type":"Point"},"properties":{"_source":"suffolk_-_rural_coffee_caravan","address":"St Philip's Hall, Wadgate Road, Felixstowe IP11 2LY, UK","description":"Warm Space organised by Churches Together Felixstowe, all welcome. Soup and a roll provided at lunchtimes.","hours":"Tu 10:00-15:00; Th 10:00-15:00","title":"WARM SPACES - St Philips's Community Hub","url":"https://churchestogetherfelixstowe.org/"},"type":"Feature"},
		{"geometry":{"coordinates":[1.34673,51.96092],"type":"Point"},"properties":{"_source":"suffolk_-_rural_coffee_caravan","address":"Orwell Rd, Felixstowe IP11 7PW, UK","description":"Warm Space organised by Churches Together Felixstowe, all welcome. Soup and a roll provided at lunchtimes.","hours":"We 10:00-15:00","title":"WARM SPACES - St John's lady chapel or meeting room","url":"https://churchestogetherfelixstowe.org/"},"type":"Feature"},
		{"geometry":{"coordinates":[1.33733,51.96963],"type":"Point"},"properties":{"_source":"suffolk_-_rural_coffee_caravan","address":"Seaton Rd, Felixstowe IP11 9BT, UK","description":"Warm Space organised by Churches Together Felixstowe, all welcome. Soup and a roll provided at lunchtimes. Third Thursday of the month is a 2 course meal for Â£5.","hours":"Th 11:00-15:00","title":"WARM SPACES - Seaton Road Methodist Church","url":"https://churchestogetherfelixstowe.org/"},"type":"Feature"},
		{"geometry":{"coordinates":[1.34483,51.96072],"type":"Point"},"properties":{"_source":"suffolk_-_rural_coffee_caravan","address":"63 Orwell Rd, Felixstowe IP11 7PP, UK","description":"Warm Space organised by Churches Together Felixstowe, all welcome. Soup and a roll provided at lunchtimes.","hours":"Fr 10:00-15:00","title":"WARM SPACES - The Convent","url":"https://churchestogetherfelixstowe.org/"},"type":"Feature"},
		{"geometry":{"coordinates":[1.18736,52.03115],"type":"Point"},"properties":{"_source":"suffolk_-_rural_coffee_caravan","address":"5 Brazier's Wood Rd, Ipswich IP3 0SP, UK","contact":"Phone:01473 433655","description":"All welcome to our Warm Bank. We will provide the following: free tea, coffee, milk and sugar; microwave for heating food; plates, bowls, and cutlery for use; free WI-FI, charging cables and plugs to charge device. Showers are available at the Sports Centre for Â£1 fee.","hours":"Mo-Fr 00:00-08:30; Sa 08:30-12:00; Su 08:30-17:30","title":"WARM SPACES - Gainsborough Sports Centre","url":"https://www.ipswichfit.co.uk/gainsborough-sports-centre/"},"type":"Feature"},
		{"geometry":{"coordinates":[1.11976,51.97006],"type":"Point"},"properties":{"_source":"suffolk_-_rural_coffee_caravan","address":"Manningtree Road, Stutton, Ipswich IP9 2TA, UK","contact":"Phone:01473 328133","description":"Stutton Warm Spaces - Are you worried about the cost of keeping warm? Stutton Community Shop welcomes you to our cafe. There will be complimentary refreshments and if you need help getting to us, lifts can be arranged.","hours":"Mo 10:00-13:00; We 10:00-13:00","title":"WARM SPACES - Stutton Community Shop","url":"https://www.stuttonvillage.net/"},"type":"Feature"},
		{"geometry":{"coordinates":[1.11857,51.97005],"type":"Point"},"properties":{"_source":"suffolk_-_rural_coffee_caravan","address":"Stutton community hall, Community Hall, Manningtree Rd, Stutton, Ipswich IP9 2TA, UK","description":"Stutton Warm Spaces - Stutton Bowls Club welcomes you to their Warm Space at Stutton Community Hall on Wednesday evenings.","hours":"We 19:30-21:30","title":"WARM SPACES - Stutton Bowls Club","url":"https://www.stuttonvillage.net/stutton-community-hall"},"type":"Feature"},
		{"geometry":{"coordinates":[1.34918,51.96121],"type":"Point"},"properties":{"_source":"suffolk_-_rural_coffee_caravan","address":"Orwell Road, Felixstowe, Suffolk IP11 7DD, UK","description":"Please only visitors over 55 years. and carers Teas, coffee and other hot and cold drinks just 50p and a range of biscuits, crisps, chocolate bars and the like. and youâre welcome to âbring-your-ownâ food to eat in if you wish.Weâre not a Club- so you donât have to join or pay to come in. Chat with your friends, knit, play cards, scrabble, books to borrow or buy and magazines Nothing ","hours":"Mo-Fr 10:00-16:00; Sa 10:00-12:30","title":"WARM SPACES - Broadway House","url":"http://www.fopwa.onesuffolk.net/"},"type":"Feature"},
		{"geometry":{"coordinates":[1.18532,52.00084],"type":"Point"},"properties":{"_source":"suffolk_-_rural_coffee_caravan","address":"Main Road, Woolverstone, Ipswich IP9 1AX, UK","contact":"Phone:01473 877789","description":"Care home.AGE 55+ Free food/drink, device charging, people to chat to, wheelchair accessible, toilets, accessible toilet, parking.","hours":"Mo-Fr 10:30-16:00","title":"WARM SPACES - Spring Lodge Care Home","url":"https://kingsleyhealthcare.co.uk/pages/home/spring-lodge-residential-care-home"},"type":"Feature"}
	]
}
