{
	"type": "FeatureCollection",
	"features": [
		{"geometry":{"coordinates":[1.09315,51.28469],"type":"Point"},"properties":{"_source":"warm_welcome","address":"All Saints Church, Military Road, Northgate, Canterbury CT1 1PA","description":"Adults of all ages Alternate Fridays we have a representative from CAB available","hours":"Fr 10:00-12:00","title":"All Saints Community Larder and Connecting Canterbury"},"type":"Feature"},
		{"geometry":{"coordinates":[1.07914,51.27963],"type":"Point"},"properties":{"_source":"warm_welcome","address":"18 High Street, Canterbury, Kent CT1 2RA","description":"","hours":"Mo 10:00-17:00, Tu 10:00-17:00, We 10:00-17:00, Th 10:00-18:00, Fr 10:00-17:00, Sa 10:00-16:00","title":"Canterbury Library"},"type":"Feature"},
		{"geometry":{"coordinates":[1.12744,51.37130],"type":"Point"},"properties":{"_source":"warm_welcome","address":"Herne Bay Library, 124 High Street, Herne Bay CT6 5JY","description":"","hours":"Mo 10:00-17:00, Tu 10:00-17:00, We 10:00-17:00, Th 10:00-18:00, Fr 10:00-17:00, Sa 10:00-16:00","title":"Herne Bay Library"},"type":"Feature"},
		{"geometry":{"coordinates":[1.12399,51.36988],"type":"Point"},"properties":{"_source":"warm_welcome","address":"33 Richmond Street, Herne Bay, Kent CT6 5RH","description":"Open from 03-11-2022. We provide soup for lunch as part of our Snack'n'Chat which follows on from the WarmSpace","hours":"Th 10:00-14:30","title":"Herne Bay Salvation Army"},"type":"Feature"},
		{"geometry":{"coordinates":[1.30377,51.37694],"type":"Point"},"properties":{"_source":"warm_welcome","address":"Birchington Library, Alpha Road, Birchington , Kent CT7 9EG","description":" Please visit our website for services provided at your local library","hours":"Mo 09:30-17:00, Tu 09:30-17:30, Th 09:30-17:30, Fr 09:30-17:00, Sa 09:30-15:30","title":"Kent County Council"},"type":"Feature"},
		{"geometry":{"coordinates":[1.33945,51.37883],"type":"Point"},"properties":{"_source":"warm_welcome","address":"Westgate Library, Minster Road, Westgate-On-Sea, Kent CT8 8BP","description":" Please visit our website for services provided at your local library","hours":"Mo 10:00-13:00, Tu 10:00-13:00, We 10:00-13:00, Fr 10:00-13:00, Sa 10:00-17:00, Su 09:30-13:30","title":"Kent County Council"},"type":"Feature"},
		{"geometry":{"coordinates":[1.40023,51.34857],"type":"Point"},"properties":{"_source":"warm_welcome","address":"Newington Library, The Royal Harbour Academy Marlowe Way, Ramsgate, Kent CT12 6NB","description":" Please visit our website for services provided at your local library","hours":"Mo 09:00-13:00, Tu 09:00-13:00, Th 09:00-13:00, Sa 09:00-13:00","title":"Kent County Council"},"type":"Feature"},
		{"geometry":{"coordinates":[1.31423,51.33452],"type":"Point"},"properties":{"_source":"warm_welcome","address":"Minster-in-Thanet Library, 4A Monkton Street, Minster, Ramsgate, Kent CT12 4EA","description":" Please visit our website for services provided at your local library","hours":"Mo 13:00-17:00, Tu 09:30-13:30, Th 12:00-17:00, Fr 10:00-16:00, Sa 09:30-13:30","title":"Kent County Council"},"type":"Feature"},
		{"geometry":{"coordinates":[1.38256,51.38773],"type":"Point"},"properties":{"_source":"warm_welcome","address":"Margate Library, Thanet Gateway Plus, Cecil Street, Margate, Kent CT9 1RE","description":" Please visit our website for services provided at your local library","hours":"Mo 10:00-17:30, Tu 10:00-17:00, We 10:00-17:00, Th 10:00-17:30, Fr 10:00-17:30, Sa 10:00-15:30","title":"Kent County Council"},"type":"Feature"},
		{"geometry":{"coordinates":[1.40358,51.22314],"type":"Point"},"properties":{"_source":"warm_welcome","address":"Broad Street, Deal, Kent CT14 6ER","description":" Please visit our website for services provided at your local library","hours":"Mo 09:30-17:00, Tu 09:30-17:00, We 09:30-13:30, Th 09:30-17:00, Fr 09:30-17:00, Sa 10:00-16:00, Su 10:00-16:00","title":"Kent Libraries Registration and Archives"},"type":"Feature"},
		{"geometry":{"coordinates":[1.15838,51.33897],"type":"Point"},"properties":{"_source":"warm_welcome","address":"Prince of Wales Pub, Maypole Road, Hoath,, Canterbury , Kent CT3 4LN","description":"We focus on both families, children, elderly and disabled. Our managers are DBS cleared and trained to care for individuals require extra support or needs. We have disabled parking and ramps to the rear. Please use the ramp to enter the restaurant. We also have a disabled toilet.","hours":"Mo 12:00-20:00, We 12:00-22:00, Th 12:00-22:00, Fr 12:00-23:00, Sa 12:00-23:00, Su 12:00-18:00","title":"Prince of Wales Pub - Hoath"},"type":"Feature"},
		{"geometry":{"coordinates":[1.33993,51.27533],"type":"Point"},"properties":{"_source":"warm_welcome","address":"Sandwich Library, 13 Market Street, Sandwich, Kent CT13 9DA","description":" Please visit our website for services provided at your local library","hours":"Tu 09:30-17:00, Th 09:30-17:00, Fr 09:30-17:00, Sa 09:30-15:00","title":"Sandwich Library"},"type":"Feature"},
		{"geometry":{"coordinates":[1.12206,51.29970],"type":"Point"},"properties":{"_source":"warm_welcome","address":"Sturry Library, Chafy Crescent, Sturry CT2 0BA","description":"","hours":"Mo 13:30-17:00, Tu 10:00-13:00, We 09:00-12:30, Fr 10:00-13:00, Sa 09:00-13:00","title":"Sturry Library"},"type":"Feature"},
		{"geometry":{"coordinates":[1.06557,51.36115],"type":"Point"},"properties":{"_source":"warm_welcome","address":"Swalecliffe Library, 78 Herne Bay Road, Whitstable CT5 2LX","description":"","hours":"Mo 09:30-13:00, Tu 09:30-13:00, Th 09:30-13:00, Sa 09:30-13:00","title":"Swalecliffe Library"},"type":"Feature"},
		{"geometry":{"coordinates":[1.07223,51.28571],"type":"Point"},"properties":{"_source":"warm_welcome","address":"Forty Acres Road,, Canterbury, Kent CT2 7HJ","description":"","hours":"Mo 19:30-21:00, We 17:00-21:00, Fr 19:30-21:00, Su 10:00-12:00","title":"The Church of Jesus Christ of Latter-day Saints "},"type":"Feature"},
		{"geometry":{"coordinates":[1.08559,51.27611],"type":"Point"},"properties":{"_source":"warm_welcome","address":"Canterbury Baptist Church, St George's Place, Canterbury, Kent CT1 1UT","description":"","hours":"Th 11:00-14:00, Fr 11:00-14:00","title":"The Hub - Lily's Social Kitchen CIC"},"type":"Feature"},
		{"geometry":{"coordinates":[1.38194,51.39148],"type":"Point"},"properties":{"_source":"warm_welcome","address":"Rendezvous, Margate, Kent CT9 1HG","hours":"We 10:00-17:00, Th 10:00-17:00, Fr 10:00-17:00, Sa 10:00-17:00, Su 10:00-17:00","title":"turner contemporary"},"type":"Feature"},
		{"geometry":{"coordinates":[1.39938,51.23011],"type":"Point"},"properties":{"_source":"warm_spaces","address":"28 Golf Road, Deal, England, CT14 6PY","title":"Golf Road Community Centre","url":"https://www.deal.gov.uk/dww"},"type":"Feature"},
		{"geometry":{"coordinates":[1.40003,51.22681],"type":"Point"},"properties":{"_source":"warm_spaces","address":"West Street, Deal, England, CT14 6DY","title":"St Andrews Church","url":"https://www.deal.gov.uk/dww"},"type":"Feature"},
		{"geometry":{"coordinates":[1.40233,51.22025],"type":"Point"},"properties":{"_source":"warm_spaces","address":"43 Victoria Road, Deal, England, CT14 7AY","title":"Talk it Out","url":"https://www.deal.gov.uk/dww"},"type":"Feature"},
		{"geometry":{"coordinates":[1.39117,51.22504],"type":"Point"},"properties":{"_source":"warm_spaces","address":"64 Southwall Road, Deal, England, CT14 9QA","title":"Leaps &amp; Bounds","url":"https://www.deal.gov.uk/dww"},"type":"Feature"},
		{"geometry":{"coordinates":[1.40265,51.22543],"type":"Point"},"properties":{"_source":"warm_spaces","address":"High Street, Deal, England, CT14","title":"St Georgeâ€™s Church","url":"https://www.deal.gov.uk/dww"},"type":"Feature"},
		{"geometry":{"coordinates":[1.40083,51.22639],"type":"Point"},"properties":{"_source":"warm_spaces","address":"Union Road, Deal, England, CT14 6EA","title":"Trinity Church, Deal","url":"https://www.deal.gov.uk/dww"},"type":"Feature"},
		{"geometry":{"coordinates":[1.40032,51.22443],"type":"Point"},"properties":{"_source":"warm_spaces","address":"West Street, Deal, England, CT14 6AZ","title":"Deal Salvation Army","url":"https://www.deal.gov.uk/dww"},"type":"Feature"},
		{"geometry":{"coordinates":[1.20236,51.22381],"type":"Point"},"properties":{"_source":"warm_spaces","address":"1 Milner Crescent, Canterbury, England, CT3 3BH","title":"Roses Tearoom &amp; Thriftshop"},"type":"Feature"}
	]
}
