{
	"type": "FeatureCollection",
	"features": [
		{"geometry":{"coordinates":[1.11587,51.09429],"type":"Point"},"properties":{"_source":"warm_welcome","address":"Sanford House, Stade Street, Hythe ,, Kent, County (optional) CT18 8AX","description":"people aged 50 and overFree Flasks, hot water bottles energy efficient light bulbs","hours":"Mo 09:30-15:30; Tu 09:30-15:30; We 09:30-15:30; Th 09:30-15:30; Fr 09:30-15:30; Sa 10:30-13:30; Su 10:30-13:30","title":"Age Uk Hythe and Lyminge"},"type":"Feature"},
		{"geometry":{"coordinates":[1.14309,51.09132],"type":"Point"},"properties":{"_source":"warm_welcome","address":"The Marigold Centre, Folkestone, Kent CT194NS","description":"Open from 07/11/2022. Our focus is catering for people aged 50+ although younger people are also welcome Step in from the cold with Age UK South Kent Coast's warm space scheme. A warm space with access to free Wi-Fi and a friendly welcome - whether you want to relax, work or grab a low cost bite to eat.","hours":"Mo 09:00-16:00; Tu 09:00-16:00; We 09:00-16:00; Th 09:00-16:00","title":"Age UK South Kent Coast"},"type":"Feature"},
		{"geometry":{"coordinates":[1.14318,51.08898],"type":"Point"},"properties":{"_source":"warm_welcome","address":"Somerset Road, Folkestone , Kent CT19 4NW","description":"","title":"ALL SOULS CHURCH, CHERITON ,FOLKESTONE"},"type":"Feature"},
		{"geometry":{"coordinates":[1.14434,51.08767],"type":"Point"},"properties":{"_source":"warm_welcome","address":"5 Park Road, Folkestone, Kent CT19 4DG","description":"Open from 08-11-2022.","hours":"Tu 13:00-17:00","title":"Cheriton Pentecostal Church "},"type":"Feature"},
		{"geometry":{"coordinates":[1.31331,51.12502],"type":"Point"},"properties":{"_source":"warm_welcome","address":"Dover Discovery Centre, Market Square, Kent CT16 1PH","description":" Please visit our website for services provided at your local library","hours":"Mo 10:00-17:00; Tu 10:00-17:00; We 10:00-17:00; Th 10:00-17:30; Fr 10:00-17:30; Sa 10:00-16:00","title":"Dover Library"},"type":"Feature"},
		{"geometry":{"coordinates":[1.28201,51.13976],"type":"Point"},"properties":{"_source":"warm_welcome","address":"The Vicarage 23 Lewisham Rd, River , Dover, Kent CT17 0QG","description":"","hours":"Tu 10:00-14:00; Su 08:00-16:30","title":"River Parish Church"},"type":"Feature"},
		{"geometry":{"coordinates":[1.07629,51.08401],"type":"Point"},"properties":{"_source":"warm_welcome","address":"Rectory Lane , Saltwood, Hythe CT21 4QA","description":"Everyone welcome","hours":"Mo 14:00-16:00","title":"Saltwood Church"},"type":"Feature"},
		{"geometry":{"coordinates":[1.14971,51.07424],"type":"Point"},"properties":{"_source":"warm_welcome","address":"James Morris Court, Folkestone, Kent CT20 3RR","description":" This is a Library for everyone","hours":"Mo 09:30-17:00; Tu 09:30-13:00; Th 09:30-17:00; Fr 09:30-13:00; Sa 09:30-13:00","title":"Sandgate Library"},"type":"Feature"},
		{"geometry":{"coordinates":[1.21652,51.10099],"type":"Point"},"properties":{"_source":"warm_welcome","address":"65 old dover road, folkestone, ua ct18 7hr","description":"Open from 01-12-2022.","title":"UKRAINIANS IN FOLKESTONE"},"type":"Feature"},
		{"geometry":{"coordinates":[1.14690,51.08747],"type":"Point"},"properties":{"_source":"warm_welcome","address":"The Community Network, 378 Cheriton Road,, Folkestone, Kent CT19 4DX","description":"","hours":"Mo 11:30-13:00; Tu 11:00-13:30; Th 12:00-15:00; Fr 10:30-14:00","title":"United Response, The Community Network"},"type":"Feature"},
		{"geometry":{"coordinates":[1.28175,51.13043],"type":"Point"},"properties":{"_source":"warm_spaces","address":"Poulton Close, Dover, England, CT17 0HL","title":"St. Radigunds Community Centre","url":"https://www.stradigunds.org"},"type":"Feature"}
	]
}
