{
	"type": "FeatureCollection",
	"features": [
		{"geometry":{"coordinates":[0.99455,52.08014],"type":"Point"},"properties":{"_source":"warm_welcome","address":"Elmsett Methodist Church, Elmsett, IPswich IP7 6lz","description":"Open from 06-12-2022.","hours":{"_text":"Tuesday: 10:00 - 12:00","opening":"Tu 10:00-12:00"},"title":"Elmsett Methodist Church, St Peter's Elmsett, Elmsett Parish Council"},"type":"Feature"},
		{"geometry":{"coordinates":[1.05215,52.15217],"type":"Point"},"properties":{"_source":"warm_welcome","address":"Needham Market Community Centre, School Street, Needham Market , Suffolk IP6 8BB","description":"Community Bar","hours":{"_text":"Wednesday: 19:00 - 23:00, Friday: 19:00 - 23:00, Saturday: 19:00 - 23:00","opening":"We 19:00-23:00; Fr 19:00-23:00; Sa 19:00-23:00"},"title":"Needham Market Community Centre"},"type":"Feature"},
		{"geometry":{"coordinates":[0.71665,52.24385],"type":"Point"},"properties":{"_source":"warm_welcome","address":"The Cathedral Office, Bury St Edmunds, Suffolk IP33 1LS","description":"Open from 03-11-2022.","hours":{"_text":"Thursday: 10:00 - 15:00","opening":"Th 10:00-15:00"},"title":"St Edmundsbury Cathedral"},"type":"Feature"},
		{"geometry":{"coordinates":[0.70393,52.26416],"type":"Point"},"properties":{"_source":"warm_welcome","address":"St George's Church, Anselm Ave, Bury St Edmunds IP32 6JZ","description":"Open from 31 10 2022. Our focus is on people who live on their own whether elderly or younger who would like somewhere to meet up with others. We have a space to do crafts...bring you own...and there are also board games and jigsaws available.","hours":{"_text":"Monday: - 14:30","opening":"Mo 00:00-14:30"},"title":"St George's church"},"type":"Feature"},
		{"geometry":{"coordinates":[0.71813,52.24234],"type":"Point"},"properties":{"_source":"warm_welcome","address":"St Mary's Church, Honey Hill , Bury St Edmunds, Suffolk IP33 1RT","description":"Childrens' area with toys","hours":{"_text":"Monday: 10:30 - 15:00, Tuesday: 10:30 - 15:00, Wednesday: 10:30 - 15:00, Thursday: 10:30 - 15:00, Friday: 10:30 - 15:00, Saturday: 10:30 - 15:00, Sunday: 9:15 - 12:00","opening":"Mo 10:30-15:00; Tu 10:30-15:00; We 10:30-15:00; Th 10:30-15:00; Fr 10:30-15:00; Sa 10:30-15:00; Su 09:15-12:00"},"title":"St Mary's Parish Church, Bury St Edmunds"},"type":"Feature"},
		{"geometry":{"coordinates":[0.98945,52.19212],"type":"Point"},"properties":{"_source":"warm_welcome","address":"Violet Hill Road, Stowmarket, Suffolk IP14 1NE","hours":{"_text":"Tuesday: 10:00 - 15:00, Sunday: 10:00 - 12:00","opening":"Tu 10:00-15:00; Su 10:00-12:00"},"title":"The Salvation Army"},"type":"Feature"}
	]
}
