{
	"type": "FeatureCollection",
	"features": [
		{"geometry":{"coordinates":[1.04695,52.00300],"type":"Point"},"properties":{"_source":"warm_welcome","address":"The Street, Capel St Mary, Suffolk IP9 2EF","description":" Open from 02-11-2022.","hours":{"_text":"Tuesday: 09:00 - 12:30 / -","opening":"Tu 09:00-12:30"},"title":"Capel St Mary Methodist Church"},"type":"Feature"},
		{"geometry":{"coordinates":[0.90176,51.89091],"type":"Point"},"properties":{"_source":"warm_welcome","address":"Maidenburgh Street, Colchester CO1 1TT","description":"Open from 04-01-2023. Jigsaws and board games available.","hours":{"_text":"Wednesday: 11:00 - 15:00","opening":"We 11:00-15:00"},"title":"Castle Methodist Church, Colchester"},"type":"Feature"},
		{"geometry":{"coordinates":[0.84238,51.88865],"type":"Point"},"properties":{"_source":"warm_welcome","address":"86 London Road, Lexden, Colchester CO3 9DW","hours":{"_text":"Monday: 09:00 - 21:00, Tuesday: 09:00 - 21:00, Wednesday: 09:00 - 21:00, Thursday: 09:00 - 21:00, Friday: 09:00 - 21:00, Saturday: 09:00 - 16:00, Sunday: 09:00 - 13:30","opening":"Mo 09:00-21:00; Tu 09:00-21:00; We 09:00-21:00; Th 09:00-21:00; Fr 09:00-21:00; Sa 09:00-16:00; Su 09:00-13:30"},"title":"Kingsland Church"},"type":"Feature"},
		{"geometry":{"coordinates":[0.86752,51.87725],"type":"Point"},"properties":{"_source":"warm_welcome","address":"18 Plume Avenue, Colchester, Essex CO3 4PQ","description":"Open from 5th December 2022.","hours":{"_text":"Monday: 9:00 - 15:00","opening":"Mo 09:00-15:00"},"title":"Plume Avenue Church"},"type":"Feature"},
		{"geometry":{"coordinates":[0.91800,51.91858],"type":"Point"},"properties":{"_source":"warm_welcome","address":"Jack Andrews Drive, off Gavin Way, Colchester, Essex CO4 9FF","description":"Open from 07.11.2022.","hours":{"_text":"Monday: 09:00 - 13:00","opening":"Mo 09:00-13:00"},"title":"The Ark (Highwoods Methodist Church), Colchester"},"type":"Feature"},
		{"geometry":{"coordinates":[0.74731,52.03830],"type":"Point"},"properties":{"_source":"warm_welcome","address":"Maldon Grey, Cats Lane, Sudbury, Suffolk CO10 2RZ","hours":{"_text":"Monday: 11:00 - 23:00, Tuesday: 11:00 - 23:00, Wednesday: 11:00 - 23:00, Thursday: 11:00 - 23:00, Friday: 11:00 - 00:00, Saturday: 11:00 - 00:00, Sunday: 12:00 - 22:30","opening":"Mo 11:00-23:00; Tu 11:00-23:00; We 11:00-23:00; Th 11:00-23:00; Fr 11:00-00:00; Sa 11:00-00:00; Su 12:00-22:30"},"title":"The Maldon Grey Pub"},"type":"Feature"},
		{"geometry":{"coordinates":[0.89082,51.91543],"type":"Point"},"properties":{"_source":"warm_welcome","address":"84 Nayland Road, Colchester, Essex CO4 5ET","description":"Open from 01-11-2022.","hours":{"_text":"Tuesday: 11:15 - 16:00","opening":"Tu 11:15-16:00"},"title":"The Well Methodist Church, Colchester, Essex CO4 5ET"},"type":"Feature"},
		{"geometry":{"coordinates":[0.91379,51.88161],"type":"Point"},"properties":{"_source":"warm_welcome","address":"47 wimpole Road, Colchester , Essex CO1 2DL","description":"Open from Wednesday 7th December 2022. All welcome A warm welcome awaits, no charge.","hours":{"_text":"Wednesday: 08:45 - 12:00","opening":"We 08:45-12:00"},"title":"Wimpole Road Methodist Church"},"type":"Feature"},
		{"geometry":{"coordinates":[0.71910,51.92896],"type":"Point"},"properties":{"_source":"braintree_council","address":"White Colne Village Hall, Bures Road CO6 2QB","description":"There is a small charge for refreshments","hours":{"_text":"From 25/11 every 2nd & 4th Friday 9am - 1pm","opening":"Fr[2,4] 09:00-13:00"},"title":"White Colne Pop Up Coffee Morning, Pastries, Porridge, bottomless Tea & Coffee","url":"https://en-gb.facebook.com/whitecolnevillagehall/"},"type":"Feature"},
		{"geometry":{"coordinates":[0.71579,51.84675],"type":"Point"},"properties":{"_source":"braintree_council","address":"Coggeshall Road, Feering Coggeshall Road Feering Essex Feering Community Centre Coggeshall Road Feering Essex Feering Community Centre Coggeshall Road Feering Essex CO5 9QB CO5 9QB","description":"Free","hours":{"_text":"Mondays & Wednesdays 14:00-16:00","opening":"Mo 14:00-16:00; We 14:00-16:00"},"title":"Community Living Room","url":"http://www.feeringparishcouncil.gov.uk https://www.facebook.com/FeeringParishCouncil"},"type":"Feature"},
		{"geometry":{"coordinates":[0.86204,51.87291],"type":"Point"},"properties":{"_source":"colchester_council","address":"Shrub End Rd, Colchester CO3 4SA","contact":"Tel: 07594154709 ; Email: thewarmandtoastyclub@gmail.com","description":"Monday afternoons 2-4pm 13th February 13th March 12th June 14th August 9th October 13th November 11th December Uplifting social entertainment events for people over 50 only. A friendly atmosphere, live entertainers, quizes and raffles - there will be tea, coffee and biscuits served at approx 3pm at each session.","hours":{"_text":"Memory afternoons running"},"title":"The Warm and Toasty Club-Shrub End"},"type":"Feature"},
		{"geometry":{"coordinates":[0.92617,51.88092],"type":"Point"},"properties":{"_source":"colchester_council","address":"Customs House, Colne, Causeway, Colchester CO2 8JD","contact":"Tel: Elizabeth-07940441756 and Claire-079506523496 ; Email: cdemliftingland.com","description":"Hot food and drinks provided.","title":"Divine Assembly Ministries"},"type":"Feature"},
		{"geometry":{"coordinates":[0.84676,51.91448],"type":"Point"},"properties":{"_source":"colchester_council","address":"Orpen Memorial Hall, 45-57 Lexden Rd, West Bergholt, Colchester CO6 3BG","contact":"Tel: 01206 241026 or 07967 731197 ; Email: mervyn.donnelly@gmail.com","description":"Starting 7th November A warm space for people to socialise with there friends and get light refreshments for free.","title":"West Bergholt Care Network"},"type":"Feature"},
		{"geometry":{"coordinates":[0.79981,51.91721],"type":"Point"},"properties":{"_source":"colchester_council","address":"John Owen Barn, Church Road, Fordham, Colchester CO6 3NL","contact":"Tel: 07717472796 ; Email: jacqui.griffiths@fordhamchurch.org.uk","description":"A warm café style environment with warm drinks, cakes and soups on offer.","hours":{"_text":"Fridays 10.00-1.00pm","opening":"Fr 10:00-13:00"},"title":"Fordham Community Hub Cafe"},"type":"Feature"},
		{"geometry":{"coordinates":[0.90535,51.89000],"type":"Point"},"properties":{"_source":"colchester_council","address":"High St, Colchester CO1 1UG","contact":"Tel: 01206 505250 ; Email: amandafindley@community360.org.uk","description":"Offering a warm space and hot refreshments. Different activities scheduled each week. Food bank vouchers availiable.","hours":{"_text":"Saturdays 10.00am-3.00pm","opening":"Sa 10:00-15:00"},"title":"Community360"},"type":"Feature"},
		{"geometry":{"coordinates":[0.93275,51.88686],"type":"Point"},"properties":{"_source":"colchester_council","address":"St Andrew's Church, Forest Road, Greenstead, Colchester, CO4 3XH","contact":"Tel: 01206 510732 ; Email: revsue@andyanneandmatt.org.uk and office@andyanneandmatt.org.uk","description":"On Monday there is a simple lunch (Jacket Potatoes) and Wednesday it's tea/coffee and cake. Time to chat and meet other local residents in a warm safe space.","hours":{"_text":"Second and Forth Monday 12.00-2.00pm and Wednesdays 2.00-4.00pm","opening":"Mo 12:00-14:00; We 14:00-16:00"},"title":"St Andrew's Church"},"type":"Feature"},
		{"geometry":{"coordinates":[0.90652,51.86330],"type":"Point"},"properties":{"_source":"colchester_council","address":"Scout Hall, The Parade, Queen Elizabeth Way, Colchester C02 8LY","contact":"Tel: ; Email: dave_harris@msn.com","description":"A safe space to relax, with guest speakers, local police, bingo and board games. Hot refreshments and biscuits available.","hours":{"_text":"Last Wednesday of every month dates going forward from 30th November onwards all 2023 and 2024"},"title":"Berechurch Councillor advice surgery"},"type":"Feature"},
		{"geometry":{"coordinates":[0.89453,51.88965],"type":"Point"},"properties":{"_source":"colchester_council","address":"Balkerne Gate, Colchester CO1 1PT","contact":"Tel: ; Email: info@mercurytheatre.co.uk","description":"The theatre building is modern, accessible and open to all. Their is a café bar available for drinks & food, however there isn't a requirement to purchase anything to use the space (from January we will have catering offers). Wifi is available, and there is a selection of different seating options including tables and chairs, sofas and bar seating. Throughout December we will be very busy with our pantomime, so the builidng will be busy, often with large groups of children and families. From mid January the builidng will be much quieter during the day.","hours":{"_text":"Tuesday-Thursday 10am-11pm, Friday-Saturday 10am-midnight, Sunday 10am-7pm (on Sundays with performances only)","opening":"Tu-Th 10:00-23:00; Fr-Sa 10:00-12:00; Su 10:00-19:00"},"title":"Mercury Theatre"},"type":"Feature"},
		{"geometry":{"coordinates":[0.90316,51.88867],"type":"Point"},"properties":{"_source":"colchester_council","address":"31-32 Priory Walk, Colchester C01","contact":"Tel: 075 3945 5974; Email: schege@yourvisionmedia.tv","description":"Mother and Toddler Group Welcoming environment for both mothers and toddlers. Play area for the young children in a safe space as well. Safari Cafe Board games, community ambassadors to chat with people of the community, hot beverages.","hours":{"_text":"Mother and Toddler Group: Wednesday 10.00am-4.00pm","opening":"We 10:00-16:00"},"title":"AFiUK- Mother and Toddler Group and Safari Cafe"},"type":"Feature"},
		{"geometry":{"coordinates":[0.89606,51.89015],"type":"Point"},"properties":{"_source":"colchester_council","address":"67 North Hill, Colchester, CO1 1PX","contact":"Tel: 03003735333; Email: jayne.vernon@agewelleast.org.uk.","description":"A WARM FRIENDLY WELCOME, HOT DRINK AND FRIENDLY GAME OF BINGO -Tuesdays 2.30-3.30pm","hours":{"_text":"Tuesdays 2.30-3.30pm","opening":"Tu 14:30-15:30"},"title":"Age Well East"},"type":"Feature"},
		{"geometry":{"coordinates":[0.85207,51.88930],"type":"Point"},"properties":{"_source":"colchester_council","address":"86 London Road, Colchester, CO3 9DW","contact":"Tel: 01206 508948; Email: sara@kingsland.org.uk or info@kingsland.org.uk","description":"Monday to Friday 9am-5.30pm (open until later but not for hot drinks) Saturday 9am-4pm Sunday 9am-1pm for church services Warm, welcoming cafe area with plenty of space to meet in groups (just to chat or for an arranged activity), or to sit at a table or on a sofa with a friend - good coffee, teas, hot chocolate and cake all day, light lunches between 11am and 2pm. There are also rooms to hire for meetings, events and activities. Plenty of free parking. Lift and stairlift up to our 1st floor facilities.","title":"Kingsland Church"},"type":"Feature"},
		{"geometry":{"coordinates":[0.90741,51.86379],"type":"Point"},"properties":{"_source":"colchester_council","address":"Stansted Rd, Colchester CO2 8RA","contact":"Tel: 07946319110; Email: mpsnelling@gmail.com","description":"Warm Space includes free hot drinks, foodbank satellite running at the same time along with alternating support from Citizens Advice and the councils Employment and Housing Team.","hours":{"_text":"Fridays 11am-1pm (except bank holidays)","opening":"Fr 11:00-13:00"},"title":"St Margaret's-Berechurch"},"type":"Feature"},
		{"geometry":{"coordinates":[0.91060,51.85655],"type":"Point"},"properties":{"_source":"colchester_council","address":"Sexton Close, Holt Drive, Colchester CO2 ODW","contact":"Tel: ; Email:","description":"Warm Spaces includes facilities to make a cup of tea & coffee, wifi, and TV.","hours":{"_text":"Wednesday 10am-1pm","opening":"We 10:00-13:00"},"title":"Cherry Trees Community Hall-Colchester City Homes"},"type":"Feature"},
		{"geometry":{"coordinates":[0.96508,51.86242],"type":"Point"},"properties":{"_source":"colchester_council","address":"Stuart Pawsey Court communal lounge, Stanley Road, Wivenhoe CO7 9LP","contact":"Tel: ; Email:","description":"Warm Spaces includes facilities to make a warm drink, wifi, and TV. A tenant volunteer will also be available and Community 360 officer.","hours":{"_text":"Tuesday 9.30am-12.30pm","opening":"Tu 09:30-12:30"},"title":"Stuart Pawsey Court-Colchester City Homes"},"type":"Feature"},
		{"geometry":{"coordinates":[0.89701,51.92340],"type":"Point"},"properties":{"_source":"colchester_council","address":"Colchester United Football JobServe Community Stadium, CO4 5UP","contact":"Tel: ; Email:","description":"Opening times- Tuesday 9.30am-11am ed.king@colchesterunited.net or jake.mullinder@colchesterunited.net The JobServe Community Stadium will be operating as a Winter Warm Hub to provide a place to keep warm, socialise with free WiFi, hot drinks, and biscuits.","title":"Colchester United Football Club"},"type":"Feature"},
		{"geometry":{"coordinates":[0.77811,51.87796],"type":"Point"},"properties":{"_source":"colchester_council","contact":"Tel: ; Email:","description":"Opening Times-Second Wednesday of the month 2pm-4pm Address-Parish Hall, Old London Rd, Marks Tey, Colchester CO6 1EJ Contact Number-01206 213250 Email-parish.clerk@marksteyparish.org.uk Cost-FREE of charge","title":"Young at Heart-Marks Tey Parish Hall"},"type":"Feature"},
		{"geometry":{"coordinates":[0.87506,51.87593],"type":"Point"},"properties":{"_source":"colchester_council","address":"Shrub End Community Centre, CO2 9BG","contact":"Tel: ; Email:","description":"Opening times- Wednesday 9.30am-11am ed.king@colchesterunited.net or jake.mullinder@colchesterunited.net The Shrub End Sports Ground will be operating as a Winter Warm Hub to provide a place to keep warm, socialise with free WiFi, hot drinks, and biscuits.","title":"Shrub End Sports Ground-Colchester United"},"type":"Feature"},
		{"geometry":{"coordinates":[0.90803,51.85993],"type":"Point"},"properties":{"_source":"colchester_council","address":"Blackheath, 23, Mersea Road, Blackheath, Colchester CO2 0AE","contact":"Tel: 01206 364673; Email: orchardbaptist.co.uk","hours":{"_text":"Tuesday 12.30pm-2.30pm","opening":"Tu 12:30-14:30"},"title":"Orchard Baptist Church"},"type":"Feature"},
		{"geometry":{"coordinates":[0.91400,51.88173],"type":"Point"},"properties":{"_source":"colchester_council","address":"Wimpole Road, Colchester CO1 2DL","contact":"Tel: ; Email:","description":"Opening Times-Wednesday 8am-1pm Hot and cold drinks, snacks and toast during the morning and soup / beans on toast late morning. There is access to a small community larder.","title":"Wimpole Road Methodist Church"},"type":"Feature"},
		{"geometry":{"coordinates":[0.77801,51.87792],"type":"Point"},"properties":{"_source":"colchester_council","contact":"Tel: ; Email:","description":"Opening Times-First Saturday of the month 10am-12.30pm Address-Parish Hall, Old London Rd, Marks Tey, Colchester CO6 1EJ Contact Number-01206 213250 Email-parish.clerk@marksteyparish.org.uk Borrow a book or stay for tea and cakes. Cost-Warm space is free to attend, charges apply for food and drinks.","title":"Community Library-Marks Tey Parish Hall"},"type":"Feature"},
		{"geometry":{"coordinates":[0.89934,51.88951],"type":"Point"},"properties":{"_source":"colchester_council","address":"31-32 High Street, Colchester CO1 1DB","contact":"Tel: ; Email:","description":"Warm Space will offer a hot tea or coffee, toilet facilities, Wi-Fi and also answer any questions about banking you may have!","title":"Metro Bank"},"type":"Feature"},
		{"geometry":{"coordinates":[0.81224,51.94928],"type":"Point"},"properties":{"_source":"colchester_council","contact":"Tel: ; Email:","description":"Address; Wormingford Village Hall, Main Rd, Wormingford, Colchester CO6 3AX Warm space will be providing free tea, coffee, Biscuits and Cake, plus Hot Soup and Bread to those that want it.","hours":{"_text":"Every Monday in January, February and March 10am-2pm."},"title":"Wormingford Village Hall Warm Kitchen"},"type":"Feature"},
		{"geometry":{"coordinates":[0.88991,51.89671],"type":"Point"},"properties":{"_source":"colchester_council","address":"Colne Bank Avenue, Colchester, CO11UU","contact":"Tel: ; Email: www.changinglivescommunityservices.co.uk","description":"Join us at our Colchester Hub for FREE tea or coffee, breakfast snack and a chat, our staff would love to welcome you in.","hours":{"_text":"Monday and Wednesday 10.00am-12.00pm","opening":"Mo 10:00-12:00; We 10:00-12:00"},"title":"Changing Lives-Coffee and Chat"},"type":"Feature"},
		{"geometry":{"coordinates":[0.89494,51.88872],"type":"Point"},"properties":{"_source":"colchester_council","address":"Quarker Meeting House, 6 Church Street, Colchester, CO1 1NF","contact":"Tel: 01206 540447; Email:","description":"Saturday March 11th, 18th and 25th 10am-3pm. Warm space includes the serving of soup from 12-1pm and hot drinks and cakes at other times.","hours":{"_text":"Saturday February 11th and 18th 10am-3pm"},"title":"Colchester Quarker Meeting House"},"type":"Feature"},
		{"geometry":{"coordinates":[0.90222,51.88907],"type":"Point"},"properties":{"_source":"colchester_council","address":"4-6 Long Wyre St, Colchester CO1 1LH","contact":"Tel: 07594154709 ; Email: thewarmandtoastyclub@gmail.com","description":"20 FEB 2023, MONDAY 20 MAR 2023, MONDAY 17 APR 2023, MONDAY 15 MAY 2023, MONDAY 19 JUN 2023, MONDAY 21 AUG 2023, MONDAY 16 OCT 2023, MONDAY 20 NOV 2023, MONDAY 18 DEC 2023, MONDAY Each session is 2-4pm Uplifting social entertainment events for people over 50 only. A friendly atmosphere, live entertainers, quizes and raffles - there will be tea, coffee and biscuits served at approx 3pm at each session.","title":"The Warm and Toasty Club-Memory afternoons"},"type":"Feature"},
		{"geometry":{"coordinates":[0.92143,51.91629],"type":"Point"},"properties":{"_source":"colchester_council","address":"The Ark, Highwoods Methodist Church, Jack Andrews Drive, Highwoods, Colchester CO4 9FF","contact":"Tel: ; Email:","description":"Warm space includes free tea and coffee and biscuits.","hours":{"_text":"Monday morning 9am-1pm","opening":"Mo 09:00-13:00"},"title":"The Ark"},"type":"Feature"},
		{"geometry":{"coordinates":[0.88154,51.86843],"type":"Point"},"properties":{"_source":"colchester_council","address":"Community Centre, Fallowfield Road, Colchester, CO2 9LL","contact":"Tel: ; Email:","description":"FREE coffee afternoon all welcome.","hours":{"_text":"Monday 1.30-4.30pm","opening":"Mo 13:30-16:30"},"title":"Army Welfare Service-Community Support"},"type":"Feature"},
		{"geometry":{"coordinates":[0.90316,51.88867],"type":"Point"},"properties":{"_source":"essex_map","address":"Priory Walk, Colchester, UK","title":"En-Form","url":"https://www.essexmap.co.uk/listings/en-form-2/"},"type":"Feature"},
		{"geometry":{"coordinates":[0.93280,51.88728],"type":"Point"},"properties":{"_source":"essex_map","address":"Forest Road, Colchester CO4 3XH, UK","contact":"01206 510732","title":"St Andrew&#8217;s Church","url":"https://www.essexmap.co.uk/listings/st-andrews-church/"},"type":"Feature"},
		{"geometry":{"coordinates":[0.95968,51.85740],"type":"Point"},"properties":{"_source":"essex_map","address":"High Street, Wivenhoe, Colchester CO7 9AB, UK","contact":"07397 680318","title":"Dance Network Association-Dancing with Parkinsons","url":"https://www.essexmap.co.uk/listings/dance-network-association-dancing-with-parkinsons/"},"type":"Feature"},
		{"geometry":{"coordinates":[0.80202,51.91760],"type":"Point"},"properties":{"_source":"essex_map","address":"Fordham, Colchester CO6 3NL, UK","title":"Fordham Community Hub","url":"https://www.essexmap.co.uk/listings/fordham-community-hub/"},"type":"Feature"},
		{"geometry":{"coordinates":[0.90610,51.86371],"type":"Point"},"properties":{"_source":"essex_map","address":"Colchester CO2 8LY, UK","contact":"07816 168858","title":"Berechurch Councillor advice surgery","url":"https://www.essexmap.co.uk/listings/berechurch-councillor-advice-surgery/"},"type":"Feature"},
		{"geometry":{"coordinates":[0.93664,51.89169],"type":"Point"},"properties":{"_source":"essex_map","address":"Greenstead Library, Hawthorn Avenue, Colchester, UK","contact":"0345 603 7628","title":"Greenstead Library","url":"https://www.essexmap.co.uk/listings/greenstead-library-2/"},"type":"Feature"},
		{"geometry":{"coordinates":[0.89950,51.88846],"type":"Point"},"properties":{"_source":"essex_map","address":"Colchester Library, Trinity Square, Colchester, UK","contact":"0345 603 7628","title":"Colchester Library","url":"https://www.essexmap.co.uk/listings/colchester-library/"},"type":"Feature"},
		{"geometry":{"coordinates":[0.89858,51.92540],"type":"Point"},"properties":{"_source":"essex_map","address":"Colchester CO4 5YX, UK","contact":"01206 282000","title":"Colchester Sports Park","url":"https://www.essexmap.co.uk/listings/colchester-sports-park/"},"type":"Feature"},
		{"geometry":{"coordinates":[0.89635,51.89033],"type":"Point"},"properties":{"_source":"essex_map","address":"North Hill, Colchester CO1 1PX, UK","contact":"03003735333","title":"Age Well East &#8211; Warm Space","url":"https://www.essexmap.co.uk/listings/age-well-east-warm-space/"},"type":"Feature"},
		{"geometry":{"coordinates":[0.91616,51.88501],"type":"Point"},"properties":{"_source":"essex_map","address":"Barrack Street, Colchester CO1 2LR, UK","contact":"07999 278472","title":"Colchester Gateway","url":"https://www.essexmap.co.uk/listings/colchester-gateway/"},"type":"Feature"},
		{"geometry":{"coordinates":[0.90247,51.88912],"type":"Point"},"properties":{"_source":"essex_map","address":"4-6 Long Wyre Street, Colchester, UK","contact":"01206 505250","title":"Winter Resilience","url":"https://www.essexmap.co.uk/listings/winter-resilience/"},"type":"Feature"},
		{"geometry":{"coordinates":[0.90233,51.88840],"type":"Point"},"properties":{"_source":"essex_map","address":"Long Wyre Street, Colchester CO1 1LH, UK","title":"One Colchester Community Hub &#8211; Warm Space","url":"https://www.essexmap.co.uk/listings/one-colchester-community-hub-warm-space/"},"type":"Feature"},
		{"geometry":{"coordinates":[0.92544,51.88131],"type":"Point"},"properties":{"_source":"essex_map","address":"Meachen Road, Colchester CO2 8JD, UK","contact":"079506523496","title":"Divine Assembly Ministries","url":"https://www.essexmap.co.uk/listings/divine-assembly-ministries/"},"type":"Feature"},
		{"geometry":{"coordinates":[0.85190,51.88965],"type":"Point"},"properties":{"_source":"essex_map","address":"London Road, Colchester CO3 9DW, UK","contact":"01206 508948","title":"Kingsland Church","url":"https://www.essexmap.co.uk/listings/kingsland-church/"},"type":"Feature"},
		{"geometry":{"coordinates":[0.87172,51.87204],"type":"Point"},"properties":{"_source":"essex_map","address":"Iceni Way, Colchester CO2 9BX, UK","contact":"07825915534","title":"Little Learners South Colchester","url":"https://www.essexmap.co.uk/listings/little-learners-south-colchester/"},"type":"Feature"},
		{"geometry":{"coordinates":[0.90229,51.88858],"type":"Point"},"properties":{"_source":"essex_map","address":"Long Wyre Street, Colchester, UK","contact":"01206 505250","title":"Community 360 Winter Support","url":"https://www.essexmap.co.uk/listings/community-360-winter-support/"},"type":"Feature"},
		{"geometry":{"coordinates":[0.79982,51.91721],"type":"Point"},"properties":{"_source":"essex_map","address":"John Owen Barn, Church Road, Fordham, Colchester CO6 3NL, UK","contact":"07717472796","title":"Fordham Community Hub Cafe","url":"https://www.essexmap.co.uk/listings/fordham-community-hub-cafe/"},"type":"Feature"},
		{"geometry":{"coordinates":[0.90535,51.89015],"type":"Point"},"properties":{"_source":"essex_map","address":"Colchester CO1 1UG, UK","contact":"01206 505250","title":"Community 360 Volunteering","url":"https://www.essexmap.co.uk/listings/community-360-volunteering/"},"type":"Feature"},
		{"geometry":{"coordinates":[0.90546,51.89017],"type":"Point"},"properties":{"_source":"essex_map","address":"Colchester CO1 1UG, UK","contact":"01206 505250","title":"Community 360","url":"https://www.essexmap.co.uk/listings/community360/"},"type":"Feature"},
		{"geometry":{"coordinates":[0.90451,51.88926],"type":"Point"},"properties":{"_source":"essex_map","address":"Colchester CO1 2PH, UK","contact":"01206 638454","title":"Refugee, Asylum seeker and Migrant Action","url":"https://www.essexmap.co.uk/listings/refugee-asylum-seeker-and-migrant-action/"},"type":"Feature"},
		{"geometry":{"coordinates":[0.84555,51.91453],"type":"Point"},"properties":{"_source":"essex_map","address":"Orpen Close, West Bergholt, Colchester CO6 3BG, UK","contact":"07967 731197","title":"West Bergholt Care Network","url":"https://www.essexmap.co.uk/listings/west-bergholt-care-network/"},"type":"Feature"},
		{"geometry":{"coordinates":[0.81225,51.95596],"type":"Point"},"properties":{"_source":"essex_map","address":"Wormingford, Colchester CO6 3AZ, UK","contact":"01206 735980","title":"Abberton and Langenhoe Community Association","url":"https://www.essexmap.co.uk/listings/abberton-and-langenhoe-community-association/"},"type":"Feature"},
		{"geometry":{"coordinates":[0.90289,51.88882],"type":"Point"},"properties":{"_source":"essex_map","address":"31-32 Priory Walk, Colchester, UK","contact":"079 5817 3887","title":"AFiUK &#8211; Mother and Toddler Group and Safari Cafe","url":"https://www.essexmap.co.uk/listings/afiuk-mother-and-toddler-group-and-safari-cafe/"},"type":"Feature"}
	]
}
