{
	"type": "FeatureCollection",
	"features": [
		{"geometry":{"coordinates":[-1.34759,54.53107],"type":"Point"},"properties":{"_source":"warm_welcome","address":"https://allsaints-church.net/, 22 Dunottar Avenue, Preston On Tees TS16 0AB","description":"Open from 29-11-2022. Every monday we run a free cafe which is ongoing. The Tuesday sessions are within the date frame given but are likely to be extended. We are runnign in partnership with the Locomotion pub which is open Wed, Thurs, Fri with free hot drinks.","hours":{"_text":"Monday: 09:30 - 11:30, Tuesday: 10:00 - 12:00","opening":"Mo 09:30-11:30; Tu 10:00-12:00"},"title":"All Saints Church Preston On Tees"},"type":"Feature"},
		{"geometry":{"coordinates":[-1.31628,54.56432],"type":"Point"},"properties":{"_source":"warm_welcome","address":"Dovecot Street, Stockton on Tees, Tees Valley TS18 1LL","description":"We have a café on the ground floor, but everyone is welcome to make use of the seating areas on the first floor and in the Gallery (second floor) of ARC, with no need to buy anything.","hours":{"_text":"Monday: 12:00 - 16:00, Tuesday: 10:00 - 18:00, Wednesday: 10:00 - 21:00, Thursday: 10:00 - 21:00, Friday: 10:00 - 21:00, Saturday: 10:00 - 21:00","opening":"Mo 12:00-16:00; Tu 10:00-18:00; We 10:00-21:00; Th 10:00-21:00; Fr 10:00-21:00; Sa 10:00-21:00"},"title":"ARC Stockton"},"type":"Feature"},
		{"geometry":{"coordinates":[-1.18097,54.55846],"type":"Point"},"properties":{"_source":"warm_welcome","address":"Community Ventures Ltd, Thorntree, Middlesbrough TS3 9PA","description":"Open from 1st January 2023. We especially invite older and minority people along. We are Dementia friendly.","hours":{"_text":"Wednesday: 10:30 - 13:00, Thursday: 09:30 - 15:00","opening":"We 10:30-13:00; Th 09:30-15:00"},"title":"Community Ventures and Independent Age"},"type":"Feature"},
		{"geometry":{"coordinates":[-1.13420,54.48848],"type":"Point"},"properties":{"_source":"warm_welcome","address":"105b High Street , Great Ayton , North Yorkshire TS9 6NY","description":"We are a community hub that is also a library. We also sell art,crafts and second hand books.","hours":{"_text":"Tuesday: 10:00 - 16:00, Wednesday: 10:00 - 16:00, Thursday: 10:00 - 16:00, Friday: 10:00 - 16:00, Saturday: 10:00 - 13:00","opening":"Tu 10:00-16:00; We 10:00-16:00; Th 10:00-16:00; Fr 10:00-16:00; Sa 10:00-13:00"},"title":"Great Ayton Discovery Centre"},"type":"Feature"},
		{"geometry":{"coordinates":[-1.13663,54.48898],"type":"Point"},"properties":{"_source":"warm_welcome","address":"High Street, Great Ayton, North Yorkshire TS9 6NF","hours":{"_text":"Tuesday: 10:00 - 14:00, Wednesday: 16:00 - 19:00","opening":"Tu 10:00-14:00; We 16:00-19:00"},"title":"Great Ayton Methodist Church"},"type":"Feature"},
		{"geometry":{"coordinates":[-1.14097,54.49056],"type":"Point"},"properties":{"_source":"warm_welcome","address":"Great Ayton Methodist Church, High Street, , Great Ayton, Middlesbrough TS9 6NF","description":"There are facilities for all age groups however there are 2 sets of 3 steps to access toilets. Staff are available to assist. Toys for children can be made available.","hours":{"_text":"Tuesday: 10:00 - 15:00, Wednesday: 16:00 - 19:00","opening":"Tu 10:00-15:00; We 16:00-19:00"},"title":"Great Ayton Methodist Church"},"type":"Feature"},
		{"geometry":{"coordinates":[-1.22117,54.55857],"type":"Point"},"properties":{"_source":"warm_welcome","address":"Farndale Road, Middlesbrough , North Yorkshire TS24 2PT","hours":{"_text":"Friday: 12:00 - 14:00","opening":"Fr 12:00-14:00"},"title":"Grove Hill Methodist Church"},"type":"Feature"},
		{"geometry":{"coordinates":[-1.32254,54.55862],"type":"Point"},"properties":{"_source":"warm_welcome","address":"c/o Yarm Road Methodist Church, 5a Woodland Street, Stockton-on-Tees TS183NW","description":"Open from 13-12-2022.","hours":{"_text":"Tuesday: 10:00 - 13:00","opening":"Tu 10:00-13:00"},"title":"Jubilee Church Teesside"},"type":"Feature"},
		{"geometry":{"coordinates":[-1.21479,54.52161],"type":"Point"},"properties":{"_source":"warm_welcome","address":"St Mary's Cathedral, Coulby Newham, Middlesbrough TS8 0TW","description":"Open from 11.01.2023.","title":"Justice and Peace Group at St Mary's Cathedral, Coulby Newham, Middlesbrough"},"type":"Feature"},
		{"geometry":{"coordinates":[-1.19765,54.53142],"type":"Point"},"properties":{"_source":"warm_welcome","address":"7 The Willows, Marton, Middlesbrough TS7 8BL","description":"Open from 11/11/2022.","hours":{"_text":"Monday: 9:30 - 12:00 / 13:00 - 17:00, Thursday: 9:30 - 12:00 / 13:00 - 17:00, Friday: 09:30 - 12:00 / 13:00 - 17:00, Saturday: 9:30 - 12:30","opening":"Mo 09:30-12:00,13:00-17:00; Th 09:30-12:00,13:00-17:00; Fr 09:30-12:00,13:00-17:00; Sa 09:30-12:30"},"title":"Marton Community Hub & Library"},"type":"Feature"},
		{"geometry":{"coordinates":[-1.16647,54.56890],"type":"Point"},"properties":{"_source":"warm_welcome","address":"Herlingshaw Centre, , Normanby Road, Middlesbrough, England TS6 9AE","description":"Open from 09/11/2022.","hours":{"_text":"Wednesday: 16:00 - 18:00","opening":"We 16:00-18:00"},"title":"MFC Foundation"},"type":"Feature"},
		{"geometry":{"coordinates":[-1.22665,54.55895],"type":"Point"},"properties":{"_source":"warm_welcome","address":"Grove Hill Community Hub , Middlesbrough Council , Middlesbrough Ts4 2RP","hours":{"_text":"Monday: 9:00 - 16:00, Tuesday: 9:00 - 16:00, Wednesday: 9:00 - 16:00, Thursday: 9:00 - 16:00, Friday: 9:00 - 16:00","opening":"Mo 09:00-16:00; Tu 09:00-16:00; We 09:00-16:00; Th 09:00-16:00; Fr 09:00-16:00"},"title":"Middlesbrough Council"},"type":"Feature"},
		{"geometry":{"coordinates":[-1.18355,54.56475],"type":"Point"},"properties":{"_source":"warm_welcome","address":"Thorntree Community Hub, Middlesbrough, North Yorkshire TS39JW","hours":{"_text":"Monday: 09:00 - 17:00, Tuesday: 09:00 - 17:00, Wednesday: 09:00 - 17:00, Thursday: 09:00 - 17:00, Friday: 09:00 - 17:00","opening":"Mo 09:00-17:00; Tu 09:00-17:00; We 09:00-17:00; Th 09:00-17:00; Fr 09:00-17:00"},"title":"Middlesbrough Council Thorntree Hub"},"type":"Feature"},
		{"geometry":{"coordinates":[-1.24235,54.56247],"type":"Point"},"properties":{"_source":"warm_welcome","address":"1a St Barnabas Road, Middlesbrough, North Yorkshire TS5 6JR","description":"Open from Thursday 12th January. Our Community Grocery Cafe is open providing a warm friendly space with hot drinks (20p), scones/biscuits (20p) with soup/roll (50p) served from 11.30","hours":{"_text":"Thursday: 10:00 - 12:30","opening":"Th 10:00-12:30"},"title":"St Barnabas Church Middlesbrough"},"type":"Feature"},
		{"geometry":{"coordinates":[-1.26226,54.55598],"type":"Point"},"properties":{"_source":"warm_welcome","address":"2-10 Whinney Banks Road , Middlesbrough , Teesside TS5 4LB","hours":{"_text":"Wednesday: 10:00 - 12:00 / -","opening":"We 10:00-12:00"},"title":"St Martins Church"},"type":"Feature"},
		{"geometry":{"coordinates":[-1.33078,54.57031],"type":"Point"},"properties":{"_source":"warm_welcome","address":"St Paul's Church, Bishopton Road, Stockton on Tees TS18 4PB","description":"Tuesday is only for children and parents/guardians Tuesdays is Toddler morning - come and bring your little ones! Wednesday is open to all for coffee and a warm place. Thursday is Board Games Day - Bring a game or play one of ours!","hours":{"_text":"Tuesday: 10:00 - 11:30, Wednesday: 10:00 - 12:00, Saturday: 10:00 - 12:00 / - Monthly, Sunday: 10:30 - 12:30","opening":"Tu 10:00-11:30; We 10:00-12:00; Sa 10:00-12:00; Su 10:30-12:30"},"title":"St Paul's Church Stockton-on-Tees"},"type":"Feature"},
		{"geometry":{"coordinates":[-1.31290,54.56178],"type":"Point"},"properties":{"_source":"warm_welcome","address":"High Street, Stockton On Tees, Stockton on Tees TS18 1SP","description":"You are really welcome here","hours":{"_text":"Wednesday: 12:00 - 16:00, Sunday: 10:15 - 12:30","opening":"We 12:00-16:00; Su 10:15-12:30"},"title":"Stockton Parish Church"},"type":"Feature"},
		{"geometry":{"coordinates":[-1.23669,54.57064],"type":"Point"},"properties":{"_source":"warm_welcome","address":"Southfield Road, Middlesbrough, North Yorkshire TS1 3BX","description":"We only cater for Teesside University Students and Staff","hours":{"_text":"Monday: 00:00 - 23:59, Tuesday: 00:00 - 23:59, Wednesday: 00:00 - 23:59, Thursday: 00:00 - 23:59, Friday: 00:00 - 23:59, Saturday: 00:00 - 23:59, Sunday: 00:00 - 23:59","opening":"Mo 00:00-23:59; Tu 00:00-23:59; We 00:00-23:59; Th 00:00-23:59; Fr 00:00-23:59; Sa 00:00-23:59; Su 00:00-23:59"},"title":"Teesside University"},"type":"Feature"},
		{"geometry":{"coordinates":[-1.31787,54.56490],"type":"Point"},"properties":{"_source":"warm_welcome","address":"The Salvation Army, Palmerston Street, Stockton on Tees TS18 1NU","description":"Open from 24-10-2022.","hours":{"_text":"Monday: 9:00 - 12:00, Tuesday: 9:00 - 12:00","opening":"Mo 09:00-12:00; Tu 09:00-12:00"},"title":"The Salvation Army"},"type":"Feature"},
		{"geometry":{"coordinates":[-1.24271,54.56976],"type":"Point"},"properties":{"_source":"warm_welcome","address":"49 Clifton Street, Middlesbrough, North East TS1 4BX","hours":{"_text":"Wednesday: 11:00 - 15:00, Friday: 11:00 - 15:00","opening":"We 11:00-15:00; Fr 11:00-15:00"},"title":"Ubuntu Multicultural Centre CIC"},"type":"Feature"},
		{"geometry":{"coordinates":[-1.22121,54.56936],"type":"Point"},"properties":{"_source":"warm_spaces","address":"Breckon Hill Community Centre, Breckon Hill Road, Middlesbrough, England, TS4 2DR, United Kingdom","description":"Free Food/Drink, People to chat to, Wheelchair Accessible, Toilets, Accessible Toilet, Child Friendly","hours":{"_text":"Tuesday 6.30pm-8.30pm","opening":"Tu 18:30-20:30"},"title":"FoodCycle Middlesbrough Breckon Hill","url":"https://www.foodcycle.org.uk"},"type":"Feature"},
		{"geometry":{"coordinates":[-1.32263,54.55844],"type":"Point"},"properties":{"_source":"warm_spaces","address":"5 Woodland Street, Stockton-on-Tees, England, TS18 3HZ, United Kingdom","description":"Free Food/Drink, Free Wi-Fi, Device Charging, People to chat to, Wheelchair Accessible, Toilets, Accessible Toilet, Parking, Child Friendly","hours":{"_text":"Tuesday 10am-1pm","opening":"Tu 10:00-13:00"},"title":"Yarm Road Methodist Church (Jubilee Church Teesside)","url":"https://www.jubileechurchteesside.com"},"type":"Feature"},
		{"geometry":{"coordinates":[-1.25930,54.54837],"type":"Point"},"properties":{"_source":"middlesbrough_council","description":"Acklam Road, Middlesbrough, TS5 7AB *","title":"Acklam Community Hub and Library"},"type":"Feature"},
		{"geometry":{"coordinates":[-1.22146,54.56938],"type":"Point"},"properties":{"_source":"middlesbrough_council","description":"Breckon Hill Road, Middlesbrough, TS4 2DS * Monday to Thursday, 8am to 4pm, and Friday, 8am to 1pm","title":"Breckon Hill Community Centre (families and elderly people)"},"type":"Feature"},
		{"geometry":{"coordinates":[-1.22750,54.56893],"type":"Point"},"properties":{"_source":"middlesbrough_council","description":"169 Victoria Road, Middlesbrough, TS1 3HR * Monday, Wednesday, and Friday, 11am to 3pm","title":"Community Information and BME Network CIC"},"type":"Feature"},
		{"geometry":{"coordinates":[-1.18111,54.55837],"type":"Point"},"properties":{"_source":"middlesbrough_council","description":"The Greenway, Thorntree, Middlesbrough, TS3 9PA * Monday to Friday, 2pm","title":"Community Ventures"},"type":"Feature"},
		{"geometry":{"coordinates":[-1.21637,54.54304],"type":"Point"},"properties":{"_source":"middlesbrough_council","description":"Broughton Avenue, Middlesbrough, TS4 3PZ * Tuesday, Thursday, and Friday, 9am - 5pm","title":"Easterside Community Hub and Library"},"type":"Feature"},
		{"geometry":{"coordinates":[-1.19663,54.56218],"type":"Point"},"properties":{"_source":"middlesbrough_council","description":"Homerton Road, Pallister Park, TS3 8QD * Tuesday, 10am to 1pm","title":"East Middlesbrough Events Centre"},"type":"Feature"},
		{"geometry":{"coordinates":[-1.22657,54.55900],"type":"Point"},"properties":{"_source":"middlesbrough_council","description":"Bishopton Road, Middlesbrough, TS4 2RP * Monday, Wednesday, and Friday, 9am - 5pm","title":"Grove Hill Community Hub and Library"},"type":"Feature"},
		{"geometry":{"coordinates":[-1.24082,54.52507],"type":"Point"},"properties":{"_source":"middlesbrough_council","description":"*","title":"Hemlington Community Hub and Library"},"type":"Feature"},
		{"geometry":{"coordinates":[-1.19781,54.53137],"type":"Point"},"properties":{"_source":"middlesbrough_council","description":"The Willows, Marton-in-Cleveland, Middlesbrough, TS7 8BL *","title":"Marton Community Hub and Library"},"type":"Feature"},
		{"geometry":{"coordinates":[-1.25297,54.55388],"type":"Point"},"properties":{"_source":"middlesbrough_council","description":"Cambridge Road, Linthorpe, Middlesbrough, TS5 5NN *","title":"Middlesbrough Baptist Church"},"type":"Feature"},
		{"geometry":{"coordinates":[-1.24684,54.57106],"type":"Point"},"properties":{"_source":"middlesbrough_council","description":"St. Paul's Road, Middlesbrough, TS1 5NQ *","title":"Newport Community Hub"},"type":"Feature"},
		{"geometry":{"coordinates":[-1.21137,54.57111],"type":"Point"},"properties":{"_source":"middlesbrough_council","description":"Derwent Street, North Ormesby, Middlesbrough, TS3 6JB * Tuesday, Thursday, Friday, 9am - 5pm","title":"North Ormesby Community Hub and Library"},"type":"Feature"},
		{"geometry":{"coordinates":[-1.20359,54.56383],"type":"Point"},"properties":{"_source":"middlesbrough_council","description":"Ormesby Road, Middlesbrough, TS3 7AR * Tuesday and Wednesday, 12pm to 2pm","title":"Pallister Park Centre"},"type":"Feature"},
		{"geometry":{"coordinates":[-1.23607,54.56999],"type":"Point"},"properties":{"_source":"middlesbrough_council","description":"Southfield Road, Middlesbrough, TS1 3BX * 7 days a week, 24 hours (students and staff only)","title":"Teesside University Library"},"type":"Feature"},
		{"geometry":{"coordinates":[-1.23493,54.57016],"type":"Point"},"properties":{"_source":"middlesbrough_council","description":"Campus Heart, Southfield Road, TS1 3BA * Monday to Sunday, usual opening hours","title":"Teesside University Students' Union"},"type":"Feature"},
		{"geometry":{"coordinates":[-1.18194,54.56302],"type":"Point"},"properties":{"_source":"middlesbrough_council","description":"Birkhall Road, Middlesbrough, TS3 9JW * Monday to Friday, 9am - 5pm","title":"Thorntree Community Hub and Library"},"type":"Feature"},
		{"geometry":{"coordinates":[-1.24292,54.56979],"type":"Point"},"properties":{"_source":"middlesbrough_council","description":"49 Clifton Street, Middlesbrough, TS1 4BX * To be confirmed","title":"Ubuntu Multicultural Centre CIC"},"type":"Feature"},
		{"geometry":{"coordinates":[-1.14663,54.55790],"type":"Point"},"properties":{"_source":"redcar_and_cleveland_council","address":"Birkdale Drive Community Centre, Birkdale Drive, Eston, TS6 9EB, United Kingdom","hours":{"_text":"Mondays 1pm – 4pm \n Wednesdays 2pm – 5pm \n Thursdays 9am – 12noon","opening":"Mo 13:00-16:00; We 14:00-17:00; Th 09:00-12:00"},"title":"Birkdale Drive Community Centre","url":"https://www.redcar-cleveland.gov.uk/cost-of-living-support/warm-spaces/birkdale-drive-community-centre"},"type":"Feature"},
		{"geometry":{"coordinates":[-1.14588,54.55987],"type":"Point"},"properties":{"_source":"redcar_and_cleveland_council","address":"Christ Church, High Street, Eston, TS6 9EH, United Kingdom","hours":{"_text":"Tuesday - 10am until 12pm","opening":"Tu 10:00-12:00"},"title":"Christ Church","url":"https://www.redcar-cleveland.gov.uk/cost-of-living/warm-spaces/christ-church"},"type":"Feature"},
		{"geometry":{"coordinates":[-1.14215,54.56932],"type":"Point"},"properties":{"_source":"redcar_and_cleveland_council","address":"172 Birchington Avenue, Grangetown, TS6 7LP, United Kingdom","hours":{"_text":"Monday - 9am until 5pm \n\t Wednesday - 10am until 5pm \n\t Thursday - 10am until 4pm \n\t Friday - 10am until 5pm \n\t Saturday - 9:30am until 12:30pm","opening":"Mo 09:00-17:00; We 10:00-17:00; Th 10:00-16:00; Fr 10:00-17:00; Sa 09:30-12:30"},"title":"Grangetown Library","url":"https://www.redcar-cleveland.gov.uk/cost-of-living/warm-spaces/grangetown-library"},"type":"Feature"},
		{"geometry":{"coordinates":[-1.17339,54.55002],"type":"Point"},"properties":{"_source":"redcar_and_cleveland_council","address":"Greater Eston Family Hub , Daisy Lane, Ormesby, TS7 9JF, United Kingdom","hours":{"_text":"Tuesday - 1pm until 4pm \n Thursday - 1pm until 4pm \n Friday - 12pm until 4pm - Friday sessions will no longer take place from 31 March 2023 \n \n Please note that the warm space will not be available on the following dates: \n \n 13 March - 1 April 2023 \n 27 April 2023","opening":"Tu 13:00-16:00; Th 13:00-16:00; Fr 12:00-16:00"},"title":"Greater Eston Family Hub","url":"https://www.redcar-cleveland.gov.uk/cost-of-living-support/warm-spaces/greater-eston-family-hub"},"type":"Feature"},
		{"geometry":{"coordinates":[-1.05657,54.53518],"type":"Point"},"properties":{"_source":"redcar_and_cleveland_council","address":"90 Westgate, Guisborough, TS14 6AP, United Kingdom","hours":{"_text":"Monday to Thursday - 9am until 6pm \n\t Friday - 9am until 5pm \n\t Saturday - 9:30am until 12:30pm","opening":"Mo-Th 00:00-09:00; Fr 09:00-17:00; Sa 09:30-12:30"},"title":"Guisborough Library","url":"https://www.redcar-cleveland.gov.uk/cost-of-living/warm-spaces/guisborough-library"},"type":"Feature"},
		{"geometry":{"coordinates":[-1.05507,54.53501],"type":"Point"},"properties":{"_source":"redcar_and_cleveland_council","address":"Westgate, Guisborough, TS14 6AY, United Kingdom","hours":{"_text":"Thursday - 9:30am until 12pm","opening":"Th 09:30-12:00"},"title":"Guisborough United Reform Church","url":"https://www.redcar-cleveland.gov.uk/cost-of-living-support/warm-spaces/guisborough-united-reform-church"},"type":"Feature"},
		{"geometry":{"coordinates":[-1.05856,54.53409],"type":"Point"},"properties":{"_source":"redcar_and_cleveland_council","address":"Salvation Army, 124 Westgate, Guisborough, TS14 6AW, United Kingdom","hours":{"_text":"Monday - 9:30am until 12pm","opening":"Mo 09:30-12:00"},"title":"Salvation Army Citadel","url":"https://www.redcar-cleveland.gov.uk/cost-of-living-support/warm-spaces/salvation-army-citadel"},"type":"Feature"},
		{"geometry":{"coordinates":[-1.16775,54.57114],"type":"Point"},"properties":{"_source":"redcar_and_cleveland_council","address":"Low Grange Health Village, Normanby Road, Middlesbrough, TS6 6TD, United Kingdom","hours":{"_text":"Monday, Tuesday, Thursday, Friday - 9am until 6pm \n\t Wednesday - 9am until 5pm \n\t Saturday - 9:30am until 12:30pm","opening":"Mo 09:00-18:00; Tu 09:00-18:00; Th 09:00-18:00; Fr 09:00-18:00; We 09:00-17:00; Sa 09:30-12:30"},"title":"South Bank Library","url":"https://www.redcar-cleveland.gov.uk/cost-of-living/warm-spaces/south-bank-library"},"type":"Feature"},
		{"geometry":{"coordinates":[-1.15880,54.56300],"type":"Point"},"properties":{"_source":"redcar_and_cleveland_council","address":"St George&#039;s Church, 25 Spencer Road, Teesville, TS6 9BD, United Kingdom","hours":{"_text":"Thursday - 9am until 11am \n\t Friday - 9:am until 1pm","opening":"Th 09:00-11:00; Fr 09:00-13:00"},"title":"St George's Church","url":"https://www.redcar-cleveland.gov.uk/cost-of-living/warm-spaces/st-georges-church"},"type":"Feature"},
		{"geometry":{"coordinates":[-1.08088,54.52898],"type":"Point"},"properties":{"_source":"redcar_and_cleveland_council","address":"The Avenue, Guisborough, TS14 8EE, United Kingdom","hours":{"_text":"Wednesday - 9am until 4pm","opening":"We 09:00-16:00"},"title":"St Paulinus Church","url":"https://www.redcar-cleveland.gov.uk/cost-of-living-support/warm-spaces/st-paulinus-church"},"type":"Feature"},
		{"geometry":{"coordinates":[-1.15479,54.55629],"type":"Point"},"properties":{"_source":"redcar_and_cleveland_council","address":"Cleveland Street, Middlesbrough, TS6 0LX, United Kingdom","hours":{"_text":"Monday to Thursday - 3pm until midnight \n\t Friday, Saturday and Sunday - 12 noon until midnight","opening":"Mo-Th 12:00-15:00; Fr 12:00-00:00; Sa 12:00-00:00; Su 12:00-00:00"},"title":"The Cleveland","url":"https://www.redcar-cleveland.gov.uk/cost-of-living/warm-spaces/the-cleveland"},"type":"Feature"},
		{"geometry":{"coordinates":[-1.31994,54.51858],"type":"Point"},"properties":{"_source":"stockton-on-tees_council","address":"Blair Avenue Ingleby Barwick TS17 5BL","contact":"01642 654650","description":"Facilities: Hot and cold refreshments, reading materials, accessible entrance, accessible toilets and free car parking.","loc_pcd":true,"title":"All Saints CE Academy","url":"https://www.stockton.gov.uk/article/9389/All-Saints-CE-Academy"},"type":"Feature"},
		{"geometry":{"coordinates":[-1.31645,54.56427],"type":"Point"},"properties":{"_source":"stockton-on-tees_council","address":"60 Dovecot Street Stockton TS18 1LL","contact":"01642 525199","description":"Facilities: Accessible entrance, free Wi-Fi, charging facilities, accessible toilets, baby changing facilities, able to bring own food and drinks, hot and cold refreshments available for purchase and activities.","loc_pcd":true,"title":"ARC, Stockton Arts Centre","url":"https://www.stockton.gov.uk/article/9391/ARC-Stockton-Arts-Centre"},"type":"Feature"},
		{"geometry":{"coordinates":[-1.35778,54.49886],"type":"Point"},"properties":{"_source":"stockton-on-tees_council","address":"Challoner Road Yarm TS15 9EL","contact":"07543 472487","description":"Facilities: Accessible entrance, accessible toilets, able to bring own food and drinks, baby changing facilities, charging facilities for phones and other devices, and hot and cold refreshments.","loc_pcd":true,"title":"Challoner House Community Centre","url":"https://www.stockton.gov.uk/article/9640/Challoner-House-Community-Centre"},"type":"Feature"},
		{"geometry":{"coordinates":[-1.35891,54.52004],"type":"Point"},"properties":{"_source":"stockton-on-tees_council","address":"Durham Lane Eaglescliffe TS16 0EH","contact":"07395 138288","description":"Facilities: Accessible entrance, accessible toilets, baby changing facilities, book borrowing and swap, free car park, free devices to use (computers, tablets, phones), free Wi-Fi, hot and cold refreshments and reading materials.","loc_pcd":true,"title":"Egglescliffe Community Centre","url":"https://www.stockton.gov.uk/article/9696/Egglescliffe-Community-Centre"},"type":"Feature"},
		{"geometry":{"coordinates":[-1.28952,54.53033],"type":"Point"},"properties":{"_source":"stockton-on-tees_council","address":"91 Eltham Crescent Thornaby TS17 9RG","contact":"01642 688303","description":"Facilities: Accessible entrance and hot and cold refreshments.","loc_pcd":true,"title":"Eltham Community Centre","url":"https://www.stockton.gov.uk/article/9697/Eltham-Community-Centre"},"type":"Feature"},
		{"geometry":{"coordinates":[-1.35094,54.56272],"type":"Point"},"properties":{"_source":"stockton-on-tees_council","address":"Fairfield Road TS19 7AJ","contact":"01642 528020","description":"Facilities: Accessible entrance, free Wi-Fi, free devices to use, reading materials, book borrowing, and free car parking.","loc_pcd":true,"title":"Fairfield Library","url":"https://www.stockton.gov.uk/article/9698/Fairfield-Library"},"type":"Feature"},
		{"geometry":{"coordinates":[-1.34441,54.55660],"type":"Point"},"properties":{"_source":"stockton-on-tees_council","address":"Greens Lane Hartburn TS18 5HP","contact":"01642 763554","description":"Facilities: Able to bring own food and drinks, accessible entrance, accessible toilets, baby changing facilities, free carpark, hot and cold refreshments.","loc_pcd":true,"title":"Green Lane Methodist Church","url":"https://www.stockton.gov.uk/article/9700/Green-Lane-Methodist-Church"},"type":"Feature"},
		{"geometry":{"coordinates":[-1.31994,54.51858],"type":"Point"},"properties":{"_source":"stockton-on-tees_council","address":"Blair Avenue Ingleby Barwick TS17 5BL","contact":"01642 528528","description":"Facilities: Accessible entrance, free Wi-Fi, free devices to use, hot and cold refreshments available to purchase, reading materials, book borrowing, accessible toilets, baby changing facilities, free car parking, and activities.","loc_pcd":true,"title":"Ingleby Barwick Library","url":"https://www.stockton.gov.uk/article/9702/Ingleby-Barwick-Library"},"type":"Feature"},
		{"geometry":{"coordinates":[-1.31013,54.56117],"type":"Point"},"properties":{"_source":"stockton-on-tees_council","address":"Unit 4 Castlegate Quay TS18 3BB","contact":"01642 378245","description":"Facilities: Able to bring own food and drinks, accessible entrance, accessible toilets, baby changing facilities, book borrowing and swap, charging facilities for phones and other devices, free car park, free devices to use (computers, tablets, phones), free Wi-Fi, hot and cold refreshments, outdoor space and activities, and reading materials.","loc_pcd":true,"title":"Lakota Hub","url":"https://www.stockton.gov.uk/article/9704/Lakota-Hub"},"type":"Feature"},
		{"geometry":{"coordinates":[-1.32207,54.57133],"type":"Point"},"properties":{"_source":"stockton-on-tees_council","address":"Durham Road TS19 0DE","contact":"01642 868331","description":"Facilities: Accessible entrance, able to bring own food and drinks, free car parking, and hot and cold refreshments.","loc_pcd":true,"title":"Newtown Community Resource Centre","url":"https://www.stockton.gov.uk/article/9642/Newtown-Community-Resource-Centre"},"type":"Feature"},
		{"geometry":{"coordinates":[-1.32345,54.55904],"type":"Point"},"properties":{"_source":"stockton-on-tees_council","address":"34 Yarm Road TS18 3NG","contact":"01642 647086","description":"Facilities: Accessible entrance, accessible toilets, free car park, free Wi-Fi, hot and cold refreshments, and reading materials.","loc_pcd":true,"title":"Parkfield Lighthouse Limited","url":"https://www.stockton.gov.uk/article/9646/Parkfield-Lighthouse-Limited"},"type":"Feature"},
		{"geometry":{"coordinates":[-1.30219,54.57129],"type":"Point"},"properties":{"_source":"stockton-on-tees_council","address":"St Ann's Terrace Portrack Stockton TS18 2HT","contact":"07736 938417","description":"Facilities: Accessible entrance, accessible toilets, baby changing facilities, charging facilities for phones and other devices, free car park, free Wi-Fi, hot and cold refreshments, reading materials and able to bring own food and drink.","loc_pcd":true,"title":"Portrack Baptist Church","url":"https://www.stockton.gov.uk/article/9647/Portrack-Baptist-Church"},"type":"Feature"},
		{"geometry":{"coordinates":[-1.31629,54.55770],"type":"Point"},"properties":{"_source":"stockton-on-tees_council","address":"Bowesfield Lane Stockton TS18 3SY","contact":"07868 492852","description":"Facilities: Able to bring own food and drinks, accessible entrance, accessible toilets, charging facilities for phones and other devices, free Wi-Fi, and hot and cold refreshments.","loc_pcd":true,"title":"Rivers of Life Christian Fellowship","url":"https://www.stockton.gov.uk/article/9772/Rivers-of-Life-Christian-Fellowship"},"type":"Feature"},
		{"geometry":{"coordinates":[-1.29994,54.54950],"type":"Point"},"properties":{"_source":"stockton-on-tees_council","address":"Thorntree Road Thornaby TS17 8AW","contact":"01642 688303","description":"Facilities: Accessible entrance, free Wi-Fi, charging facilities, hot and cold refreshments, able to bring own food and drinks, and free car parking.","loc_pcd":true,"title":"Robert Atkinson Centre","url":"https://www.stockton.gov.uk/article/9650/Robert-Atkinson-Centre"},"type":"Feature"},
		{"geometry":{"coordinates":[-1.31703,54.56184],"type":"Point"},"properties":{"_source":"stockton-on-tees_council","address":"78 Laurel House Skinner Street Stockton TS18 1EG","contact":"07538 894834","description":"Facilities: Accessible entrance, accessible toilets, baby changing facilities, charging facilities for phones and other devices, children's play equipment, free Wi-Fi, hot and cold refreshments and able to bring own food and drinks.","loc_pcd":true,"title":"Roseberry Community Consortium Community Activity Hub","url":"https://www.stockton.gov.uk/article/9651/Roseberry-Community-Consortium-Community-Activity-Hub"},"type":"Feature"},
		{"geometry":{"coordinates":[-1.31236,54.56699],"type":"Point"},"properties":{"_source":"stockton-on-tees_council","address":"Church Road Stockton TS18 1TY","contact":"01642 660610","description":"Facilities: Accessible entrance, free Wi-Fi, accessible toilets, and baby changing facilities.","loc_pcd":true,"title":"Splash","url":"https://www.stockton.gov.uk/article/9654/Splash"},"type":"Feature"},
		{"geometry":{"coordinates":[-1.32859,54.57042],"type":"Point"},"properties":{"_source":"stockton-on-tees_council","address":"Bishopton Road Stockton TS18 4PB","contact":"07876 343793","description":"Facilities: Able to bring own food and drinks, accessible entrance, accessible toilets, baby changing facilities, charging facilities for phones and other devices, free car parking, free Wi-Fi, hot and cold refreshments, and reading materials","loc_pcd":true,"title":"St Paul's Church","url":"https://www.stockton.gov.uk/article/9661/St-Paul-s-Church"},"type":"Feature"},
		{"geometry":{"coordinates":[-1.32384,54.55656],"type":"Point"},"properties":{"_source":"stockton-on-tees_council","address":"Yarm Road Stockton TS18 3PJ","contact":"07958 345177","description":"Facilities: Free Wi-Fi, hot and cold refreshments, accessible toilets, baby changing facilities, and free car parking.","loc_pcd":true,"title":"St Peter's Church","url":"https://www.stockton.gov.uk/article/9662/St-Peter-s-Church"},"type":"Feature"},
		{"geometry":{"coordinates":[-1.30964,54.56624],"type":"Point"},"properties":{"_source":"stockton-on-tees_council","address":"The Square Stockton TS18 1TE","contact":"01642 602223","description":"Facilities: Accessible entrance, free Wi-Fi, hot and cold refreshments available to purchase, accessible toilets, and baby changing facilities. Capacity for 20 people and aimed at those over 60. For over 60s, a three-course hot meal with tea or coffee is available for £3. This is capped at 20 people, so you must call the week before you wish to attend.","loc_pcd":true,"title":"Stockton Baptist Church","url":"https://www.stockton.gov.uk/article/9667/Stockton-Baptist-Church"},"type":"Feature"},
		{"geometry":{"coordinates":[-1.31120,54.56659],"type":"Point"},"properties":{"_source":"stockton-on-tees_council","address":"Church Road Stockton TS18 1TU","contact":"01642 526517","description":"Facilities: Accessible entrance, free Wi-Fi, free devices to use, reading materials, book borrowing, accessible toilets, baby changing facilities, advice and support, able to bring own food and drinks, and a Customer Service Centre.","loc_pcd":true,"title":"Stockton Central Library","url":"https://www.stockton.gov.uk/article/9668/Stockton-Central-Library"},"type":"Feature"},
		{"geometry":{"coordinates":[-1.32384,54.55656],"type":"Point"},"properties":{"_source":"stockton-on-tees_council","address":"Yarm Road Stockton TS18 3PJ","contact":"01642 528525","description":"Facilities: Accessible entrance, free Wi-Fi, charging facilities, hot and cold refreshments available to purchase, reading materials, book borrowing, accessible toilets, baby changing facilities, activities, children's play equipment, and food bank vouchers.","loc_pcd":true,"title":"Stockton Family Hub","url":"https://www.stockton.gov.uk/article/9669/Stockton-Family-Hub"},"type":"Feature"},
		{"geometry":{"coordinates":[-1.31226,54.56590],"type":"Point"},"properties":{"_source":"stockton-on-tees_council","address":"High Street Stockton TS18 1SP","contact":"01642 611734","description":"Facilities: Accessible entrance, free Wi-Fi, hot and cold refreshments, reading materials, accessible toilets, baby changing facilities, activities, children's play equipment, advice and support, and able to bring own food and drinks.","loc_pcd":true,"title":"Stockton Parish Church","url":"https://www.stockton.gov.uk/article/9671/Stockton-Parish-Church"},"type":"Feature"},
		{"geometry":{"coordinates":[-1.31809,54.56491],"type":"Point"},"properties":{"_source":"stockton-on-tees_council","address":"Palmerston Street Stockton TS18 1NU","contact":"01642 617629","description":"Facilities: Accessible entrance, free Wi-Fi, charging facilities, hot and cold refreshments, reading materials, book borrowing, accessible toilets, baby changing facilities, activities, children's play equipment, advice and support, able to bring own food and drinks, and free car parking.","loc_pcd":true,"title":"Stockton Salvation Army","url":"https://www.stockton.gov.uk/article/9672/Stockton-Salvation-Army"},"type":"Feature"},
		{"geometry":{"coordinates":[-1.35892,54.53207],"type":"Point"},"properties":{"_source":"stockton-on-tees_council","address":"The Oakwood Centre Cleasby Way Eaglescliffe TS16 0RD","contact":"01642 781919","description":"Facilities: Accessible entrance, accessible toilets, baby changing facilities, charging facilities for phones and other devices, children's play equipment, free carpark, free Wifi, hot and cold refreshments, outdoor space and activities.","loc_pcd":true,"title":"Tees Valley Community Church","url":"https://www.stockton.gov.uk/article/9674/Tees-Valley-Community-Church"},"type":"Feature"},
		{"geometry":{"coordinates":[-1.29405,54.55437],"type":"Point"},"properties":{"_source":"stockton-on-tees_council","address":"Acklam Road Thornaby TS17 7HB","contact":"01642 780565","description":"Facilities: Accessible toilets, baby changing facilities, children's play equipment, free Wi-Fi, hot and cold refreshments, and able to bring own food and drinks.","loc_pcd":true,"title":"Teesside Vineyard Church","url":"https://www.stockton.gov.uk/article/9673/Teesside-Vineyard-Church"},"type":"Feature"},
		{"geometry":{"coordinates":[-1.30067,54.55327],"type":"Point"},"properties":{"_source":"stockton-on-tees_council","address":"34 Havelock Street Thornaby TS17 6HN","contact":"07980 808920","description":"Facilities: Accessible entrance, accessible toilets, charging facilities for phones and other devices, food bank facility, free Wifi and hot and cold refreshments.","loc_pcd":true,"title":"The Community Hub","url":"https://www.stockton.gov.uk/article/9675/The-Community-Hub"},"type":"Feature"},
		{"geometry":{"coordinates":[-1.34174,54.56311],"type":"Point"},"properties":{"_source":"stockton-on-tees_council","address":"195 Oxbridge Lane Grangefield TS18 4HY","contact":"01642 688303","description":"Facilities: Free Wi-Fi, charging facilities, hot and cold refreshments, accessible toilets, and free car parking.","loc_pcd":true,"title":"The Grangefield Centre","url":"https://www.stockton.gov.uk/article/9678/The-Grangefield-Centre"},"type":"Feature"},
		{"geometry":{"coordinates":[-1.32284,54.56014],"type":"Point"},"properties":{"_source":"stockton-on-tees_council","address":"Starfish Building 6/8 Yarm Road Stockton TS18 3NA","contact":"07723 605525","description":"Facilities: Able to bring own food and drinks, accessible entrance, accessible toilets, free car park, free devices to use including computers, tablets and phones, free Wi-Fi, and hot and cold refreshments.","loc_pcd":true,"title":"The Place to Be","url":"https://www.stockton.gov.uk/article/9885/The-Place-to-Be"},"type":"Feature"},
		{"geometry":{"coordinates":[-1.32610,54.52340],"type":"Point"},"properties":{"_source":"stockton-on-tees_council","address":"The Rings Ingleby Barwick TS17 5LL","contact":"01642 308665","description":"Facilities: Able to bring own food and drinks, accessible entrance, accessible toilets, baby changing facilities, charging facilities for phones and other devices, free car park, free Wi-Fi, TV, hot and cold refreshments, and access to a kitchen with full facilities","loc_pcd":true,"title":"The Rings Community Hub","url":"https://www.stockton.gov.uk/article/9682/The-Rings-Community-Hub"},"type":"Feature"},
		{"geometry":{"coordinates":[-1.30369,54.57152],"type":"Point"},"properties":{"_source":"stockton-on-tees_council","address":"Northport Road Portrack Stockton TS18 2HX","contact":"01642 613345","description":"Facilities: Accessible entrance, free Wi-Fi, charging facilities, hot and cold refreshments, book borrowing, accessible toilets, baby changing facilities, able to bring own food and drinks, and advice and support.","loc_pcd":true,"title":"The Willows Community Centre","url":"https://www.stockton.gov.uk/article/9684/The-Willows-Community-Centre"},"type":"Feature"},
		{"geometry":{"coordinates":[-1.29526,54.55523],"type":"Point"},"properties":{"_source":"stockton-on-tees_council","address":"Wrightson House Pavilion Shopping Centre Thornaby TS17 7EW","contact":"01642 528117","description":"Facilities: Accessible entrance, free Wi-Fi, free devices to use, reading materials, book borrowing, accessible toilets, baby changing facilities, advice and support, and a Customer Service Centre.","loc_pcd":true,"title":"Thornaby Central Library","url":"https://www.stockton.gov.uk/article/9686/Thornaby-Central-Library"},"type":"Feature"},
		{"geometry":{"coordinates":[-1.29063,54.53449],"type":"Point"},"properties":{"_source":"stockton-on-tees_council","address":"Tedder Avenue Thornaby TS17 9PJ","contact":"01642 528525","description":"Facilities: Accessible entrance, free Wi-Fi, charging facilities, hot and cold refreshments available to purchase, reading materials, book borrowing, accessible toilets, baby changing facilities, activities, children's play equipment, outdoor space, advice and support, able to bring own food and drinks, and food bank vouchers.","loc_pcd":true,"title":"Thornaby Family Hub","url":"https://www.stockton.gov.uk/article/9687/Thornaby-Family-Hub"},"type":"Feature"},
		{"geometry":{"coordinates":[-1.30149,54.55503],"type":"Point"},"properties":{"_source":"stockton-on-tees_council","address":"Within Riverbank Children's Centre Gilmour Street Thornaby TS17 6PF","contact":"01642 528525","description":"Facilities: Accessible entrance, free devices to use, reading materials, book borrowing, and free car parking.","loc_pcd":true,"title":"Thornaby Library, Gilmour Street","url":"https://www.stockton.gov.uk/article/9688/Thornaby-Library-Gilmour-Street"},"type":"Feature"},
		{"geometry":{"coordinates":[-1.33496,54.55457],"type":"Point"},"properties":{"_source":"stockton-on-tees_council","address":"Darlington Road Stockton-on-Tees TS18 5BE","contact":"01642 965518","description":"Facilities: accessible entrance, accessible toilets, baby changing facilities, charging facilities for phones and other devices, free carpark, free Wifi, hot and cold refreshments","loc_pcd":true,"title":"West End Bowling Club","url":"https://www.stockton.gov.uk/article/9811/West-End-Bowling-Club"},"type":"Feature"},
		{"geometry":{"coordinates":[-1.35449,54.50850],"type":"Point"},"properties":{"_source":"stockton-on-tees_council","address":"41 High Street Yarm TS15 9BH","contact":"01642 528153","description":"Facilities: Accessible entrance, free Wi-Fi, free devices to use, reading materials, book borrowing, accessible toilets, baby changing facilities, outdoor space, and activities.","loc_pcd":true,"title":"Yarm Library","url":"https://www.stockton.gov.uk/article/9690/Yarm-Library"},"type":"Feature"},
		{"geometry":{"coordinates":[-1.35324,54.50954],"type":"Point"},"properties":{"_source":"stockton-on-tees_council","address":"Chapel Yard Yarm TS15 9AJ","contact":"07710 068302","description":"Facilities: Accessible entrance, accessible toilets, baby changing facilities, charging facilities for phones and other devices, free car park, hot and cold refreshments and able to bring own food and drinks.","loc_pcd":true,"title":"Yarm Methodist Church Hall","url":"https://www.stockton.gov.uk/article/9691/Yarm-Methodist-Church-Hall"},"type":"Feature"},
		{"geometry":{"coordinates":[-1.32213,54.55922],"type":"Point"},"properties":{"_source":"stockton-on-tees_council","address":"5a Woodland Street Stockton TS18 3NW","contact":"01642 807089","description":"Open from Tuesday 13 December 2022. Facilities: Accessible entrance, accessible toilets, baby changing facilities, hot and cold refreshments and reading material.","loc_pcd":true,"title":"Yarm Road Methodist Church","url":"https://www.stockton.gov.uk/article/9718/Yarm-Road-Methodist-Church"},"type":"Feature"}
	]
}
