{
	"type": "FeatureCollection",
	"features": [
		{"geometry":{"coordinates":[-1.35891,54.52005],"type":"Point"},"properties":{"_source":"warm_welcome","address":"Orchard Parade, Eaglescliffe Stockton, Eaglescliffe Stockton TS16 0EH","description":"Free book to read and take away. Free jigsaws to do onsite and to takeaway. Friendly volunteers.","hours":{"_text":"Monday: 10:00 - 12:00 / 14:00 - 16:00, Tuesday: 10:00 - 16:00, Wednesday: 10:00 - 16:00, Thursday: 10:00 - 16:00, Friday: 10:00 - 12:00 / 14:00 - 16:00","opening":"Mo 10:00-12:00,14:00-16:00; Tu 10:00-16:00; We 10:00-16:00; Th 10:00-16:00; Fr 10:00-12:00,14:00-16:00"},"title":"Egglescliffe Community Centre"},"type":"Feature"},
		{"geometry":{"coordinates":[-1.35891,54.52005],"type":"Point"},"properties":{"_source":"warm_welcome","address":"Egglescliffe Community Centre, Cleveland TS16 0EH","description":"Book room. We offer books to read or take home. We offer jigsaws. Always one on the table, come fit some pieces in. Jigsaws available to take home. Free tea/coffee and biscuits. Friendly volunteers. Laptop connected through the Wi-Fi, so you can surf the internet. Free Wi-Fi. Ladies, gents and disabled toilet available. Lots of information about what’s happening in the community centre.","hours":{"_text":"Monday: 10:00 - 12:00 / 14:00 - 16:00, Tuesday: 10:00 - 16:00, Wednesday: 10:00 - 16:00, Thursday: 10:00 - 16:00, Friday: 10:00 - 12:00 / 14:00 - 16:00","opening":"Mo 10:00-12:00,14:00-16:00; Tu 10:00-16:00; We 10:00-16:00; Th 10:00-16:00; Fr 10:00-12:00,14:00-16:00"},"title":"Egglescliffe community centre"},"type":"Feature"},
		{"geometry":{"coordinates":[-1.28945,54.53029],"type":"Point"},"properties":{"_source":"warm_welcome","address":"Eltham Crescent Community Centre, Cleveland TS17 9RG","description":"Chair Yoga and Exercise - Cafe AMALA sessions, free for all to attend. Chair Yoga and Exercise is on Mondays 10:30-11:30 am, Cafe Sessions 1st Monday of the month from 11:30-12:30. If wishing to attend Chair Yoga and Exercise and it is your 1st session, please come along 10 mins early to register. Sessions are warm, friendly and welcome to all.","hours":{"_text":"Monday: 11:30 - 12:30 Monthly","opening":"Mo 11:30-12:30"},"title":"Eltham Crescent Community Centre"},"type":"Feature"},
		{"geometry":{"coordinates":[-1.22654,54.55997],"type":"Point"},"properties":{"_source":"warm_welcome","address":"St. Oswalds Church Hall, Middlesbrough, Cleveland TS4 2SG","description":"Our warm room is open to everybody of all denominations or non-denomination. We run an eco-shop so whilst there may be customers utilising the space, anybody can simply come along for a welcoming place to keep warm and a hot cuppa and biccie.","hours":{"_text":"Wednesday: 09:30 - 13:00, Thursday: 09:30 - 13:00, Friday: 09:30 - 12:30","opening":"We 09:30-13:00; Th 09:30-13:00; Fr 09:30-12:30"},"title":"Genesis Warm Welcome"},"type":"Feature"},
		{"geometry":{"coordinates":[-1.13422,54.48844],"type":"Point"},"properties":{"_source":"warm_welcome","address":"105b High Street, North Yorkshire, North Yorkshire Ts9 6nb","description":"Community hub and library We are a community hub that is also a library. We also sell art,crafts and second hand books.","hours":{"_text":"Tuesday: 10:00 - 16:00, Wednesday: 10:00 - 16:00, Thursday: 10:00 - 16:00, Friday: 10:00 - 16:00, Saturday: 10:00 - 13:00","opening":"Tu 10:00-16:00; We 10:00-16:00; Th 10:00-16:00; Fr 10:00-16:00; Sa 10:00-13:00"},"title":"Great Ayton Discovery Centre"},"type":"Feature"},
		{"geometry":{"coordinates":[-1.23975,54.55660],"type":"Point"},"properties":{"_source":"warm_welcome","address":"Holy Name Of Mary Church Hall, Middlesbrough, Cleveland TS5 6QT","description":"Cafe AMALA session, 2nd + last Thursday of the month - 2:30pm-3:30pm. Join us for a cuppa tea and some good company. After our Chair Yoga and Exercise session. All welcome, regardless of joining session before.","hours":{"_text":"Thursday: 02:30 - 03:30 Fortnightly","opening":"Th 02:30-03:30"},"title":"Holy Name of Mary Church Hall"},"type":"Feature"},
		{"geometry":{"coordinates":[-1.24408,54.56247],"type":"Point"},"properties":{"_source":"warm_welcome","address":"St Barnabas Church Hall, Middlesbrough, North Yorkshire TS5 6JR","description":"Our Grocery Cafe is open on Thursday mornings 10-12 noon providing a warm friendly space serving hot drinks (20p), scones (20p) and toast (20p). All drinks come with free refills and biscuits. All welcome.","hours":{"_text":"Thursday: 10:00 - 12:00","opening":"Th 10:00-12:00"},"title":"Middlesbrough Community Grocery Cafe"},"type":"Feature"},
		{"geometry":{"coordinates":[-1.21329,54.57120],"type":"Point"},"properties":{"_source":"warm_welcome","address":"North Ormesby Community Hub, Cleveland TS3 6JB","description":"Chair Yoga and Exercise - Cafe AMALA sessions, free for all to attend. Chair Yoga and Exercise is on Mondays 10:30-11:30 am, Cafe Sessions 2nd + 4th Monday of the month from 11:30-12:30. If wishing to attend Chair Yoga and Exercise and it is your 1st session, please come along 10 mins early to register. Sessions are warm, friendly and welcome to all. Wheelchair and Mobility scooter friendly.","hours":{"_text":"Monday: 11:30 - 12:30 Fortnightly","opening":"Mo 11:30-12:30"},"title":"North Ormesby Community Hub"},"type":"Feature"},
		{"geometry":{"coordinates":[-1.26332,54.55534],"type":"Point"},"properties":{"_source":"warm_welcome","address":"2-10 Whinney Banks Road, Middlesbrough, Cleveland TS5 4LA TS5 4LA","description":"Renew@10 - A space where it is OK not to be OK! A place where you will always get a warm welcome and a hot drink with cake","hours":{"_text":"Wednesday: 10:00 - 12:00","opening":"We 10:00-12:00"},"title":"St Martins Church"},"type":"Feature"},
		{"geometry":{"coordinates":[-1.16509,54.52864],"type":"Point"},"properties":{"_source":"warm_welcome","address":"21 Morton Carr Lane, Cleveland TS7 0JU","description":"Cafe AMALA session, 1st Wednesday of the month - 2:30pm-3:30pm. Join us for a cuppa tea and some good company. After our Chair Yoga and Exercise session. All welcome, regardless of joining session before.","hours":{"_text":"Wednesday: 14:30 - 15:30 Monthly","opening":"We 14:30-15:30"},"title":"St Mary's Church Hall (Morton Carr Lane, Nunthorpe)"},"type":"Feature"},
		{"geometry":{"coordinates":[-1.32384,54.55656],"type":"Point"},"properties":{"_source":"warm_welcome","address":"St. Peters Church, Stockton on Tees, Cleveland TS18 3PJ","description":"A warm welcome is given to anyone wanting to come along and have a cup of tea or coffee and a chat. Other refreshments are also on offer including biscuits and cakes","hours":{"_text":"Thursday: 10:00 - 11:30","opening":"Th 10:00-11:30"},"title":"St Peter's Church"},"type":"Feature"},
		{"geometry":{"coordinates":[-1.31440,54.51626],"type":"Point"},"properties":{"_source":"warm_welcome","address":"St. Francis of Assisi church, Ingleby Barwick, Yorkshire Ts17 0wd","description":"Hall with free food and company. Open every Friday 11am until 1pm","hours":{"_text":"Friday: 11:00 - 13:00","opening":"Fr 11:00-13:00"},"title":"St. Francis of Assisi Church, Ingleby Barwick"},"type":"Feature"},
		{"geometry":{"coordinates":[-1.32221,54.56052],"type":"Point"},"properties":{"_source":"warm_welcome","address":"6-8 Yarm Road, Stockton-on-Tees, Teesside TS18 3NA","description":"We provide a range of community support groups throughout the week, all our groups are for adults only (18+). Come along for a cuppa and a chat in a warm, safe, friendly environment! Groups include: - The Place To Be: Weeknights, Monday - Friday, 5pm - 8pm. - Men's Group: Mondays and Fridays, 12pm - 3pm. - Art Group: Wednesdays, 10am - 12pm, 1pm - 3pm. - LGBT+ Group: Thursdays, 10am - 12pm. - Bereavement & Grief* (6-week course): Thursdays: 1:30pm - 3:30pm - Coffee Morning (Grief-related discussion group): Friday 10am - 12pm. - Healthier Me* (6-week course): Fridays 1:30pm - 3:30pm. *if you are interested in our 6-week wellbeing courses, please get in touch beforehand to book a place and find out the next start date.","hours":{"_text":"Monday: 12:00 - 15:00 / 17:00 - 20:00, Tuesday: 17:00 - 20:00, Wednesday: 10:00 - 15:00 / 17:00 - 20:00, Thursday: 10:00 - 15:30 / 17:00 - 20:00, Friday: 10:00 - 15:30 / 17:00 - 20:00","opening":"Mo 12:00-15:00,17:00-20:00; Tu 17:00-20:00; We 10:00-15:00,17:00-20:00; Th 10:00-15:30,17:00-20:00; Fr 10:00-15:30,17:00-20:00"},"title":"Starfish Community Social Hub"},"type":"Feature"},
		{"geometry":{"coordinates":[-1.31226,54.56591],"type":"Point"},"properties":{"_source":"warm_welcome","address":"Stockton Parish Church, Stockton-on-Tees, Cleveland TS18 1SP","description":"We open every Wednesday from 12-2pm. We host a soup lunch and everyone is welcome.","hours":{"_text":"Wednesday: 12:00 - 14:00","opening":"We 12:00-14:00"},"title":"Stockton Parish Church"},"type":"Feature"},
		{"geometry":{"coordinates":[-1.24236,54.56831],"type":"Point"},"properties":{"_source":"warm_welcome","address":"Elite Spiritual Church, Cleveland TS1 4LL","description":"A lovely welcome is awaiting you here in our warm space which is open to everyone.","hours":{"_text":"Wednesday: 06:30 - 07:30, Sunday: 05:30 - 06:30","opening":"We 06:30-07:30; Su 05:30-06:30"},"title":"The Elite Christian Spiritualist Church"},"type":"Feature"},
		{"geometry":{"coordinates":[-1.19315,54.47141],"type":"Point"},"properties":{"_source":"warm_welcome","address":"Town Close, North Rd, Stokesley, North Yorkshire","description":"Co.munity library with events and activities serving Stokesley and the surrounding areas","hours":{"_text":"Monday: 09:30 - 17:00, Tuesday: 09:30 - 18:00, Thursday: 09:30 - 17:00, Friday: 09:30 - 16:00, Saturday: 09:30 - 13:00","opening":"Mo 09:30-17:00; Tu 09:30-18:00; Th 09:30-17:00; Fr 09:30-16:00; Sa 09:30-13:00"},"title":"The Globe Community Library at Stokesley"},"type":"Feature"},
		{"geometry":{"coordinates":[-1.32787,54.52376],"type":"Point"},"properties":{"_source":"warm_welcome","address":"The Rings Community Hub, Cleveland TS17 5LL","description":"Cafe AMALA session, 3rd Friday of the month - 2:30pm-3:30pm. Join us for a cuppa tea and some good company. After our Chair Yoga and Exercise session. All welcome, regardless of joining session before.","hours":{"_text":"Friday: 14:30 - 15:30 Monthly","opening":"Fr 14:30-15:30"},"title":"The Rings Community HubCafe AMALA"},"type":"Feature"},
		{"geometry":{"coordinates":[-1.29321,54.55423],"type":"Point"},"properties":{"_source":"warm_welcome","address":"Teesside Vineyard Church, Cleveland TS17 7HD","description":"The Vine Cafe is open to everyone. We are open on Wednesdays 10:00 -12:00 and provide a free warm drink and snack and a place for people to connect with others.","hours":{"_text":"Wednesday: 10:00 - 12:00","opening":"We 10:00-12:00"},"title":"The Vine Cafe"},"type":"Feature"},
		{"geometry":{"coordinates":[-1.30369,54.57152],"type":"Point"},"properties":{"_source":"warm_welcome","address":"Northport Road, Portrack, Stockton On Tees, Cleveland TS18 2HX","description":"We are a small Community Centre based on the Portrack Estate.","hours":{"_text":"Monday: 09:00 - 16:00, Tuesday: 09:00 - 15:30, Wednesday: 09:00 - 16:00, Thursday: 09:00 - 15:30, Friday: 09:00 - 14:00, Saturday: 00:00 - Closed, Sunday: 00:00 - Closed","opening":"Mo 09:00-16:00; Tu 09:00-15:30; We 09:00-16:00; Th 09:00-15:30; Fr 09:00-14:00"},"title":"The Willows Community Centre"},"type":"Feature"},
		{"geometry":{"coordinates":[-1.23968,54.56864],"type":"Point"},"properties":{"_source":"warm_welcome","address":"Wrkspace, Middlesbrough, Cleveland TS1 4AS","description":"Office space open to all for a warm space and hot drink and IAG.","hours":{"_text":"Monday: 09:00 - 17:00, Tuesday: 09:00 - 17:00, Wednesday: 09:00 - 17:00, Thursday: 09:00 - 17:00, Friday: 09:00 - 17:00","opening":"Mo 09:00-17:00; Tu 09:00-17:00; We 09:00-17:00; Th 09:00-17:00; Fr 09:00-17:00"},"title":"Triage Central"},"type":"Feature"},
		{"geometry":{"coordinates":[-1.21577,54.54335],"type":"Point"},"properties":{"_source":"warm_welcome","address":"Easterside Community Hub, Middlesbrough, TS4 3PZ","description":"Weekly social get together open to anyone aged 60+ aimed at increasing wellbeing and making social connections","title":"Wellbeing Social"},"type":"Feature"},
		{"geometry":{"coordinates":[-1.25930,54.54837],"type":"Point"},"properties":{"_source":"middlesbrough_council","description":"Acklam Road, Middlesbrough, TS5 7AB *","title":"Acklam Community Hub and Library"},"type":"Feature"},
		{"geometry":{"coordinates":[-1.22146,54.56938],"type":"Point"},"properties":{"_source":"middlesbrough_council","description":"Breckon Hill Road, Middlesbrough, TS4 2DS * Monday to Thursday, 8am to 4pm, and Friday, 8am to 1pm","title":"Breckon Hill Community Centre (families and elderly people)"},"type":"Feature"},
		{"geometry":{"coordinates":[-1.22750,54.56893],"type":"Point"},"properties":{"_source":"middlesbrough_council","description":"169 Victoria Road, Middlesbrough, TS1 3HR * Monday, Wednesday, and Friday, 11am to 3pm","title":"Community Information and BME Network CIC"},"type":"Feature"},
		{"geometry":{"coordinates":[-1.18111,54.55837],"type":"Point"},"properties":{"_source":"middlesbrough_council","description":"The Greenway, Thorntree, Middlesbrough, TS3 9PA * Monday to Friday, 2pm","title":"Community Ventures"},"type":"Feature"},
		{"geometry":{"coordinates":[-1.21637,54.54304],"type":"Point"},"properties":{"_source":"middlesbrough_council","description":"Broughton Avenue, Middlesbrough, TS4 3PZ * Tuesday, Thursday, and Friday, 9am - 5pm","title":"Easterside Community Hub and Library"},"type":"Feature"},
		{"geometry":{"coordinates":[-1.19663,54.56218],"type":"Point"},"properties":{"_source":"middlesbrough_council","description":"Homerton Road, Pallister Park, TS3 8QD * Tuesday, 10am to 1pm","title":"East Middlesbrough Events Centre"},"type":"Feature"},
		{"geometry":{"coordinates":[-1.22657,54.55900],"type":"Point"},"properties":{"_source":"middlesbrough_council","description":"Bishopton Road, Middlesbrough, TS4 2RP * Monday, Wednesday, and Friday, 9am - 5pm","title":"Grove Hill Community Hub and Library"},"type":"Feature"},
		{"geometry":{"coordinates":[-1.24082,54.52507],"type":"Point"},"properties":{"_source":"middlesbrough_council","description":"*","title":"Hemlington Community Hub and Library"},"type":"Feature"},
		{"geometry":{"coordinates":[-1.19781,54.53137],"type":"Point"},"properties":{"_source":"middlesbrough_council","description":"The Willows, Marton-in-Cleveland, Middlesbrough, TS7 8BL *","title":"Marton Community Hub and Library"},"type":"Feature"},
		{"geometry":{"coordinates":[-1.25297,54.55388],"type":"Point"},"properties":{"_source":"middlesbrough_council","description":"Cambridge Road, Linthorpe, Middlesbrough, TS5 5NN *","title":"Middlesbrough Baptist Church"},"type":"Feature"},
		{"geometry":{"coordinates":[-1.24684,54.57106],"type":"Point"},"properties":{"_source":"middlesbrough_council","description":"St. Paul's Road, Middlesbrough, TS1 5NQ *","title":"Newport Community Hub"},"type":"Feature"},
		{"geometry":{"coordinates":[-1.21137,54.57111],"type":"Point"},"properties":{"_source":"middlesbrough_council","description":"Derwent Street, North Ormesby, Middlesbrough, TS3 6JB * Tuesday, Thursday, Friday, 9am - 5pm","title":"North Ormesby Community Hub and Library"},"type":"Feature"},
		{"geometry":{"coordinates":[-1.20359,54.56383],"type":"Point"},"properties":{"_source":"middlesbrough_council","description":"Ormesby Road, Middlesbrough, TS3 7AR * Tuesday and Wednesday, 12pm to 2pm","title":"Pallister Park Centre"},"type":"Feature"},
		{"geometry":{"coordinates":[-1.23607,54.56999],"type":"Point"},"properties":{"_source":"middlesbrough_council","description":"Southfield Road, Middlesbrough, TS1 3BX * 7 days a week, 24 hours (students and staff only)","title":"Teesside University Library"},"type":"Feature"},
		{"geometry":{"coordinates":[-1.23493,54.57016],"type":"Point"},"properties":{"_source":"middlesbrough_council","description":"Campus Heart, Southfield Road, TS1 3BA * Monday to Sunday, usual opening hours","title":"Teesside University Students' Union"},"type":"Feature"},
		{"geometry":{"coordinates":[-1.18194,54.56302],"type":"Point"},"properties":{"_source":"middlesbrough_council","description":"Birkhall Road, Middlesbrough, TS3 9JW * Monday to Friday, 9am - 5pm","title":"Thorntree Community Hub and Library"},"type":"Feature"},
		{"geometry":{"coordinates":[-1.24292,54.56979],"type":"Point"},"properties":{"_source":"middlesbrough_council","description":"49 Clifton Street, Middlesbrough, TS1 4BX * To be confirmed","title":"Ubuntu Multicultural Centre CIC"},"type":"Feature"},
		{"geometry":{"coordinates":[-1.14215,54.56932],"type":"Point"},"properties":{"_source":"redcar_and_cleveland_council","title":"Grangetown Generations Centre & Library"},"type":"Feature"},
		{"geometry":{"coordinates":[-1.14070,54.57040],"type":"Point"},"properties":{"_source":"redcar_and_cleveland_council","address":"High Street, Loftus, Loftus, TS13 4HN, United Kingdom","hours":{"_text":"Monday: 9am-6pm Tuesday &amp; Thursday: 9am - 4pm Wednesday &amp; Friday: 9am - 8pm Every other Saturday: 9.30am - 2pm","opening":"Tu 09:00-16:00; Th 09:00-16:00; We 09:00-20:00; Fr 09:00-20:00; Mo 09:00-18:00; Sa 09:30-14:00"},"title":"Grangetown United","url":"https://www.redcar-cleveland.gov.uk/warm-spaces/2nd-time-round"},"type":"Feature"},
		{"geometry":{"coordinates":[-1.06519,54.53463],"type":"Point"},"properties":{"_source":"redcar_and_cleveland_council","address":"High Street, Loftus, Loftus, TS13 4HN, United Kingdom","hours":{"_text":"Monday: 9am-6pm Tuesday &amp; Thursday: 9am - 4pm Wednesday &amp; Friday: 9am - 8pm Every other Saturday: 9.30am - 2pm","opening":"Tu 09:00-16:00; Th 09:00-16:00; We 09:00-20:00; Fr 09:00-20:00; Mo 09:00-18:00; Sa 09:30-14:00"},"title":"Guisborough Family Hub","url":"https://www.redcar-cleveland.gov.uk/warm-spaces/2nd-time-round"},"type":"Feature"},
		{"geometry":{"coordinates":[-1.05657,54.53518],"type":"Point"},"properties":{"_source":"redcar_and_cleveland_council","address":"High Street, Loftus, Loftus, TS13 4HN, United Kingdom","hours":{"_text":"Monday: 9am-6pm Tuesday &amp; Thursday: 9am - 4pm Wednesday &amp; Friday: 9am - 8pm Every other Saturday: 9.30am - 2pm","opening":"Tu 09:00-16:00; Th 09:00-16:00; We 09:00-20:00; Fr 09:00-20:00; Mo 09:00-18:00; Sa 09:30-14:00"},"title":"Guisborough Library","url":"https://www.redcar-cleveland.gov.uk/warm-spaces/2nd-time-round"},"type":"Feature"},
		{"geometry":{"coordinates":[-1.11645,54.56953],"type":"Point"},"properties":{"_source":"redcar_and_cleveland_council","title":"Lazenby Village Hall"},"type":"Feature"},
		{"geometry":{"coordinates":[-1.17359,54.54997],"type":"Point"},"properties":{"_source":"redcar_and_cleveland_council","title":"Ormesby Family Hub (Greater Eston)"},"type":"Feature"},
		{"geometry":{"coordinates":[-1.17878,54.54726],"type":"Point"},"properties":{"_source":"redcar_and_cleveland_council","title":"Ormesby Library"},"type":"Feature"},
		{"geometry":{"coordinates":[-1.05667,54.53973],"type":"Point"},"properties":{"_source":"redcar_and_cleveland_council","title":"Sleights Community Hub"},"type":"Feature"},
		{"geometry":{"coordinates":[-1.17122,54.57107],"type":"Point"},"properties":{"_source":"redcar_and_cleveland_council","title":"South Bank Family Hub"},"type":"Feature"},
		{"geometry":{"coordinates":[-1.16775,54.57114],"type":"Point"},"properties":{"_source":"redcar_and_cleveland_council","title":"South Bank Library"},"type":"Feature"},
		{"geometry":{"coordinates":[-1.14215,54.56932],"type":"Point"},"properties":{"_source":"redcar_and_cleveland_council","title":"Grangetown Generations Centre & Library"},"type":"Feature"},
		{"geometry":{"coordinates":[-1.14070,54.57040],"type":"Point"},"properties":{"_source":"redcar_and_cleveland_council","title":"Grangetown United"},"type":"Feature"},
		{"geometry":{"coordinates":[-1.06519,54.53463],"type":"Point"},"properties":{"_source":"redcar_and_cleveland_council","title":"Guisborough Family Hub"},"type":"Feature"},
		{"geometry":{"coordinates":[-1.05657,54.53518],"type":"Point"},"properties":{"_source":"redcar_and_cleveland_council","title":"Guisborough Library"},"type":"Feature"},
		{"geometry":{"coordinates":[-1.11645,54.56953],"type":"Point"},"properties":{"_source":"redcar_and_cleveland_council","address":"338 Laburnum Road, Redcar, TS10 3QR, United Kingdom","hours":{"_text":"Tuesday 9:30 until 5pm (closed between 12:15pm - 12:45pm) Wednesday 9:30 until 5pm (closed between 12:15pm - 12:45pm)","opening":"Tu 09:30-17:00; We 09:30-17:00"},"title":"Lazenby Village Hall","url":"https://www.redcar-cleveland.gov.uk/warm-spaces/laburnum-road-library"},"type":"Feature"},
		{"geometry":{"coordinates":[-1.17359,54.54997],"type":"Point"},"properties":{"_source":"redcar_and_cleveland_council","title":"Ormesby Family Hub (Greater Eston)"},"type":"Feature"},
		{"geometry":{"coordinates":[-1.17878,54.54726],"type":"Point"},"properties":{"_source":"redcar_and_cleveland_council","address":"338 Laburnum Road, Redcar, TS10 3QR, United Kingdom","hours":{"_text":"Tuesday 9:30 until 5pm (closed between 12:15pm - 12:45pm) Wednesday 9:30 until 5pm (closed between 12:15pm - 12:45pm)","opening":"Tu 09:30-17:00; We 09:30-17:00"},"title":"Ormesby Library","url":"https://www.redcar-cleveland.gov.uk/warm-spaces/laburnum-road-library"},"type":"Feature"},
		{"geometry":{"coordinates":[-1.05667,54.53973],"type":"Point"},"properties":{"_source":"redcar_and_cleveland_council","title":"Sleights Community Hub"},"type":"Feature"},
		{"geometry":{"coordinates":[-1.17122,54.57107],"type":"Point"},"properties":{"_source":"redcar_and_cleveland_council","title":"South Bank Family Hub"},"type":"Feature"},
		{"geometry":{"coordinates":[-1.16775,54.57114],"type":"Point"},"properties":{"_source":"redcar_and_cleveland_council","title":"South Bank Library"},"type":"Feature"},
		{"geometry":{"coordinates":[-1.14215,54.56932],"type":"Point"},"properties":{"_source":"redcar_and_cleveland_council","title":"Grangetown Generations Centre & Library"},"type":"Feature"},
		{"geometry":{"coordinates":[-1.14070,54.57040],"type":"Point"},"properties":{"_source":"redcar_and_cleveland_council","title":"Grangetown United"},"type":"Feature"},
		{"geometry":{"coordinates":[-1.06519,54.53463],"type":"Point"},"properties":{"_source":"redcar_and_cleveland_council","title":"Guisborough Family Hub"},"type":"Feature"},
		{"geometry":{"coordinates":[-1.05657,54.53518],"type":"Point"},"properties":{"_source":"redcar_and_cleveland_council","title":"Guisborough Library"},"type":"Feature"},
		{"geometry":{"coordinates":[-1.11645,54.56953],"type":"Point"},"properties":{"_source":"redcar_and_cleveland_council","title":"Lazenby Village Hall"},"type":"Feature"},
		{"geometry":{"coordinates":[-1.17359,54.54997],"type":"Point"},"properties":{"_source":"redcar_and_cleveland_council","title":"Ormesby Family Hub (Greater Eston)"},"type":"Feature"},
		{"geometry":{"coordinates":[-1.17878,54.54726],"type":"Point"},"properties":{"_source":"redcar_and_cleveland_council","title":"Ormesby Library"},"type":"Feature"},
		{"geometry":{"coordinates":[-1.05667,54.53973],"type":"Point"},"properties":{"_source":"redcar_and_cleveland_council","address":"Windsor Road, Saltburn by the Sea, TS12 1AT, United Kingdom","hours":{"_text":"Monday - 9:30am until 5pm Wednesday - 10am until 2pm Thursday - 9:30am until 5pm Friday - 9am until 4:30pm Saturday - 10am until 2pm","opening":"Mo 09:30-17:00; We 10:00-14:00; Th 09:30-17:00; Fr 09:00-16:30; Sa 10:00-14:00"},"title":"Sleights Community Hub","url":"https://www.redcar-cleveland.gov.uk/warm-spaces/saltburn-library"},"type":"Feature"},
		{"geometry":{"coordinates":[-1.17122,54.57107],"type":"Point"},"properties":{"_source":"redcar_and_cleveland_council","address":"Windsor Road, Saltburn by the Sea, TS12 1AT, United Kingdom","hours":{"_text":"Monday - 9:30am until 5pm Wednesday - 10am until 2pm Thursday - 9:30am until 5pm Friday - 9am until 4:30pm Saturday - 10am until 2pm","opening":"Mo 09:30-17:00; We 10:00-14:00; Th 09:30-17:00; Fr 09:00-16:30; Sa 10:00-14:00"},"title":"South Bank Family Hub","url":"https://www.redcar-cleveland.gov.uk/warm-spaces/saltburn-library"},"type":"Feature"},
		{"geometry":{"coordinates":[-1.16775,54.57114],"type":"Point"},"properties":{"_source":"redcar_and_cleveland_council","address":"Windsor Road, Saltburn by the Sea, TS12 1AT, United Kingdom","hours":{"_text":"Monday - 9:30am until 5pm Wednesday - 10am until 2pm Thursday - 9:30am until 5pm Friday - 9am until 4:30pm Saturday - 10am until 2pm","opening":"Mo 09:30-17:00; We 10:00-14:00; Th 09:30-17:00; Fr 09:00-16:30; Sa 10:00-14:00"},"title":"South Bank Library","url":"https://www.redcar-cleveland.gov.uk/warm-spaces/saltburn-library"},"type":"Feature"},
		{"geometry":{"coordinates":[-1.14215,54.56932],"type":"Point"},"properties":{"_source":"redcar_and_cleveland_council","title":"Grangetown Generations Centre & Library"},"type":"Feature"},
		{"geometry":{"coordinates":[-1.14070,54.57040],"type":"Point"},"properties":{"_source":"redcar_and_cleveland_council","title":"Grangetown United"},"type":"Feature"},
		{"geometry":{"coordinates":[-1.06519,54.53463],"type":"Point"},"properties":{"_source":"redcar_and_cleveland_council","title":"Guisborough Family Hub"},"type":"Feature"},
		{"geometry":{"coordinates":[-1.05657,54.53518],"type":"Point"},"properties":{"_source":"redcar_and_cleveland_council","title":"Guisborough Library"},"type":"Feature"},
		{"geometry":{"coordinates":[-1.11645,54.56953],"type":"Point"},"properties":{"_source":"redcar_and_cleveland_council","title":"Lazenby Village Hall"},"type":"Feature"},
		{"geometry":{"coordinates":[-1.17359,54.54997],"type":"Point"},"properties":{"_source":"redcar_and_cleveland_council","title":"Ormesby Family Hub (Greater Eston)"},"type":"Feature"},
		{"geometry":{"coordinates":[-1.17878,54.54726],"type":"Point"},"properties":{"_source":"redcar_and_cleveland_council","title":"Ormesby Library"},"type":"Feature"},
		{"geometry":{"coordinates":[-1.05667,54.53973],"type":"Point"},"properties":{"_source":"redcar_and_cleveland_council","title":"Sleights Community Hub"},"type":"Feature"},
		{"geometry":{"coordinates":[-1.17122,54.57107],"type":"Point"},"properties":{"_source":"redcar_and_cleveland_council","title":"South Bank Family Hub"},"type":"Feature"},
		{"geometry":{"coordinates":[-1.16775,54.57114],"type":"Point"},"properties":{"_source":"redcar_and_cleveland_council","title":"South Bank Library"},"type":"Feature"},
		{"geometry":{"coordinates":[-1.14215,54.56932],"type":"Point"},"properties":{"_source":"redcar_and_cleveland_council","title":"Grangetown Generations Centre & Library"},"type":"Feature"},
		{"geometry":{"coordinates":[-1.14070,54.57040],"type":"Point"},"properties":{"_source":"redcar_and_cleveland_council","title":"Grangetown United"},"type":"Feature"},
		{"geometry":{"coordinates":[-1.06519,54.53463],"type":"Point"},"properties":{"_source":"redcar_and_cleveland_council","title":"Guisborough Family Hub"},"type":"Feature"},
		{"geometry":{"coordinates":[-1.05657,54.53518],"type":"Point"},"properties":{"_source":"redcar_and_cleveland_council","title":"Guisborough Library"},"type":"Feature"},
		{"geometry":{"coordinates":[-1.11645,54.56953],"type":"Point"},"properties":{"_source":"redcar_and_cleveland_council","title":"Lazenby Village Hall"},"type":"Feature"},
		{"geometry":{"coordinates":[-1.17359,54.54997],"type":"Point"},"properties":{"_source":"redcar_and_cleveland_council","title":"Ormesby Family Hub (Greater Eston)"},"type":"Feature"},
		{"geometry":{"coordinates":[-1.17878,54.54726],"type":"Point"},"properties":{"_source":"redcar_and_cleveland_council","title":"Ormesby Library"},"type":"Feature"},
		{"geometry":{"coordinates":[-1.05667,54.53973],"type":"Point"},"properties":{"_source":"redcar_and_cleveland_council","title":"Sleights Community Hub"},"type":"Feature"},
		{"geometry":{"coordinates":[-1.17122,54.57107],"type":"Point"},"properties":{"_source":"redcar_and_cleveland_council","title":"South Bank Family Hub"},"type":"Feature"},
		{"geometry":{"coordinates":[-1.16775,54.57114],"type":"Point"},"properties":{"_source":"redcar_and_cleveland_council","title":"South Bank Library"},"type":"Feature"},
		{"geometry":{"coordinates":[-1.32052,54.51833],"type":"Point"},"properties":{"_source":"stockton-on-tees_council","address":"Blair Avenue Ingleby Barwick TS17 5BL","contact":"01642 654650","description":"Facilities: Hot and cold refreshments, reading materials, accessible entrance, accessible toilets and free car parking.","title":"All Saints CE Academy","url":"https://www.stockton.gov.uk/article/9389/All-Saints-CE-Academy"},"type":"Feature"},
		{"geometry":{"coordinates":[-1.33794,54.55492],"type":"Point"},"properties":{"_source":"stockton-on-tees_council","address":"All Saints Church Hartburn Village Stockton-on-Tees TS18 5EB United Kingdom","description":"Facilities: Accessible entrance, accessible toilets, hot and cold refreshments","title":"All Saints Church - Warm Welcome Social","url":"https://www.stockton.gov.uk/article/16644/All-Saints-Church-Warm-Welcome-Social"},"type":"Feature"},
		{"geometry":{"coordinates":[-1.31547,54.56439],"type":"Point"},"properties":{"_source":"stockton-on-tees_council","address":"60 Dovecot Street Stockton TS18 1LL","contact":"01642 525199","description":"Facilities: Accessible entrance, free Wi-Fi, charging facilities, accessible toilets, baby changing facilities, able to bring own food and drinks, hot and cold refreshments available for purchase and activities.","title":"ARC, Stockton Arts Centre","url":"https://www.stockton.gov.uk/article/9391/ARC-Stockton-Arts-Centre"},"type":"Feature"},
		{"geometry":{"coordinates":[-1.31817,54.55680],"type":"Point"},"properties":{"_source":"stockton-on-tees_council","address":"Bowesfield Lane Stockton TS18 3ET","description":"Facilities: Able to bring own food and drinks, accessible entrance, accessible toilets, charging facilities for phones and other devices, hot and cold refreshments, outdoor space and activities","title":"Arlington Park","url":"https://www.stockton.gov.uk/article/11167/Arlington-Park"},"type":"Feature"},
		{"geometry":{"coordinates":[-1.35816,54.50054],"type":"Point"},"properties":{"_source":"stockton-on-tees_council","address":"Challoner Road Yarm TS15 9EL","contact":"07543 472487","description":"Facilities: Accessible entrance, accessible toilets, able to bring own food and drinks, baby changing facilities, charging facilities for phones and other devices, and hot and cold refreshments.","title":"Challoner House Community Centre","url":"https://www.stockton.gov.uk/article/9640/Challoner-House-Community-Centre"},"type":"Feature"},
		{"geometry":{"coordinates":[-1.30519,54.56014],"type":"Point"},"properties":{"_source":"stockton-on-tees_council","address":"Richard House Sorbonne Close Stockton-on-Tees TS17 6DA United Kingdom","description":"Facilities: Accessible entrance, accessible toilets, baby changing facilities, book borrowing or swap, charging facilities for phones and other devices, free car park, free Wifi, hot and cold refreshments, outdoor space or activities, reading materials.","title":"Coffee and Tees Co","url":"https://www.stockton.gov.uk/article/16882/Coffee-and-Tees-Co"},"type":"Feature"},
		{"geometry":{"coordinates":[-1.35926,54.52036],"type":"Point"},"properties":{"_source":"stockton-on-tees_council","address":"Durham Lane Eaglescliffe TS16 0EH","contact":"07395 138288","description":"Facilities: Accessible entrance, accessible toilets, baby changing facilities, book borrowing and swap, free car park, free devices to use (computers, tablets, phones), free Wi-Fi, hot and cold refreshments and reading materials.","title":"Egglescliffe Community Centre","url":"https://www.stockton.gov.uk/article/9696/Egglescliffe-Community-Centre"},"type":"Feature"},
		{"geometry":{"coordinates":[-1.34910,54.57098],"type":"Point"},"properties":{"_source":"stockton-on-tees_council","address":"Bishopton Road West Stockton-on-Tees TS19 0QJ United Kingdom","description":"Facilities: Able to bring own food and drinks, accessible entrance, accessible toilets, baby changing facilities, book borrowing or swap, charging facilities for phones and other devices, free car park ,free Wi-Fi, hot and cold refreshments, reading materials","title":"Elm Tree Social Club","url":"https://www.stockton.gov.uk/article/16884/Elm-Tree-Social-Club"},"type":"Feature"},
		{"geometry":{"coordinates":[-1.28841,54.52997],"type":"Point"},"properties":{"_source":"stockton-on-tees_council","address":"91 Eltham Crescent Thornaby TS17 9RG","contact":"01642 688303","description":"Facilities: Accessible entrance and hot and cold refreshments.","title":"Eltham Community Centre","url":"https://www.stockton.gov.uk/article/9697/Eltham-Community-Centre"},"type":"Feature"},
		{"geometry":{"coordinates":[-1.34981,54.56159],"type":"Point"},"properties":{"_source":"stockton-on-tees_council","address":"Fairfield Road TS19 7AJ","contact":"01642 527962","description":"Facilities: Accessible entrance, free Wi-Fi, free devices to use, reading materials, book borrowing.","title":"Fairfield Library","url":"https://www.stockton.gov.uk/article/9698/Fairfield-Library"},"type":"Feature"},
		{"geometry":{"coordinates":[-1.30539,54.55091],"type":"Point"},"properties":{"_source":"stockton-on-tees_council","address":"The Youthy 211-213 Thornaby Road Thornaby TS17 6LS","description":"Facilities: able to bring own food and drinks , accessible entrance, accessible toilets, food bank facility free car park, free WiFi, hot and cold refreshments and reading materials.","title":"Five Lamps The Youthy","url":"https://www.stockton.gov.uk/article/11572/Five-Lamps-The-Youthy"},"type":"Feature"},
		{"geometry":{"coordinates":[-1.31248,54.56457],"type":"Point"},"properties":{"_source":"stockton-on-tees_council","address":"Fountains Shopping Mall Enterprise Arcade 35-37 High Street Stockton-on-Tees TS18 1SB","description":"Facilities: Accessible entrance, accessible toilets, hot and cold refreshments","title":"Fountains Shopping Mall - Warm Welcome Social","url":"https://www.stockton.gov.uk/article/16034/Fountains-Shopping-Mall-Warm-Welcome-Social"},"type":"Feature"},
		{"geometry":{"coordinates":[-1.34389,54.55641],"type":"Point"},"properties":{"_source":"stockton-on-tees_council","address":"Greens Lane Hartburn TS18 5HP","contact":"01642 763554","description":"Facilities: Able to bring own food and drinks, accessible entrance, accessible toilets, baby changing facilities, free car park, hot and cold refreshments.","title":"Greens Lane Methodist Church","url":"https://www.stockton.gov.uk/article/9700/Greens-Lane-Methodist-Church"},"type":"Feature"},
		{"geometry":{"coordinates":[-1.33794,54.55500],"type":"Point"},"properties":{"_source":"stockton-on-tees_council","address":"Blair Avenue Ingleby Barwick TS17 5BL","contact":"01642 654650","description":"Warm Welcome social events are weekly and open to anyone to come along for a cuppa, have a chat or play some games.","title":"Hartburn Village - Warm Welcome Social","url":"https://www.stockton.gov.uk/article/17496/Hartburn-Village-Warm-Welcome-Social"},"type":"Feature"},
		{"geometry":{"coordinates":[-1.31995,54.51858],"type":"Point"},"properties":{"_source":"stockton-on-tees_council","address":"Blair Avenue Ingleby Barwick TS17 5BL","contact":"01642 528528","description":"Facilities: Accessible entrance, free Wi-Fi, free devices to use, hot and cold refreshments available to purchase, reading materials, book borrowing, accessible toilets, baby changing facilities, free car parking, and activities.","title":"Ingleby Barwick Library","url":"https://www.stockton.gov.uk/article/9702/Ingleby-Barwick-Library"},"type":"Feature"},
		{"geometry":{"coordinates":[-1.30982,54.56055],"type":"Point"},"properties":{"_source":"stockton-on-tees_council","address":"Unit 4 Castlegate Quay TS18 3BB","contact":"01642 378245","description":"Facilities: Able to bring own food and drinks, accessible entrance, accessible toilets, baby changing facilities, book borrowing and swap, charging facilities for phones and other devices, free car park, free devices to use (computers, tablets, phones), free Wi-Fi, hot and cold refreshments, outdoor space and activities, and reading materials.","title":"Lakota Hub","url":"https://www.stockton.gov.uk/article/9704/Lakota-Hub"},"type":"Feature"},
		{"geometry":{"coordinates":[-1.32400,54.57181],"type":"Point"},"properties":{"_source":"stockton-on-tees_council","address":"Durham Road TS19 0DE","contact":"01642 868331","description":"Facilities: Accessible entrance, able to bring own food and drinks, free car parking, and hot and cold refreshments.","title":"Newtown Community Resource Centre","url":"https://www.stockton.gov.uk/article/9642/Newtown-Community-Resource-Centre"},"type":"Feature"},
		{"geometry":{"coordinates":[-1.32393,54.57186],"type":"Point"},"properties":{"_source":"stockton-on-tees_council","address":"Durham Road Stockton-on-Tees TS19 0DE","description":"Facilities: accessible entrance, accessible toilets, charging facilities for phones and other devices, food bank facility, hot and cold refreshments.","title":"Newtown Community Resource Centre - Purple Rose","url":"https://www.stockton.gov.uk/article/16880/Newtown-Community-Resource-Centre-Purple-Rose"},"type":"Feature"},
		{"geometry":{"coordinates":[-1.32386,54.57171],"type":"Point"},"properties":{"_source":"stockton-on-tees_council","address":"Newtown Community Resource Centre 123 Durham Road Stockton-on-Tees TS19 0DE","description":"Facilities: Accessible entrance, accessible toilets, hot and cold refreshments","title":"Newtown Community Resource Centre - Warm Welcome Social","url":"https://www.stockton.gov.uk/article/16035/Newtown-Community-Resource-Centre-Warm-Welcome-Social"},"type":"Feature"},
		{"geometry":{"coordinates":[-1.30073,54.57073],"type":"Point"},"properties":{"_source":"stockton-on-tees_council","address":"Portrack Lane Stockton-on-Tees TS18 2HS","description":"Facilities: able to bring own food and drinks, accessible entrance, accessible toilets, book borrowing or swap, free car park, free Wi-Fi, hot and cold refreshments, reading materials","title":"Portrack Community Centre","url":"https://www.stockton.gov.uk/article/16877/Portrack-Community-Centre"},"type":"Feature"},
		{"geometry":{"coordinates":[-1.29747,54.56226],"type":"Point"},"properties":{"_source":"stockton-on-tees_council","address":"Queen&apos;s Campus Sport Centre Stockton-on-Tees TS17 6BH United Kingdom","description":"Facilities: Able to bring own food and drinks, accessible entrance, accessible toilets, baby changing facilities, book borrowing or swap, charging facilities for phones and other devices, free car park ,free Wifi, hot and cold refreshments, reading materials","title":"Queen's Campus Sport Centre","url":"https://www.stockton.gov.uk/article/16883/Queen-s-Campus-Sport-Centre"},"type":"Feature"},
		{"geometry":{"coordinates":[-1.31806,54.56032],"type":"Point"},"properties":{"_source":"stockton-on-tees_council","address":"Bowesfield Lane Stockton TS18 3SY","contact":"07868 492852","description":"Facilities: Able to bring own food and drinks, accessible entrance, accessible toilets, charging facilities for phones and other devices, free Wi-Fi, and hot and cold refreshments.","title":"Rivers of Life Christian Fellowship","url":"https://www.stockton.gov.uk/article/9772/Rivers-of-Life-Christian-Fellowship"},"type":"Feature"},
		{"geometry":{"coordinates":[-1.30008,54.54878],"type":"Point"},"properties":{"_source":"stockton-on-tees_council","address":"Thorntree Road Thornaby TS17 8AW","contact":"01642 688303","description":"Facilities: Accessible entrance, free Wi-Fi, charging facilities, hot and cold refreshments, able to bring own food and drinks, and free car parking.","title":"Robert Atkinson Centre","url":"https://www.stockton.gov.uk/article/9650/Robert-Atkinson-Centre"},"type":"Feature"},
		{"geometry":{"coordinates":[-1.31683,54.56161],"type":"Point"},"properties":{"_source":"stockton-on-tees_council","address":"78 Laurel House Skinner Street Stockton TS18 1EG","contact":"07538 894834","description":"Facilities: Accessible entrance, accessible toilets, baby changing facilities, charging facilities for phones and other devices, children's play equipment, free Wi-Fi, hot and cold refreshments and able to bring own food and drinks.","title":"Roseberry Community Consortium Community Activity Hub","url":"https://www.stockton.gov.uk/article/9651/Roseberry-Community-Consortium-Community-Activity-Hub"},"type":"Feature"},
		{"geometry":{"coordinates":[-1.31123,54.56735],"type":"Point"},"properties":{"_source":"stockton-on-tees_council","address":"Church Road Stockton TS18 1TY","contact":"01642 660610","description":"Facilities: Accessible entrance, free Wi-Fi, accessible toilets, and baby changing facilities.","title":"Splash","url":"https://www.stockton.gov.uk/article/9654/Splash"},"type":"Feature"},
		{"geometry":{"coordinates":[-1.31412,54.52051],"type":"Point"},"properties":{"_source":"stockton-on-tees_council","address":"Barwick way Ingleby Barwick TS17 0WD","description":"Facilities: able to bring own food and drinks, accessible entrance, accessible toilets, baby changing facilities, book borrowing or swap, charging facilities for phones and other devices, children's play equipment, food bank facility, free car park, free Wi-Fi, hot and cold refreshments, outdoor space or activities, reading materials.","title":"St Francis of Assisi church","url":"https://www.stockton.gov.uk/article/16876/St-Francis-of-Assisi-church"},"type":"Feature"},
		{"geometry":{"coordinates":[-1.33016,54.57054],"type":"Point"},"properties":{"_source":"stockton-on-tees_council","address":"Bishopton Road Stockton TS18 4PB","contact":"07876 343793","description":"Facilities: Able to bring own food and drinks, accessible entrance, accessible toilets, baby changing facilities, charging facilities for phones and other devices, free car parking, free Wi-Fi, hot and cold refreshments, and reading materials","title":"St Paul's Church","url":"https://www.stockton.gov.uk/article/9661/St-Paul-s-Church"},"type":"Feature"},
		{"geometry":{"coordinates":[-1.32356,54.55699],"type":"Point"},"properties":{"_source":"stockton-on-tees_council","address":"Yarm Road Stockton TS18 3PJ","contact":"07958 345177","description":"Facilities: Free Wi-Fi, hot and cold refreshments, accessible toilets, baby changing facilities, and free car parking.","title":"St Peter's Church","url":"https://www.stockton.gov.uk/article/9662/St-Peter-s-Church"},"type":"Feature"},
		{"geometry":{"coordinates":[-1.30904,54.56643],"type":"Point"},"properties":{"_source":"stockton-on-tees_council","address":"The Square Stockton TS18 1TE","contact":"01642 602223","description":"Facilities: Accessible entrance, free Wi-Fi, hot and cold refreshments available to purchase, accessible toilets, and baby changing facilities. Capacity for 20 people and aimed at those over 60. For over 60s, a three-course hot meal with tea or coffee is available for £3. This is capped at 20 people, so you must call the week before you wish to attend.","title":"Stockton Baptist Church","url":"https://www.stockton.gov.uk/article/9667/Stockton-Baptist-Church"},"type":"Feature"},
		{"geometry":{"coordinates":[-1.31129,54.56658],"type":"Point"},"properties":{"_source":"stockton-on-tees_council","address":"Church Road Stockton TS18 1TU","contact":"01642 526517","description":"Facilities: Accessible entrance, free Wi-Fi, free devices to use, reading materials, book borrowing, accessible toilets, baby changing facilities, advice and support, able to bring own food and drinks, and a Customer Service Centre.","title":"Stockton Central Library","url":"https://www.stockton.gov.uk/article/9668/Stockton-Central-Library"},"type":"Feature"},
		{"geometry":{"coordinates":[-1.32418,54.55617],"type":"Point"},"properties":{"_source":"stockton-on-tees_council","address":"Yarm Road Stockton TS18 3PJ","contact":"01642 528525","description":"Facilities: Accessible entrance, free Wi-Fi, charging facilities, hot and cold refreshments available to purchase, reading materials, book borrowing, accessible toilets, baby changing facilities, activities, children's play equipment, and food bank vouchers.","title":"Stockton Family Hub","url":"https://www.stockton.gov.uk/article/9669/Stockton-Family-Hub"},"type":"Feature"},
		{"geometry":{"coordinates":[-1.31259,54.56657],"type":"Point"},"properties":{"_source":"stockton-on-tees_council","address":"High Street Stockton TS18 1SP","contact":"01642 611734","description":"Facilities: Accessible entrance, free Wi-Fi, hot and cold refreshments, reading materials, accessible toilets, baby changing facilities, activities, children's play equipment, advice and support, and able to bring own food and drinks.","title":"Stockton Parish Church","url":"https://www.stockton.gov.uk/article/9671/Stockton-Parish-Church"},"type":"Feature"},
		{"geometry":{"coordinates":[-1.35892,54.53214],"type":"Point"},"properties":{"_source":"stockton-on-tees_council","address":"Eaglescliffe TS16 0RD","description":"Facilities: Accessible entrance, accessible toilets, activities, advice and support, baby changing, book borrowing, children's play equipment, free car parking, free WIFI, hot and cold refreshments available to purchase, outdoor space, signposting towards help and services","title":"Tees Valley Community Church","url":"https://www.stockton.gov.uk/article/10590/Tees-Valley-Community-Church"},"type":"Feature"},
		{"geometry":{"coordinates":[-1.29368,54.55454],"type":"Point"},"properties":{"_source":"stockton-on-tees_council","address":"Acklam Road Thornaby TS17 7HB","contact":"01642 780565","description":"Facilities: Accessible toilets, baby changing facilities, children's play equipment, free Wi-Fi, hot and cold refreshments, and able to bring own food and drinks.","title":"Teesside Vineyard Church","url":"https://www.stockton.gov.uk/article/9673/Teesside-Vineyard-Church"},"type":"Feature"},
		{"geometry":{"coordinates":[-1.30057,54.55293],"type":"Point"},"properties":{"_source":"stockton-on-tees_council","address":"34 Havelock Street Thornaby TS17 6HN","contact":"07980 808920","description":"Facilities: Accessible entrance, accessible toilets, charging facilities for phones and other devices, food bank facility, free Wifi and hot and cold refreshments.","title":"The Community Hub","url":"https://www.stockton.gov.uk/article/9675/The-Community-Hub"},"type":"Feature"},
		{"geometry":{"coordinates":[-1.34341,54.56352],"type":"Point"},"properties":{"_source":"stockton-on-tees_council","address":"195 Oxbridge Lane Grangefield TS18 4HY","contact":"01642 688303","description":"Facilities: Free Wi-Fi, charging facilities, hot and cold refreshments, accessible toilets, and free car parking.","title":"The Grangefield Centre","url":"https://www.stockton.gov.uk/article/9678/The-Grangefield-Centre"},"type":"Feature"},
		{"geometry":{"coordinates":[-1.33027,54.57002],"type":"Point"},"properties":{"_source":"stockton-on-tees_council","address":"Grays Road Grangefield TS18 4LN United Kingdom","description":"Facilities: Able to bring own food and drinks, accessible entrance, accessible toilets, baby changing facilities, book borrowing or swap, charging facilities for phones and other devices, free car park ,free Wi-Fi, hot and cold refreshments, reading materials","title":"The Institute","url":"https://www.stockton.gov.uk/article/16885/The-Institute"},"type":"Feature"},
		{"geometry":{"coordinates":[-1.32262,54.55851],"type":"Point"},"properties":{"_source":"stockton-on-tees_council","address":"5 Woodland Street Stockton TS18 3NW","contact":"01642 807089","description":"Facilities: Accessible entrance, accessible toilets, baby changing facilities, hot and cold refreshments and reading material.","title":"The Jubilee Centre","url":"https://www.stockton.gov.uk/article/9718/The-Jubilee-Centre"},"type":"Feature"},
		{"geometry":{"coordinates":[-1.32333,54.55943],"type":"Point"},"properties":{"_source":"stockton-on-tees_council","address":"34 Yarm Road TS18 3NG","contact":"01642 647086","description":"Facilities: Accessible entrance, accessible toilets, free car park, free Wi-Fi, hot and cold refreshments, and reading materials.","title":"The Lighthouse Mental Health Drop-In Centre","url":"https://www.stockton.gov.uk/article/9646/The-Lighthouse-Mental-Health-Drop-In-Centre"},"type":"Feature"},
		{"geometry":{"coordinates":[-1.35610,54.50135],"type":"Point"},"properties":{"_source":"stockton-on-tees_council","address":"The Meadowings Stockton-on-Tees Yarm TS15 9QS","contact":"03456780555","description":"Facilities: Able to bring own food/ and drinks, accessible entrance, accessible toilets, book borrowing and swap, charging facilities for phones and other devices, free car park, hot and cold refreshments, reading materials.","title":"The Meadowings Community Centre","url":"https://www.stockton.gov.uk/article/11152/The-Meadowings-Community-Centre"},"type":"Feature"},
		{"geometry":{"coordinates":[-1.32253,54.56051],"type":"Point"},"properties":{"_source":"stockton-on-tees_council","address":"Starfish Building 6/8 Yarm Road Stockton TS18 3NA","contact":"07723 605525","description":"Facilities: Able to bring own food and drinks, accessible entrance, accessible toilets, free car park, free devices to use including computers, tablets and phones, free Wi-Fi, and hot and cold refreshments.","title":"The Place to Be","url":"https://www.stockton.gov.uk/article/9885/The-Place-to-Be"},"type":"Feature"},
		{"geometry":{"coordinates":[-1.32523,54.52247],"type":"Point"},"properties":{"_source":"stockton-on-tees_council","address":"The Rings Ingleby Barwick TS17 5LL","contact":"01642 308665","description":"Facilities: Able to bring own food and drinks, accessible entrance, accessible toilets, baby changing facilities, charging facilities for phones and other devices, free car park, free Wi-Fi, TV, hot and cold refreshments, and access to a kitchen with full facilities","title":"The Rings Community Hub","url":"https://www.stockton.gov.uk/article/9682/The-Rings-Community-Hub"},"type":"Feature"},
		{"geometry":{"coordinates":[-1.31777,54.56493],"type":"Point"},"properties":{"_source":"stockton-on-tees_council","address":"Palmerston Street Stockton-on-Tees TS18 1NU","contact":"01642617629","description":"Facilities: Accessible entrance, free Wi-Fi, accessible toilets, hot and cold refreshments and free car parking.","title":"The Salvation Army","url":"https://www.stockton.gov.uk/article/10256/The-Salvation-Army"},"type":"Feature"},
		{"geometry":{"coordinates":[-1.30390,54.57188],"type":"Point"},"properties":{"_source":"stockton-on-tees_council","address":"Northport Road Portrack Stockton TS18 2HX","contact":"01642 613345","description":"Facilities: Accessible entrance, free Wi-Fi, charging facilities, hot and cold refreshments, book borrowing, accessible toilets, baby changing facilities, able to bring own food and drinks, and advice and support.","title":"The Willows Community Centre","url":"https://www.stockton.gov.uk/article/9684/The-Willows-Community-Centre"},"type":"Feature"},
		{"geometry":{"coordinates":[-1.29084,54.53878],"type":"Point"},"properties":{"_source":"stockton-on-tees_council","address":"Wrightson House Pavilion Shopping Centre Thornaby TS17 7EW","contact":"01642 528117","description":"Facilities: Accessible entrance, free Wi-Fi, free devices to use, reading materials, book borrowing, accessible toilets, baby changing facilities, advice and support, and a Customer Service Centre.","title":"Thornaby Central Library","url":"https://www.stockton.gov.uk/article/9686/Thornaby-Central-Library"},"type":"Feature"},
		{"geometry":{"coordinates":[-1.29043,54.53490],"type":"Point"},"properties":{"_source":"stockton-on-tees_council","address":"Tedder Avenue Thornaby TS17 9PJ","contact":"01642 528525","description":"Facilities: Accessible entrance, free Wi-Fi, charging facilities, hot and cold refreshments available to purchase, reading materials, book borrowing, accessible toilets, baby changing facilities, activities, children's play equipment, outdoor space, advice and support, able to bring own food and drinks, and food bank vouchers.","title":"Thornaby Family Hub","url":"https://www.stockton.gov.uk/article/9687/Thornaby-Family-Hub"},"type":"Feature"},
		{"geometry":{"coordinates":[-1.30317,54.55490],"type":"Point"},"properties":{"_source":"stockton-on-tees_council","address":"Within Riverbank Children&apos;s Centre Gilmour Street Thornaby TS17 6PF","contact":"01642 528525","description":"Facilities: Accessible entrance, free devices to use, reading materials, book borrowing, and free car parking.","title":"Thornaby Library, Gilmour Street","url":"https://www.stockton.gov.uk/article/9688/Thornaby-Library-Gilmour-Street"},"type":"Feature"},
		{"geometry":{"coordinates":[-1.29074,54.53876],"type":"Point"},"properties":{"_source":"stockton-on-tees_council","address":"Thornaby Pavilion Wrightson House Stockton-on-Tees TS17 9EW","description":"Facilities: Able to bring own food and drinks, accessible entrance, accessible toilets, baby changing facilities, charging facilities for phones and other devices, free car park, free Wifi, hot and cold refreshments","title":"Thornaby Pavilion Indoor Bowls Hall - Warm Welcome Social","url":"https://www.stockton.gov.uk/article/10974/Thornaby-Pavilion-Indoor-Bowls-Hall-Warm-Welcome-Social"},"type":"Feature"},
		{"geometry":{"coordinates":[-1.30579,54.55048],"type":"Point"},"properties":{"_source":"stockton-on-tees_council","address":"Thornaby Road Thornaby TS17 8AA","contact":"01642 616727","description":"Facilities: Accessible entrance, free Wi-Fi, accessible toilets, baby changing facilities, free car parking, hot and cold refreshments available to purchase.","title":"Thornaby Pool","url":"https://www.stockton.gov.uk/article/10254/Thornaby-Pool"},"type":"Feature"},
		{"geometry":{"coordinates":[-1.30254,54.55366],"type":"Point"},"properties":{"_source":"stockton-on-tees_council","address":"86c Peel Street Stockton-On-Tees TS17 6JL","description":"Facilities: accessible entrance, accessible toilets, charging facilities for phones and other devices, hot and cold refreshments, reading materials.","title":"Victoria Park Cafe","url":"https://www.stockton.gov.uk/article/11153/Victoria-Park-Cafe"},"type":"Feature"},
		{"geometry":{"coordinates":[-1.33495,54.55457],"type":"Point"},"properties":{"_source":"stockton-on-tees_council","address":"Darlington Road Stockton-on-Tees TS18 5BE","contact":"01642 965518","description":"Facilities: accessible entrance, accessible toilets, baby changing facilities, charging facilities for phones and other devices, free carpark, free Wifi, hot and cold refreshments","title":"West End Bowling Club","url":"https://www.stockton.gov.uk/article/9811/West-End-Bowling-Club"},"type":"Feature"},
		{"geometry":{"coordinates":[-1.35434,54.50833],"type":"Point"},"properties":{"_source":"stockton-on-tees_council","address":"41 High Street Yarm TS15 9BH","contact":"01642 528152","description":"Facilities: Accessible entrance, free Wi-Fi, free devices to use, reading materials, book borrowing, accessible toilets, baby changing facilities, outdoor space, and activities.","title":"Yarm Library","url":"https://www.stockton.gov.uk/article/9690/Yarm-Library"},"type":"Feature"},
		{"geometry":{"coordinates":[-1.35296,54.50969],"type":"Point"},"properties":{"_source":"stockton-on-tees_council","address":"Chapel Yard Yarm TS15 9AJ","contact":"07710 068302","description":"Facilities: Accessible entrance, accessible toilets, baby changing facilities, charging facilities for phones and other devices, free car park, hot and cold refreshments and able to bring own food and drinks.","title":"Yarm Methodist Church Hall","url":"https://www.stockton.gov.uk/article/9691/Yarm-Methodist-Church-Hall"},"type":"Feature"}
	]
}
