{
	"type": "FeatureCollection",
	"features": [
		{"geometry":{"coordinates":[-1.35891,54.52005],"type":"Point"},"properties":{"_source":"warm_welcome","address":"Egglescliffe Community Centre, Cleveland TS16 0EH","description":"Book room. We offer books to read or take home. We offer jigsaws. Always one on the table, come fit some pieces in. Jigsaws available to take home. Free tea/coffee and biscuits. Friendly volunteers. Laptop connected through the Wi-Fi, so you can surf the internet. Free Wi-Fi. Ladies, gents and disabled toilet available. Lots of information about what’s happening in the community centre.","hours":{"_text":"Monday: 10:00 - 12:00 / 14:00 - 16:00, Tuesday: 10:00 - 12:00 / 14:00 - 16:00, Wednesday: 10:00 - 12:00 / 14:00 - 16:00, Thursday: 10:00 - 12:00 / 14:00 - 16:00, Friday: 10:00 - 12:00 / 14:00 - 16:00","opening":"Mo 10:00-12:00,14:00-16:00; Tu 10:00-12:00,14:00-16:00; We 10:00-12:00,14:00-16:00; Th 10:00-12:00,14:00-16:00; Fr 10:00-12:00,14:00-16:00"},"title":"Egglescliffe community centre"},"type":"Feature"},
		{"geometry":{"coordinates":[-1.23975,54.55660],"type":"Point"},"properties":{"_source":"warm_welcome","address":"Holy Name Of Mary Church Hall, Middlesbrough, Cleveland TS5 6QT","description":"Cafe AMALA session, last Thursday of the month - 2:30pm-3:30pm. Join us for a cuppa tea and some good company. After our Chair Yoga and Exercise session. All welcome, regardless of joining session before.","hours":{"_text":"Thursday: 02:30 - 03:30 Monthly","opening":"Th 02:30-03:30"},"title":"Holy Name of Mary Church Hall"},"type":"Feature"},
		{"geometry":{"coordinates":[-1.24409,54.56247],"type":"Point"},"properties":{"_source":"warm_welcome","address":"1a St Barnabas Road, Middlesbrough, North Yorkshire TS5 6JR TS5 6JR","description":"Our Community Grocery Cafe is open on Thursday mornings 10-12.30 providing a warm friendly space serving hot drinks (20p), scones (20p) and toast (20p). Soup/roll (50p) served from 11.30. All drinks come with free refills.","hours":{"_text":"Thursday: 10:00 - 12:30","opening":"Th 10:00-12:30"},"title":"Middlesbrough Community Grocery Cafe"},"type":"Feature"},
		{"geometry":{"coordinates":[-1.21196,54.57096],"type":"Point"},"properties":{"_source":"warm_welcome","address":"The Hub, Cleveland TS3 6JB","description":"Chair Yoga and Exercise - Cafe AMALA sessions, free for all to attend. Chair Yoga and Exercise is on Mondays 10:30-11:30 am, Cafe Sessions 2nd Monday of the month. If wishing to attend Chair Yoga and Exercise and it is your 1st session, please come along 10 mins early to register. Sessions are warm, friendly and welcome to all. Wheelchair and Mobility scooter friendly.","hours":{"_text":"Monday: 10:30 - 11:30","opening":"Mo 10:30-11:30"},"title":"North Ormesby Community Hub"},"type":"Feature"},
		{"geometry":{"coordinates":[-1.26332,54.55534],"type":"Point"},"properties":{"_source":"warm_welcome","address":"2-10 Whinney Banks Road, Middlesbrough, Cleveland TS5 4LA TS5 4LA","description":"Renew@10 - A space where it is OK not to be OK! A place where you will always get a warm welcome and a hot drink with cake","hours":{"_text":"Wednesday: 10:00 - 12:00","opening":"We 10:00-12:00"},"title":"St Martins Church"},"type":"Feature"},
		{"geometry":{"coordinates":[-1.16509,54.52864],"type":"Point"},"properties":{"_source":"warm_welcome","address":"21 Morton Carr Lane, Cleveland TS7 0JU","description":"Cafe AMALA session, 1st Wednesday of the month - 2:30pm-3:30pm. Join us for a cuppa tea and some good company. After our Chair Yoga and Exercise session. All welcome, regardless of joining session before.","hours":{"_text":"Wednesday: 14:30 - 15:30 Monthly","opening":"We 14:30-15:30"},"title":"St Mary's Church Hall (Morton Carr Lane, Nunthorpe)"},"type":"Feature"},
		{"geometry":{"coordinates":[-1.32384,54.55656],"type":"Point"},"properties":{"_source":"warm_welcome","address":"St. Peters Church, Stockton on Tees, Cleveland TS18 3PJ","description":"A warm welcome is given to anyone wanting to come along and have a cup of tea or coffee and a chat. Other refreshments are also on offer including biscuits and cakes","hours":{"_text":"Thursday: 10:00 - 11:30","opening":"Th 10:00-11:30"},"title":"St Peter's Church"},"type":"Feature"},
		{"geometry":{"coordinates":[-1.31440,54.51626],"type":"Point"},"properties":{"_source":"warm_welcome","address":"St. Francis of Assisi church, Ingleby Barwick, Yorkshire Ts17 0wd","description":"Hall with free food and company. Open every Friday 11am until 1pm","hours":{"_text":"Friday: 11:00 - 13:00","opening":"Fr 11:00-13:00"},"title":"St. Francis of Assisi Church, Ingleby Barwick"},"type":"Feature"},
		{"geometry":{"coordinates":[-1.32221,54.56052],"type":"Point"},"properties":{"_source":"warm_welcome","address":"6-8 Yarm Road, Stockton-on-Tees, Teesside TS18 3NA","description":"We provide a range of community support groups throughout the week, all our groups are for adults only (18+). Come along for a cuppa and a chat in a warm, safe, friendly environment! Groups include: - The Place To Be: Weeknights, Monday - Friday, 5pm - 8pm. - Men's Group: Mondays and Fridays, 12pm - 3pm. - Art Group: Wednesdays, 10am - 12pm, 1pm - 3pm. - LGBT+ Group: Thursdays, 10am - 12pm. - Bereavement & Grief* (6-week course): Thursdays: 1:30pm - 3:30pm - Coffee Morning (Grief-related discussion group): Friday 10am - 12pm. - Healthier Me* (6-week course): Fridays 1:30pm - 3:30pm. *if you are interested in our 6-week wellbeing courses, please get in touch beforehand to book a place and find out the next start date.","hours":{"_text":"Monday: 12:00 - 15:00 / 17:00 - 20:00, Tuesday: 17:00 - 20:00, Wednesday: 10:00 - 15:00 / 17:00 - 20:00, Thursday: 10:00 - 15:30 / 17:00 - 20:00, Friday: 10:00 - 15:30 / 17:00 - 20:00","opening":"Mo 12:00-15:00,17:00-20:00; Tu 17:00-20:00; We 10:00-15:00,17:00-20:00; Th 10:00-15:30,17:00-20:00; Fr 10:00-15:30,17:00-20:00"},"title":"Starfish Community Social Hub"},"type":"Feature"},
		{"geometry":{"coordinates":[-1.31226,54.56591],"type":"Point"},"properties":{"_source":"warm_welcome","address":"Stockton Parish Church, Stockton-on-Tees, Cleveland TS18 1SP","description":"We open every Wednesday from 12-2pm. We host a soup lunch and everyone is welcome.","hours":{"_text":"Wednesday: 12:00 - 14:00","opening":"We 12:00-14:00"},"title":"Stockton Parish Church"},"type":"Feature"},
		{"geometry":{"coordinates":[-1.24236,54.56831],"type":"Point"},"properties":{"_source":"warm_welcome","address":"Elite Spiritual Church, Cleveland TS1 4LL","description":"A lovely welcome is awaiting you here in our warm space which is open to everyone.","hours":{"_text":"Wednesday: 06:30 - 07:30, Sunday: 05:30 - 06:30","opening":"We 06:30-07:30; Su 05:30-06:30"},"title":"The Elite Christian Spiritualist Church"},"type":"Feature"},
		{"geometry":{"coordinates":[-1.19315,54.47141],"type":"Point"},"properties":{"_source":"warm_welcome","address":"Town Close, North Rd, Stokesley, North Yorkshire","description":"Co.munity library with events and activities serving Stokesley and the surrounding areas","hours":{"_text":"Monday: 09:30 - 17:00, Tuesday: 09:30 - 18:00, Thursday: 09:30 - 17:00, Friday: 09:30 - 16:00, Saturday: 09:30 - 13:00","opening":"Mo 09:30-17:00; Tu 09:30-18:00; Th 09:30-17:00; Fr 09:30-16:00; Sa 09:30-13:00"},"title":"The Globe Community Library at Stokesley"},"type":"Feature"},
		{"geometry":{"coordinates":[-1.32611,54.52341],"type":"Point"},"properties":{"_source":"warm_welcome","address":"Ingleby Barwick Town Council, Cleveland TS17 5LL","description":"Cafe AMALA session, 3rd Friday of the month - 2:30pm-3:30pm. Join us for a cuppa tea and some good company. After our Chair Yoga and Exercise session. All welcome, regardless of joining session before.","hours":{"_text":"Friday: 14:30 - 15:30 Monthly","opening":"Fr 14:30-15:30"},"title":"The Rings Community HubCafe AMALA"},"type":"Feature"},
		{"geometry":{"coordinates":[-1.29321,54.55423],"type":"Point"},"properties":{"_source":"warm_welcome","address":"Teesside Vineyard Church, Cleveland TS17 7HD","description":"The Vine Cafe is open to everyone. We are open on Wednesdays 10:00 -12:00 and provide a free warm drink and snack and a place for people to connect with others.","hours":{"_text":"Wednesday: 10:00 - 12:00","opening":"We 10:00-12:00"},"title":"The Vine Cafe"},"type":"Feature"},
		{"geometry":{"coordinates":[-1.30369,54.57152],"type":"Point"},"properties":{"_source":"warm_welcome","address":"Northport Road, Portrack, Stockton On Tees, Cleveland TS18 2HX","description":"We are a small Community Centre based on the Portrack Estate.","hours":{"_text":"Monday: 09:00 - 16:00, Tuesday: 09:00 - 15:30, Wednesday: 09:00 - 16:00, Thursday: 09:00 - 15:30, Friday: 09:00 - 14:00, Saturday: 00:00 - Closed, Sunday: 00:00 - Closed","opening":"Mo 09:00-16:00; Tu 09:00-15:30; We 09:00-16:00; Th 09:00-15:30; Fr 09:00-14:00"},"title":"The Willows Community Centre"},"type":"Feature"},
		{"geometry":{"coordinates":[-1.22121,54.56936],"type":"Point"},"properties":{"_source":"warm_spaces","address":"Breckon Hill Community Centre, Breckon Hill Road, Middlesbrough, England, TS4 2DR, United Kingdom","description":"Free Food/Drink, People to chat to, Wheelchair Accessible, Toilets, Accessible Toilet, Child Friendly","hours":{"_text":"Tuesday 6.30pm-8.30pm","opening":"Tu 18:30-20:30"},"title":"FoodCycle Middlesbrough Breckon Hill","url":"https://www.foodcycle.org.uk"},"type":"Feature"},
		{"geometry":{"coordinates":[-1.32263,54.55844],"type":"Point"},"properties":{"_source":"warm_spaces","address":"5 Woodland Street, Stockton-on-Tees, England, TS18 3HZ, United Kingdom","description":"Free Food/Drink, Free Wi-Fi, Device Charging, People to chat to, Wheelchair Accessible, Toilets, Accessible Toilet, Parking, Child Friendly","hours":{"_text":"Tuesday 10am-1pm","opening":"Tu 10:00-13:00"},"title":"Yarm Road Methodist Church (Jubilee Church Teesside)","url":"https://www.jubileechurchteesside.com"},"type":"Feature"},
		{"geometry":{"coordinates":[-1.25930,54.54837],"type":"Point"},"properties":{"_source":"middlesbrough_council","description":"Acklam Road, Middlesbrough, TS5 7AB *","title":"Acklam Community Hub and Library"},"type":"Feature"},
		{"geometry":{"coordinates":[-1.22146,54.56938],"type":"Point"},"properties":{"_source":"middlesbrough_council","description":"Breckon Hill Road, Middlesbrough, TS4 2DS * Monday to Thursday, 8am to 4pm, and Friday, 8am to 1pm","title":"Breckon Hill Community Centre (families and elderly people)"},"type":"Feature"},
		{"geometry":{"coordinates":[-1.22750,54.56893],"type":"Point"},"properties":{"_source":"middlesbrough_council","description":"169 Victoria Road, Middlesbrough, TS1 3HR * Monday, Wednesday, and Friday, 11am to 3pm","title":"Community Information and BME Network CIC"},"type":"Feature"},
		{"geometry":{"coordinates":[-1.18111,54.55837],"type":"Point"},"properties":{"_source":"middlesbrough_council","description":"The Greenway, Thorntree, Middlesbrough, TS3 9PA * Monday to Friday, 2pm","title":"Community Ventures"},"type":"Feature"},
		{"geometry":{"coordinates":[-1.21637,54.54304],"type":"Point"},"properties":{"_source":"middlesbrough_council","description":"Broughton Avenue, Middlesbrough, TS4 3PZ * Tuesday, Thursday, and Friday, 9am - 5pm","title":"Easterside Community Hub and Library"},"type":"Feature"},
		{"geometry":{"coordinates":[-1.19663,54.56218],"type":"Point"},"properties":{"_source":"middlesbrough_council","description":"Homerton Road, Pallister Park, TS3 8QD * Tuesday, 10am to 1pm","title":"East Middlesbrough Events Centre"},"type":"Feature"},
		{"geometry":{"coordinates":[-1.22657,54.55900],"type":"Point"},"properties":{"_source":"middlesbrough_council","description":"Bishopton Road, Middlesbrough, TS4 2RP * Monday, Wednesday, and Friday, 9am - 5pm","title":"Grove Hill Community Hub and Library"},"type":"Feature"},
		{"geometry":{"coordinates":[-1.24082,54.52507],"type":"Point"},"properties":{"_source":"middlesbrough_council","description":"*","title":"Hemlington Community Hub and Library"},"type":"Feature"},
		{"geometry":{"coordinates":[-1.19781,54.53137],"type":"Point"},"properties":{"_source":"middlesbrough_council","description":"The Willows, Marton-in-Cleveland, Middlesbrough, TS7 8BL *","title":"Marton Community Hub and Library"},"type":"Feature"},
		{"geometry":{"coordinates":[-1.25297,54.55388],"type":"Point"},"properties":{"_source":"middlesbrough_council","description":"Cambridge Road, Linthorpe, Middlesbrough, TS5 5NN *","title":"Middlesbrough Baptist Church"},"type":"Feature"},
		{"geometry":{"coordinates":[-1.24684,54.57106],"type":"Point"},"properties":{"_source":"middlesbrough_council","description":"St. Paul's Road, Middlesbrough, TS1 5NQ *","title":"Newport Community Hub"},"type":"Feature"},
		{"geometry":{"coordinates":[-1.21137,54.57111],"type":"Point"},"properties":{"_source":"middlesbrough_council","description":"Derwent Street, North Ormesby, Middlesbrough, TS3 6JB * Tuesday, Thursday, Friday, 9am - 5pm","title":"North Ormesby Community Hub and Library"},"type":"Feature"},
		{"geometry":{"coordinates":[-1.20359,54.56383],"type":"Point"},"properties":{"_source":"middlesbrough_council","description":"Ormesby Road, Middlesbrough, TS3 7AR * Tuesday and Wednesday, 12pm to 2pm","title":"Pallister Park Centre"},"type":"Feature"},
		{"geometry":{"coordinates":[-1.23607,54.56999],"type":"Point"},"properties":{"_source":"middlesbrough_council","description":"Southfield Road, Middlesbrough, TS1 3BX * 7 days a week, 24 hours (students and staff only)","title":"Teesside University Library"},"type":"Feature"},
		{"geometry":{"coordinates":[-1.23493,54.57016],"type":"Point"},"properties":{"_source":"middlesbrough_council","description":"Campus Heart, Southfield Road, TS1 3BA * Monday to Sunday, usual opening hours","title":"Teesside University Students' Union"},"type":"Feature"},
		{"geometry":{"coordinates":[-1.18194,54.56302],"type":"Point"},"properties":{"_source":"middlesbrough_council","description":"Birkhall Road, Middlesbrough, TS3 9JW * Monday to Friday, 9am - 5pm","title":"Thorntree Community Hub and Library"},"type":"Feature"},
		{"geometry":{"coordinates":[-1.24292,54.56979],"type":"Point"},"properties":{"_source":"middlesbrough_council","description":"49 Clifton Street, Middlesbrough, TS1 4BX * To be confirmed","title":"Ubuntu Multicultural Centre CIC"},"type":"Feature"},
		{"geometry":{"coordinates":[-1.14663,54.55790],"type":"Point"},"properties":{"_source":"redcar_and_cleveland_council","address":"25K Youth &amp; Community Centre, Ayton Drive, Redcar, TS10 4LR, United Kingdom","hours":{"_text":"Friday (except school holidays) - 10am until 2pm \n\t Available space - communal area","opening":"Fr 10:00-14:00"},"title":"Birkdale Drive Community Centre","url":"https://www.redcar-cleveland.gov.uk/cost-of-living-support/warm-spaces/25k-youth-and-community-centre"},"type":"Feature"},
		{"geometry":{"coordinates":[-1.14588,54.55987],"type":"Point"},"properties":{"_source":"redcar_and_cleveland_council","address":"25K Youth &amp; Community Centre, Ayton Drive, Redcar, TS10 4LR, United Kingdom","hours":{"_text":"Friday (except school holidays) - 10am until 2pm \n\t Available space - communal area","opening":"Fr 10:00-14:00"},"title":"Christ Church","url":"https://www.redcar-cleveland.gov.uk/cost-of-living-support/warm-spaces/25k-youth-and-community-centre"},"type":"Feature"},
		{"geometry":{"coordinates":[-1.14215,54.56932],"type":"Point"},"properties":{"_source":"redcar_and_cleveland_council","address":"Grangetown Family Hub, Grange Farm Road, Grangetown, TS6 7HP, United Kingdom","hours":{"_text":"Tuesday - 10am until 11.30am","opening":"Tu 10:00-11:30"},"title":"Grangetown Library","url":"https://www.redcar-cleveland.gov.uk/cost-of-living-support/warm-spaces/grangetown-family-hub"},"type":"Feature"},
		{"geometry":{"coordinates":[-1.14070,54.57040],"type":"Point"},"properties":{"_source":"redcar_and_cleveland_council","address":"Grangetown Family Hub, Grange Farm Road, Grangetown, TS6 7HP, United Kingdom","hours":{"_text":"Tuesday - 10am until 11.30am","opening":"Tu 10:00-11:30"},"title":"Grangetown United","url":"https://www.redcar-cleveland.gov.uk/cost-of-living-support/warm-spaces/grangetown-family-hub"},"type":"Feature"},
		{"geometry":{"coordinates":[-1.06519,54.53463],"type":"Point"},"properties":{"_source":"redcar_and_cleveland_council","address":"Grangetown Family Hub, Grange Farm Road, Grangetown, TS6 7HP, United Kingdom","hours":{"_text":"Tuesday - 10am until 11.30am","opening":"Tu 10:00-11:30"},"title":"Guisborough Family Hub","url":"https://www.redcar-cleveland.gov.uk/cost-of-living-support/warm-spaces/grangetown-family-hub"},"type":"Feature"},
		{"geometry":{"coordinates":[-1.05657,54.53518],"type":"Point"},"properties":{"_source":"redcar_and_cleveland_council","address":"Grangetown Family Hub, Grange Farm Road, Grangetown, TS6 7HP, United Kingdom","hours":{"_text":"Tuesday - 10am until 11.30am","opening":"Tu 10:00-11:30"},"title":"Guisborough Library","url":"https://www.redcar-cleveland.gov.uk/cost-of-living-support/warm-spaces/grangetown-family-hub"},"type":"Feature"},
		{"geometry":{"coordinates":[-1.11664,54.56907],"type":"Point"},"properties":{"_source":"redcar_and_cleveland_council","address":"Grangetown Family Hub, Grange Farm Road, Grangetown, TS6 7HP, United Kingdom","hours":{"_text":"Tuesday - 10am until 11.30am","opening":"Tu 10:00-11:30"},"title":"Lazenby Village Hall","url":"https://www.redcar-cleveland.gov.uk/cost-of-living-support/warm-spaces/grangetown-family-hub"},"type":"Feature"},
		{"geometry":{"coordinates":[-1.17878,54.54726],"type":"Point"},"properties":{"_source":"redcar_and_cleveland_council","address":"Loftus Town Hall, High Street, Loftus, TS13 4HG, United Kingdom","hours":{"_text":"Monday - 10am until 12pm","opening":"Mo 10:00-12:00"},"title":"Ormesby Library","url":"https://www.redcar-cleveland.gov.uk/cost-of-living/warm-spaces/loftus-town-hall"},"type":"Feature"},
		{"geometry":{"coordinates":[-1.17122,54.57107],"type":"Point"},"properties":{"_source":"redcar_and_cleveland_council","address":"Sacred Heart Church, Lobster Road, Redcar, TS10 1SH, United Kingdom","hours":{"_text":"Friday - 9:30am until 11:30am","opening":"Fr 09:30-11:30"},"title":"South Bank Family Hub","url":"https://www.redcar-cleveland.gov.uk/cost-of-living-support/warm-spaces/sacred-heart-church"},"type":"Feature"},
		{"geometry":{"coordinates":[-1.16775,54.57114],"type":"Point"},"properties":{"_source":"redcar_and_cleveland_council","address":"Sacred Heart Church, Lobster Road, Redcar, TS10 1SH, United Kingdom","hours":{"_text":"Friday - 9:30am until 11:30am","opening":"Fr 09:30-11:30"},"title":"South Bank Library","url":"https://www.redcar-cleveland.gov.uk/cost-of-living-support/warm-spaces/sacred-heart-church"},"type":"Feature"},
		{"geometry":{"coordinates":[-1.31994,54.51858],"type":"Point"},"properties":{"_source":"stockton-on-tees_council","address":"Blair Avenue Ingleby Barwick TS17 5BL","contact":"01642 654650","description":"Facilities: Hot and cold refreshments, reading materials, accessible entrance, accessible toilets and free car parking.","loc_pcd":true,"title":"All Saints CE Academy","url":"https://www.stockton.gov.uk/article/9389/All-Saints-CE-Academy"},"type":"Feature"},
		{"geometry":{"coordinates":[-1.31645,54.56427],"type":"Point"},"properties":{"_source":"stockton-on-tees_council","address":"60 Dovecot Street Stockton TS18 1LL","contact":"01642 525199","description":"Facilities: Accessible entrance, free Wi-Fi, charging facilities, accessible toilets, baby changing facilities, able to bring own food and drinks, hot and cold refreshments available for purchase and activities.","loc_pcd":true,"title":"ARC, Stockton Arts Centre","url":"https://www.stockton.gov.uk/article/9391/ARC-Stockton-Arts-Centre"},"type":"Feature"},
		{"geometry":{"coordinates":[-1.31748,54.55780],"type":"Point"},"properties":{"_source":"stockton-on-tees_council","address":"Bowesfield Lane Stockton TS18 3ET","description":"Facilities: Able to bring own food and drinks, accessible entrance, accessible toilets, charging facilities for phones and other devices, hot and cold refreshments, outdoor space and activities","loc_pcd":true,"title":"Arlington Park","url":"https://www.stockton.gov.uk/article/11167/Arlington-Park"},"type":"Feature"},
		{"geometry":{"coordinates":[-1.35778,54.49886],"type":"Point"},"properties":{"_source":"stockton-on-tees_council","address":"Challoner Road Yarm TS15 9EL","contact":"07543 472487","description":"Facilities: Accessible entrance, accessible toilets, able to bring own food and drinks, baby changing facilities, charging facilities for phones and other devices, and hot and cold refreshments.","loc_pcd":true,"title":"Challoner House Community Centre","url":"https://www.stockton.gov.uk/article/9640/Challoner-House-Community-Centre"},"type":"Feature"},
		{"geometry":{"coordinates":[-1.35891,54.52004],"type":"Point"},"properties":{"_source":"stockton-on-tees_council","address":"Durham Lane Eaglescliffe TS16 0EH","contact":"07395 138288","description":"Facilities: Accessible entrance, accessible toilets, baby changing facilities, book borrowing and swap, free car park, free devices to use (computers, tablets, phones), free Wi-Fi, hot and cold refreshments and reading materials.","loc_pcd":true,"title":"Egglescliffe Community Centre","url":"https://www.stockton.gov.uk/article/9696/Egglescliffe-Community-Centre"},"type":"Feature"},
		{"geometry":{"coordinates":[-1.28952,54.53033],"type":"Point"},"properties":{"_source":"stockton-on-tees_council","address":"91 Eltham Crescent Thornaby TS17 9RG","contact":"01642 688303","description":"Facilities: Accessible entrance and hot and cold refreshments.","loc_pcd":true,"title":"Eltham Community Centre","url":"https://www.stockton.gov.uk/article/9697/Eltham-Community-Centre"},"type":"Feature"},
		{"geometry":{"coordinates":[-1.35094,54.56272],"type":"Point"},"properties":{"_source":"stockton-on-tees_council","address":"Fairfield Road TS19 7AJ","contact":"01642 528020","description":"Facilities: Accessible entrance, free Wi-Fi, free devices to use, reading materials, book borrowing, and free car parking.","loc_pcd":true,"title":"Fairfield Library","url":"https://www.stockton.gov.uk/article/9698/Fairfield-Library"},"type":"Feature"},
		{"geometry":{"coordinates":[-1.30527,54.55123],"type":"Point"},"properties":{"_source":"stockton-on-tees_council","address":"The Youthy 211-213 Thornaby Road Thornaby TS17 6LS","description":"Facilities: able to bring own food and drinks , accessible entrance, accessible toilets, food bank facility free car park, free WiFi, hot and cold refreshments and reading materials.","loc_pcd":true,"title":"Five Lamps The Youthy","url":"https://www.stockton.gov.uk/article/11572/Five-Lamps-The-Youthy"},"type":"Feature"},
		{"geometry":{"coordinates":[-1.34441,54.55660],"type":"Point"},"properties":{"_source":"stockton-on-tees_council","address":"Greens Lane Hartburn TS18 5HP","contact":"01642 763554","description":"Facilities: Able to bring own food and drinks, accessible entrance, accessible toilets, baby changing facilities, free carpark, hot and cold refreshments.","loc_pcd":true,"title":"Greens Lane Methodist Church","url":"https://www.stockton.gov.uk/article/9700/Greens-Lane-Methodist-Church"},"type":"Feature"},
		{"geometry":{"coordinates":[-1.31994,54.51858],"type":"Point"},"properties":{"_source":"stockton-on-tees_council","address":"Blair Avenue Ingleby Barwick TS17 5BL","contact":"01642 528528","description":"Facilities: Accessible entrance, free Wi-Fi, free devices to use, hot and cold refreshments available to purchase, reading materials, book borrowing, accessible toilets, baby changing facilities, free car parking, and activities.","loc_pcd":true,"title":"Ingleby Barwick Library","url":"https://www.stockton.gov.uk/article/9702/Ingleby-Barwick-Library"},"type":"Feature"},
		{"geometry":{"coordinates":[-1.31013,54.56117],"type":"Point"},"properties":{"_source":"stockton-on-tees_council","address":"Unit 4 Castlegate Quay TS18 3BB","contact":"01642 378245","description":"Facilities: Able to bring own food and drinks, accessible entrance, accessible toilets, baby changing facilities, book borrowing and swap, charging facilities for phones and other devices, free car park, free devices to use (computers, tablets, phones), free Wi-Fi, hot and cold refreshments, outdoor space and activities, and reading materials.","loc_pcd":true,"title":"Lakota Hub","url":"https://www.stockton.gov.uk/article/9704/Lakota-Hub"},"type":"Feature"},
		{"geometry":{"coordinates":[-1.32207,54.57133],"type":"Point"},"properties":{"_source":"stockton-on-tees_council","address":"Durham Road TS19 0DE","contact":"01642 868331","description":"Facilities: Accessible entrance, able to bring own food and drinks, free car parking, and hot and cold refreshments.","loc_pcd":true,"title":"Newtown Community Resource Centre","url":"https://www.stockton.gov.uk/article/9642/Newtown-Community-Resource-Centre"},"type":"Feature"},
		{"geometry":{"coordinates":[-1.31629,54.55770],"type":"Point"},"properties":{"_source":"stockton-on-tees_council","address":"Bowesfield Lane Stockton TS18 3SY","contact":"07868 492852","description":"Facilities: Able to bring own food and drinks, accessible entrance, accessible toilets, charging facilities for phones and other devices, free Wi-Fi, and hot and cold refreshments.","loc_pcd":true,"title":"Rivers of Life Christian Fellowship","url":"https://www.stockton.gov.uk/article/9772/Rivers-of-Life-Christian-Fellowship"},"type":"Feature"},
		{"geometry":{"coordinates":[-1.29994,54.54950],"type":"Point"},"properties":{"_source":"stockton-on-tees_council","address":"Thorntree Road Thornaby TS17 8AW","contact":"01642 688303","description":"Facilities: Accessible entrance, free Wi-Fi, charging facilities, hot and cold refreshments, able to bring own food and drinks, and free car parking.","loc_pcd":true,"title":"Robert Atkinson Centre","url":"https://www.stockton.gov.uk/article/9650/Robert-Atkinson-Centre"},"type":"Feature"},
		{"geometry":{"coordinates":[-1.31703,54.56184],"type":"Point"},"properties":{"_source":"stockton-on-tees_council","address":"78 Laurel House Skinner Street Stockton TS18 1EG","contact":"07538 894834","description":"Facilities: Accessible entrance, accessible toilets, baby changing facilities, charging facilities for phones and other devices, children's play equipment, free Wi-Fi, hot and cold refreshments and able to bring own food and drinks.","loc_pcd":true,"title":"Roseberry Community Consortium Community Activity Hub","url":"https://www.stockton.gov.uk/article/9651/Roseberry-Community-Consortium-Community-Activity-Hub"},"type":"Feature"},
		{"geometry":{"coordinates":[-1.31236,54.56699],"type":"Point"},"properties":{"_source":"stockton-on-tees_council","address":"Church Road Stockton TS18 1TY","contact":"01642 660610","description":"Facilities: Accessible entrance, free Wi-Fi, accessible toilets, and baby changing facilities.","loc_pcd":true,"title":"Splash","url":"https://www.stockton.gov.uk/article/9654/Splash"},"type":"Feature"},
		{"geometry":{"coordinates":[-1.32859,54.57042],"type":"Point"},"properties":{"_source":"stockton-on-tees_council","address":"Bishopton Road Stockton TS18 4PB","contact":"07876 343793","description":"Facilities: Able to bring own food and drinks, accessible entrance, accessible toilets, baby changing facilities, charging facilities for phones and other devices, free car parking, free Wi-Fi, hot and cold refreshments, and reading materials","loc_pcd":true,"title":"St Paul's Church","url":"https://www.stockton.gov.uk/article/9661/St-Paul-s-Church"},"type":"Feature"},
		{"geometry":{"coordinates":[-1.32384,54.55656],"type":"Point"},"properties":{"_source":"stockton-on-tees_council","address":"Yarm Road Stockton TS18 3PJ","contact":"07958 345177","description":"Facilities: Free Wi-Fi, hot and cold refreshments, accessible toilets, baby changing facilities, and free car parking.","loc_pcd":true,"title":"St Peter's Church","url":"https://www.stockton.gov.uk/article/9662/St-Peter-s-Church"},"type":"Feature"},
		{"geometry":{"coordinates":[-1.30964,54.56624],"type":"Point"},"properties":{"_source":"stockton-on-tees_council","address":"The Square Stockton TS18 1TE","contact":"01642 602223","description":"Facilities: Accessible entrance, free Wi-Fi, hot and cold refreshments available to purchase, accessible toilets, and baby changing facilities. Capacity for 20 people and aimed at those over 60. For over 60s, a three-course hot meal with tea or coffee is available for £3. This is capped at 20 people, so you must call the week before you wish to attend.","loc_pcd":true,"title":"Stockton Baptist Church","url":"https://www.stockton.gov.uk/article/9667/Stockton-Baptist-Church"},"type":"Feature"},
		{"geometry":{"coordinates":[-1.31120,54.56659],"type":"Point"},"properties":{"_source":"stockton-on-tees_council","address":"Church Road Stockton TS18 1TU","contact":"01642 526517","description":"Facilities: Accessible entrance, free Wi-Fi, free devices to use, reading materials, book borrowing, accessible toilets, baby changing facilities, advice and support, able to bring own food and drinks, and a Customer Service Centre.","loc_pcd":true,"title":"Stockton Central Library","url":"https://www.stockton.gov.uk/article/9668/Stockton-Central-Library"},"type":"Feature"},
		{"geometry":{"coordinates":[-1.32384,54.55656],"type":"Point"},"properties":{"_source":"stockton-on-tees_council","address":"Yarm Road Stockton TS18 3PJ","contact":"01642 528525","description":"Facilities: Accessible entrance, free Wi-Fi, charging facilities, hot and cold refreshments available to purchase, reading materials, book borrowing, accessible toilets, baby changing facilities, activities, children's play equipment, and food bank vouchers.","loc_pcd":true,"title":"Stockton Family Hub","url":"https://www.stockton.gov.uk/article/9669/Stockton-Family-Hub"},"type":"Feature"},
		{"geometry":{"coordinates":[-1.31226,54.56590],"type":"Point"},"properties":{"_source":"stockton-on-tees_council","address":"High Street Stockton TS18 1SP","contact":"01642 611734","description":"Facilities: Accessible entrance, free Wi-Fi, hot and cold refreshments, reading materials, accessible toilets, baby changing facilities, activities, children's play equipment, advice and support, and able to bring own food and drinks.","loc_pcd":true,"title":"Stockton Parish Church","url":"https://www.stockton.gov.uk/article/9671/Stockton-Parish-Church"},"type":"Feature"},
		{"geometry":{"coordinates":[-1.35892,54.53207],"type":"Point"},"properties":{"_source":"stockton-on-tees_council","address":"Eaglescliffe TS16 0RD","description":"Facilities: Accessible entrance, accessible toilets, activities, advice and support, baby changing, book borrowing, children's play equipment, free car parking, free WIFI, hot and cold refreshments available to purchase, outdoor space, signposting towards help and services","loc_pcd":true,"title":"Tees Valley Community Church","url":"https://www.stockton.gov.uk/article/10590/Tees-Valley-Community-Church"},"type":"Feature"},
		{"geometry":{"coordinates":[-1.29405,54.55437],"type":"Point"},"properties":{"_source":"stockton-on-tees_council","address":"Acklam Road Thornaby TS17 7HB","contact":"01642 780565","description":"Facilities: Accessible toilets, baby changing facilities, children's play equipment, free Wi-Fi, hot and cold refreshments, and able to bring own food and drinks.","loc_pcd":true,"title":"Teesside Vineyard Church","url":"https://www.stockton.gov.uk/article/9673/Teesside-Vineyard-Church"},"type":"Feature"},
		{"geometry":{"coordinates":[-1.30067,54.55327],"type":"Point"},"properties":{"_source":"stockton-on-tees_council","address":"34 Havelock Street Thornaby TS17 6HN","contact":"07980 808920","description":"Facilities: Accessible entrance, accessible toilets, charging facilities for phones and other devices, food bank facility, free Wifi and hot and cold refreshments.","loc_pcd":true,"title":"The Community Hub","url":"https://www.stockton.gov.uk/article/9675/The-Community-Hub"},"type":"Feature"},
		{"geometry":{"coordinates":[-1.34174,54.56311],"type":"Point"},"properties":{"_source":"stockton-on-tees_council","address":"195 Oxbridge Lane Grangefield TS18 4HY","contact":"01642 688303","description":"Facilities: Free Wi-Fi, charging facilities, hot and cold refreshments, accessible toilets, and free car parking.","loc_pcd":true,"title":"The Grangefield Centre","url":"https://www.stockton.gov.uk/article/9678/The-Grangefield-Centre"},"type":"Feature"},
		{"geometry":{"coordinates":[-1.32345,54.55904],"type":"Point"},"properties":{"_source":"stockton-on-tees_council","address":"34 Yarm Road TS18 3NG","contact":"01642 647086","description":"Facilities: Accessible entrance, accessible toilets, free car park, free Wi-Fi, hot and cold refreshments, and reading materials.","loc_pcd":true,"title":"The Lighthouse Mental Health Drop-In Centre","url":"https://www.stockton.gov.uk/article/9646/The-Lighthouse-Mental-Health-Drop-In-Centre"},"type":"Feature"},
		{"geometry":{"coordinates":[-1.35577,54.50072],"type":"Point"},"properties":{"_source":"stockton-on-tees_council","address":"The Meadowings Stockton-on-Tees Yarm TS15 9QS","contact":"03456780555","description":"Facilities: Able to bring own food/ and drinks, accessible entrance, accessible toilets, book borrowing and swap, charging facilities for phones and other devices, free car park, hot and cold refreshments, reading materials.","loc_pcd":true,"title":"The Meadowings Community Centre","url":"https://www.stockton.gov.uk/article/11152/The-Meadowings-Community-Centre"},"type":"Feature"},
		{"geometry":{"coordinates":[-1.32284,54.56014],"type":"Point"},"properties":{"_source":"stockton-on-tees_council","address":"Starfish Building 6/8 Yarm Road Stockton TS18 3NA","contact":"07723 605525","description":"Facilities: Able to bring own food and drinks, accessible entrance, accessible toilets, free car park, free devices to use including computers, tablets and phones, free Wi-Fi, and hot and cold refreshments.","loc_pcd":true,"title":"The Place to Be","url":"https://www.stockton.gov.uk/article/9885/The-Place-to-Be"},"type":"Feature"},
		{"geometry":{"coordinates":[-1.32610,54.52340],"type":"Point"},"properties":{"_source":"stockton-on-tees_council","address":"The Rings Ingleby Barwick TS17 5LL","contact":"01642 308665","description":"Facilities: Able to bring own food and drinks, accessible entrance, accessible toilets, baby changing facilities, charging facilities for phones and other devices, free car park, free Wi-Fi, TV, hot and cold refreshments, and access to a kitchen with full facilities","loc_pcd":true,"title":"The Rings Community Hub","url":"https://www.stockton.gov.uk/article/9682/The-Rings-Community-Hub"},"type":"Feature"},
		{"geometry":{"coordinates":[-1.31809,54.56491],"type":"Point"},"properties":{"_source":"stockton-on-tees_council","address":"Palmerston Street Stockton-on-Tees TS18 1NU","contact":"01642617629","description":"Facilities: Accessible entrance, free Wi-Fi, hot and cold refreshments available to purchase, reading materials, book borrowing, accessible toilets, baby changing facilities, activities, children's play equipment, advice and support, able to bring own food and drinks, free car parking, and food bank facility.","loc_pcd":true,"title":"The Salvation Army","url":"https://www.stockton.gov.uk/article/10256/The-Salvation-Army"},"type":"Feature"},
		{"geometry":{"coordinates":[-1.30369,54.57152],"type":"Point"},"properties":{"_source":"stockton-on-tees_council","address":"Northport Road Portrack Stockton TS18 2HX","contact":"01642 613345","description":"Facilities: Accessible entrance, free Wi-Fi, charging facilities, hot and cold refreshments, book borrowing, accessible toilets, baby changing facilities, able to bring own food and drinks, and advice and support.","loc_pcd":true,"title":"The Willows Community Centre","url":"https://www.stockton.gov.uk/article/9684/The-Willows-Community-Centre"},"type":"Feature"},
		{"geometry":{"coordinates":[-1.29526,54.55523],"type":"Point"},"properties":{"_source":"stockton-on-tees_council","address":"Wrightson House Pavilion Shopping Centre Thornaby TS17 7EW","contact":"01642 528117","description":"Facilities: Accessible entrance, free Wi-Fi, free devices to use, reading materials, book borrowing, accessible toilets, baby changing facilities, advice and support, and a Customer Service Centre.","loc_pcd":true,"title":"Thornaby Central Library","url":"https://www.stockton.gov.uk/article/9686/Thornaby-Central-Library"},"type":"Feature"},
		{"geometry":{"coordinates":[-1.29063,54.53449],"type":"Point"},"properties":{"_source":"stockton-on-tees_council","address":"Tedder Avenue Thornaby TS17 9PJ","contact":"01642 528525","description":"Facilities: Accessible entrance, free Wi-Fi, charging facilities, hot and cold refreshments available to purchase, reading materials, book borrowing, accessible toilets, baby changing facilities, activities, children's play equipment, outdoor space, advice and support, able to bring own food and drinks, and food bank vouchers.","loc_pcd":true,"title":"Thornaby Family Hub","url":"https://www.stockton.gov.uk/article/9687/Thornaby-Family-Hub"},"type":"Feature"},
		{"geometry":{"coordinates":[-1.30149,54.55503],"type":"Point"},"properties":{"_source":"stockton-on-tees_council","address":"Within Riverbank Children's Centre Gilmour Street Thornaby TS17 6PF","contact":"01642 528525","description":"Facilities: Accessible entrance, free devices to use, reading materials, book borrowing, and free car parking.","loc_pcd":true,"title":"Thornaby Library, Gilmour Street","url":"https://www.stockton.gov.uk/article/9688/Thornaby-Library-Gilmour-Street"},"type":"Feature"},
		{"geometry":{"coordinates":[-1.29109,54.53854],"type":"Point"},"properties":{"_source":"stockton-on-tees_council","address":"Thornaby Pavilion Wrightson House Stockton-on-Tees TS17 9EW","description":"Facilities: Able to bring own food and drinks, accessible entrance, accessible toilets, baby changing facilities, charging facilities for phones and other devices, free car park, free Wifi, hot and cold refreshments","loc_pcd":true,"title":"Thornaby Pavilion Indoor Bowls Hall - Warm Welcome Social","url":"https://www.stockton.gov.uk/article/10974/Thornaby-Pavilion-Indoor-Bowls-Hall-Warm-Welcome-Social"},"type":"Feature"},
		{"geometry":{"coordinates":[-1.30594,54.55011],"type":"Point"},"properties":{"_source":"stockton-on-tees_council","address":"Thornaby Road Thornaby TS17 8AA","contact":"01642 616727","description":"Facilities: Accessible entrance, free Wi-Fi, accessible toilets, baby changing facilities, free car parking, hot and cold refreshments available to purchase.","loc_pcd":true,"title":"Thornaby Pool","url":"https://www.stockton.gov.uk/article/10254/Thornaby-Pool"},"type":"Feature"},
		{"geometry":{"coordinates":[-1.30248,54.55377],"type":"Point"},"properties":{"_source":"stockton-on-tees_council","address":"86c Peel Street Stockton-On-Tees TS17 6JL","description":"Facilities: accessible entrance, accessible toilets, charging facilities for phones and other devices, hot and cold refreshments, reading materials.","loc_pcd":true,"title":"Victoria Park Cafe","url":"https://www.stockton.gov.uk/article/11153/Victoria-Park-Cafe"},"type":"Feature"},
		{"geometry":{"coordinates":[-1.33496,54.55457],"type":"Point"},"properties":{"_source":"stockton-on-tees_council","address":"Darlington Road Stockton-on-Tees TS18 5BE","contact":"01642 965518","description":"Facilities: accessible entrance, accessible toilets, baby changing facilities, charging facilities for phones and other devices, free carpark, free Wifi, hot and cold refreshments","loc_pcd":true,"title":"West End Bowling Club","url":"https://www.stockton.gov.uk/article/9811/West-End-Bowling-Club"},"type":"Feature"},
		{"geometry":{"coordinates":[-1.35449,54.50850],"type":"Point"},"properties":{"_source":"stockton-on-tees_council","address":"41 High Street Yarm TS15 9BH","contact":"01642 528152","description":"Facilities: Accessible entrance, free Wi-Fi, free devices to use, reading materials, book borrowing, accessible toilets, baby changing facilities, outdoor space, and activities.","loc_pcd":true,"title":"Yarm Library","url":"https://www.stockton.gov.uk/article/9690/Yarm-Library"},"type":"Feature"},
		{"geometry":{"coordinates":[-1.35324,54.50954],"type":"Point"},"properties":{"_source":"stockton-on-tees_council","address":"Chapel Yard Yarm TS15 9AJ","contact":"07710 068302","description":"Facilities: Accessible entrance, accessible toilets, baby changing facilities, charging facilities for phones and other devices, free car park, hot and cold refreshments and able to bring own food and drinks.","loc_pcd":true,"title":"Yarm Methodist Church Hall","url":"https://www.stockton.gov.uk/article/9691/Yarm-Methodist-Church-Hall"},"type":"Feature"},
		{"geometry":{"coordinates":[-1.32213,54.55922],"type":"Point"},"properties":{"_source":"stockton-on-tees_council","address":"5a Woodland Street Stockton TS18 3NW","contact":"01642 807089","description":"Open from Tuesday 13 December 2022. Facilities: Accessible entrance, accessible toilets, baby changing facilities, hot and cold refreshments and reading material.","loc_pcd":true,"title":"Yarm Road Methodist Church","url":"https://www.stockton.gov.uk/article/9718/Yarm-Road-Methodist-Church"},"type":"Feature"}
	]
}
