{
	"type": "FeatureCollection",
	"features": [
		{"geometry":{"coordinates":[-1.26422,52.37165],"type":"Point"},"properties":{"_source":"warm_spaces","address":"Little Elborow Street, Rugby, England, CV21 3BZ, United Kingdom","description":"Free Food/Drink, Free Wi-Fi, Device Charging, Advice, People to chat to, Space to work, Wheelchair Accessible, Toilets, Accessible Toilet, Child Friendly, Computer Access, Books, Board Games, Jigsaws Puzzles, Knitting &amp; Crochet equipment","hours":{"_text":"Mon &amp; Fri 1pm-4pm","opening":"Mo 13:00-16:00; Fr 13:00-16:00"},"title":"Rugby Library","url":"https://www.facebook.com/rugbylibrary"},"type":"Feature"},
		{"geometry":{"coordinates":[-1.26468,52.37164],"type":"Point"},"properties":{"_source":"warm_spaces","address":"Little Elborow Street, Rugby, England, CV21 3BZ, United Kingdom","description":"Free Wi-Fi, People to chat to, Space to work, Wheelchair Accessible, Toilets, Child Friendly","hours":{"_text":"Tuesday 2pm-4pm","opening":"Tu 14:00-16:00"},"title":"Rugby Art Gallery and Museum","url":"https://www.ragm.co.uk"},"type":"Feature"},
		{"geometry":{"coordinates":[-1.26114,52.37456],"type":"Point"},"properties":{"_source":"warm_spaces","address":"Regent Place, Rugby, England, CV21 2PJ, United Kingdom","description":"Free Food/Drink, Device Charging, People to chat to, Space to work, Wheelchair Accessible, Toilets, Accessible Toilet, Child Friendly","hours":{"_text":"Fridays, 10am-4pm (from 2 December 2022)","opening":"Fr 10:00-16:00"},"title":"Rugby Baptist Church Warm Space"},"type":"Feature"},
		{"geometry":{"coordinates":[-1.23492,52.36099],"type":"Point"},"properties":{"_source":"warm_spaces","address":"Saint Johns Avenue, Rugby, England, CV22 5HR, United Kingdom","description":"Free Food/Drink, People to chat to, Toilets, Accessible Toilet","hours":{"_text":"Sundays fortnightly (from 27 November 2022 until March)"},"title":"St George's Church Rugby","url":"https://stgeorgesrugby.org.uk"},"type":"Feature"},
		{"geometry":{"coordinates":[-1.26597,52.37501],"type":"Point"},"properties":{"_source":"warm_spaces","address":"Oliver Street, Rugby, England, CV21 2LE, United Kingdom","description":"Free Food/Drink, Free Wi-Fi, Device Charging, People to chat to, Space to work, Games &amp; Books","hours":{"_text":"10am - 4pm"},"title":"The Church of Jesus Christ of Latter-day Saints"},"type":"Feature"},
		{"geometry":{"coordinates":[-1.27660,52.37288],"type":"Point"},"properties":{"_source":"warm_spaces","address":"St Oswald&#39;s Church, Lawford Road, Rugby, England, CV21 2HR, United Kingdom","description":"Free Food/Drink, People to chat to, Optional games &amp; activities, Occasional speakers, light lunch. All welcome, but aimed at adults.","hours":{"_text":"Tuesdays, 10.45am-1pm","opening":"Tu 10:45-13:00"},"title":"St Oswald's - Connexions","url":"https://www.smso.org.uk"},"type":"Feature"}
	]
}
