{
	"type": "FeatureCollection",
	"features": [
		{"geometry":{"coordinates":[-1.08309,52.29973],"type":"Point"},"properties":{"_source":"warm_welcome","address":"Station Road, , Long Buckby, Northampton","description":"Community Library","hours":{"_text":"Tuesday: 10:00 - 13:00 / 14:00 - 16:30, Wednesday: 14:00 - 16:00, Thursday: 10:00 - 13:00 / 14:00 - 16:30, Friday: 10:00 - 13:00 / 14:00 - 16:30, Saturday: 10:00 - 12:30","opening":"Tu 10:00-13:00,14:00-16:30; We 14:00-16:00; Th 10:00-13:00,14:00-16:30; Fr 10:00-13:00,14:00-16:30; Sa 10:00-12:30"},"title":"Buckby Library & Hub"},"type":"Feature"},
		{"geometry":{"coordinates":[-1.25970,52.37387],"type":"Point"},"properties":{"_source":"warm_welcome","address":"23, RUGBY, Warwickshire CV21 2SD CV21 2SD","description":"We cater for everyone, including the elderly. We are a multicultural space and have some free and easy exercises available. Gentle pilates, table tennis and snooker and some low level Aerobics. We are also a CAP job club, and will be able to help with Job search issues and signposting advice for housing financial matters. We provide a warm drink an sometimes warm soup and rolls.","hours":{"_text":"Tuesday: 09:30 - 15:00, Wednesday: 09:00 - 16:30, Thursday: 09:00 - 15:00","opening":"Tu 09:30-15:00; We 09:00-16:30; Th 09:00-15:00"},"title":"Harvest Fellowship Hub"},"type":"Feature"},
		{"geometry":{"coordinates":[-1.26324,52.37388],"type":"Point"},"properties":{"_source":"warm_welcome","address":"19 -20 Northway, Warwickshire CV21 2JS","hours":{"_text":"Sunday: 09:00 - 15:00","opening":"Su 09:00-15:00"},"title":"Harvest Hub - Rugby Central"},"type":"Feature"},
		{"geometry":{"coordinates":[-1.23201,52.35993],"type":"Point"},"properties":{"_source":"warm_welcome","address":"Dunsmore Avenue, Rugby, Warwickshire Cv22 5HD","description":"Church foyer Lunch served at 13:00","hours":{"_text":"Tuesday: 13:00 - 16:00","opening":"Tu 13:00-16:00"},"title":"Hillmorton Paddox Methodist Church"},"type":"Feature"},
		{"geometry":{"coordinates":[-1.30636,52.38054],"type":"Point"},"properties":{"_source":"warm_welcome","address":"Long Lawford Methodist Church, 18 School Street , RUGBY, Rugby CV23 9AT","description":"Warm friendly, 'drop-in' space offering tea, coffee, cake and soup and a roll for lunch","hours":{"_text":"Wednesday: 09:00 - 13:00","opening":"We 09:00-13:00"},"title":"Refresh"},"type":"Feature"},
		{"geometry":{"coordinates":[-1.26659,52.37277],"type":"Point"},"properties":{"_source":"warm_welcome","address":"Salvation Army,, Warwickshire CV21 2AS","description":"This space is open for everyone","hours":{"_text":"Friday: 10:00 - 16:00","opening":"Fr 10:00-16:00"},"title":"Rugby Salvation Army"},"type":"Feature"},
		{"geometry":{"coordinates":[-1.26028,52.37262],"type":"Point"},"properties":{"_source":"warm_welcome","address":"St. Andrews Parish Church, Warwickshire CV21 3PT","description":"The church is open to all Monday to Friday 9.30am - 2pm, Saturday until 12noon. We have a cafe, children's area, toilets, weekly concert at 1pm on Tuesday and groups to join.","hours":{"_text":"Monday: 09:30 - 14:00, Tuesday: 09:30 - 14:00, Wednesday: 09:30 - 14:00, Thursday: 09:30 - 14:00, Friday: 09:30 - 14:00, Saturday: 09:30 - 12:00, Sunday: 08:00 - 09:00 / 10:30 - 12:30","opening":"Mo 09:30-14:00; Tu 09:30-14:00; We 09:30-14:00; Th 09:30-14:00; Fr 09:30-14:00; Sa 09:30-12:00; Su 08:00-09:00,10:30-12:30"},"title":"St Andrew's Church"},"type":"Feature"},
		{"geometry":{"coordinates":[-1.20208,52.45534],"type":"Point"},"properties":{"_source":"warm_welcome","address":"St. Mary's Church, Lutterworth, Leicestershire LE17 4AN","description":"The church cafe is open for visitors from 10am-midday (Tuesday to Saturday) for a warm drink, a friendly chat, or simply to have a look at some of the building’s history. We're open on Sundays for our 11am informal service. Donations towards your drink or biscuit are accepted, but not necessary. We'd love to welcome you! We also have plenty of toys available for young children and are able to take referrals for the Lutterworth and Villages Foodbank.","hours":{"_text":"Tuesday: 10:00 - 12:00, Wednesday: 10:00 - 12:00, Thursday: 10:00 - 12:00, Friday: 10:00 - 12:00, Saturday: 10:00 - 12:00, Sunday: 10:00 - 13:00","opening":"Tu 10:00-12:00; We 10:00-12:00; Th 10:00-12:00; Fr 10:00-12:00; Sa 10:00-12:00; Su 10:00-13:00"},"title":"St Mary's Church Lutterworth"},"type":"Feature"},
		{"geometry":{"coordinates":[-1.27612,52.37282],"type":"Point"},"properties":{"_source":"warm_welcome","address":"St. Oswalds Church , Rugby, Warwickshire CV21 2HR","description":"Aimed at adults, but all welcome. Connexions Drop-In with optional free lunch. Tea/Coffee, games, occasional craft activities, occasional speakers.","hours":{"_text":"Tuesday: 10:45 - 13:00","opening":"Tu 10:45-13:00"},"title":"St Oswald's Church - Connexions"},"type":"Feature"},
		{"geometry":{"coordinates":[-1.36107,52.26853],"type":"Point"},"properties":{"_source":"warm_welcome","address":"Stockton Village Church, Warwickshire Cv47 8JG","description":"A warm space in the church Sunday, Monday and Tuesday Refreshments available","hours":{"_text":"Monday: 09:30 - 17:00, Tuesday: 09:30 - 17:00, Sunday: 09:30 - 17:00","opening":"Mo 09:30-17:00; Tu 09:30-17:00; Su 09:30-17:00"},"title":"Stockton Village church"},"type":"Feature"},
		{"geometry":{"coordinates":[-1.26422,52.37165],"type":"Point"},"properties":{"_source":"warm_spaces","address":"Little Elborow Street, Rugby, England, CV21 3BZ, United Kingdom","description":"Free Food/Drink, Free Wi-Fi, Device Charging, Advice, People to chat to, Space to work, Wheelchair Accessible, Toilets, Accessible Toilet, Child Friendly, Computer Access, Books, Board Games, Jigsaws Puzzles, Knitting &amp; Crochet equipment","hours":{"_text":"Mon &amp; Fri 1pm-4pm","opening":"Mo 13:00-16:00; Fr 13:00-16:00"},"title":"Rugby Library","url":"https://www.facebook.com/rugbylibrary"},"type":"Feature"},
		{"geometry":{"coordinates":[-1.26468,52.37164],"type":"Point"},"properties":{"_source":"warm_spaces","address":"Little Elborow Street, Rugby, England, CV21 3BZ, United Kingdom","description":"Free Wi-Fi, People to chat to, Space to work, Wheelchair Accessible, Toilets, Child Friendly","hours":{"_text":"Tuesday 2pm-4pm","opening":"Tu 14:00-16:00"},"title":"Rugby Art Gallery and Museum","url":"https://www.ragm.co.uk"},"type":"Feature"},
		{"geometry":{"coordinates":[-1.26114,52.37456],"type":"Point"},"properties":{"_source":"warm_spaces","address":"Regent Place, Rugby, England, CV21 2PJ, United Kingdom","description":"Free Food/Drink, Device Charging, People to chat to, Space to work, Wheelchair Accessible, Toilets, Accessible Toilet, Child Friendly","hours":{"_text":"Fridays, 10am-4pm (from 2 December 2022)","opening":"Fr 10:00-16:00"},"title":"Rugby Baptist Church Warm Space"},"type":"Feature"},
		{"geometry":{"coordinates":[-1.23492,52.36099],"type":"Point"},"properties":{"_source":"warm_spaces","address":"Saint Johns Avenue, Rugby, England, CV22 5HR, United Kingdom","description":"Free Food/Drink, People to chat to, Toilets, Accessible Toilet","hours":{"_text":"Sundays fortnightly (from 27 November 2022 until March)"},"title":"St George's Church Rugby","url":"https://stgeorgesrugby.org.uk"},"type":"Feature"},
		{"geometry":{"coordinates":[-1.26597,52.37501],"type":"Point"},"properties":{"_source":"warm_spaces","address":"Oliver Street, Rugby, England, CV21 2LE, United Kingdom","description":"Free Food/Drink, Free Wi-Fi, Device Charging, People to chat to, Space to work, Games &amp; Books","hours":{"_text":"10am - 4pm"},"title":"The Church of Jesus Christ of Latter-day Saints"},"type":"Feature"},
		{"geometry":{"coordinates":[-1.27660,52.37288],"type":"Point"},"properties":{"_source":"warm_spaces","address":"St Oswald&#39;s Church, Lawford Road, Rugby, England, CV21 2HR, United Kingdom","description":"Free Food/Drink, People to chat to, Optional games &amp; activities, Occasional speakers, light lunch. All welcome, but aimed at adults.","hours":{"_text":"Tuesdays, 10.45am-1pm","opening":"Tu 10:45-13:00"},"title":"St Oswald's - Connexions","url":"https://www.smso.org.uk"},"type":"Feature"},
		{"geometry":{"coordinates":[-1.25482,52.37680],"type":"Point"},"properties":{"_source":"rugby_council","address":"Railway Terrace, Rugby, CV21 3HR","description":"Express Art Group.","hours":{"_text":"Thursdays 10am - 12 noon (term-time only);","opening":"Th 10:00-12:00"},"loc_pcd":true,"title":"Benn Partnership Centre"},"type":"Feature"},
		{"geometry":{"coordinates":[-1.24523,52.39000],"type":"Point"},"properties":{"_source":"rugby_council","address":"Wetherell Way, Brownsover, Rugby, CV21 1LT","description":"The Buddy Club, offering friendly chat, advice and a hot drink","hours":{"_text":"Wednesdays From 9.30am (term-time only); Thursdays From 9.30am (term-time only);"},"loc_pcd":true,"title":"Boughton Leigh Children&apos;s Centre"},"type":"Feature"},
		{"geometry":{"coordinates":[-1.30636,52.38053],"type":"Point"},"properties":{"_source":"rugby_council","address":"School Street, Long Lawford, Rugby, CV23 9AT","description":"Drop-in for warm space, coffee and cake, soup and a roll from 12 noon, wi-fi and device charging.","hours":{"_text":"Wednesdays 9am - 1pm;","opening":"We 09:00-13:00"},"loc_pcd":true,"title":"Long Lawford Methodist Church"},"type":"Feature"},
		{"geometry":{"coordinates":[-1.26001,52.37518],"type":"Point"},"properties":{"_source":"rugby_council","address":"Regent Place, Rugby, CV21 2PN","description":"Tea and biscuits, computers/internet, support to apply for benefits.","hours":{"_text":"Wednesdays 1pm - 5pm;","opening":"We 13:00-17:00"},"loc_pcd":true,"title":"New Bilton Community Association at Rugby Quaker House"},"type":"Feature"},
		{"geometry":{"coordinates":[-1.22043,52.36042],"type":"Point"},"properties":{"_source":"rugby_council","address":"Deerings Road, Hillmorton, Rugby, CV21 4EN","description":"The Hillmorton Hub, a weekly drop-in session for friendship, refreshments, crafting, community support and basic support with computers and internet","hours":{"_text":"Thursdays 9am - 12 noon;","opening":"Th 09:00-12:00"},"loc_pcd":true,"title":"Rogers Hall"},"type":"Feature"},
		{"geometry":{"coordinates":[-1.26104,52.37494],"type":"Point"},"properties":{"_source":"rugby_council","address":"John Lees Hall, Regent Place, Rugby, CV21 2PJ","description":"Coffee morning with hot drinks and cake. Bring your own craft club.","hours":{"_text":"Fridays 10am - 12.30pm; 10am - 1pm every second Saturday of the month;","opening":"Fr 10:00-12:30; Sa 10:00-13:00"},"loc_pcd":true,"title":"Rugby Baptist Church"},"type":"Feature"},
		{"geometry":{"coordinates":[-1.26447,52.37165],"type":"Point"},"properties":{"_source":"rugby_council","address":"Little Elborow Street, Rugby, CV21 3BZ","description":"Warm, welcoming space offering a variety of services. View more information at: <a href=\"http://www.warwickshire.gov.uk/rugbylibrary\">www.warwickshire.gov.uk/rugbylibrary</a>","hours":{"_text":"Mondays 9am - 5.30pm; Tuesdays 10am - 7pm; Wednesdays 9am - 5.30pm; Thursdays 9am - 5.30pm; Fridays 9am - 5.30pm; Saturdays 9am to 4pm; Sundays 9am - 5.30pm;","opening":"Mo 09:00-17:30; Tu 10:00-19:00; We 09:00-17:30; Th 09:00-17:30; Fr 09:00-17:30; Sa 09:00-16:00; Su 09:00-17:30"},"loc_pcd":true,"title":"Rugby Library"},"type":"Feature"},
		{"geometry":{"coordinates":[-1.21135,52.36574],"type":"Point"},"properties":{"_source":"rugby_council","address":"The Locks, Hillmorton, CV21 4PP","description":"Coffee morning.","hours":{"_text":"10.30am - 12 noon on the last Saturday of the month;","opening":"Sa[-1] 10:30-12:00"},"loc_pcd":true,"title":"St John The Baptist Church"},"type":"Feature"},
		{"geometry":{"coordinates":[-1.26518,52.36944],"type":"Point"},"properties":{"_source":"rugby_council","address":"Russelsheim Way, Rugby, CV22 7TB","description":"Food and drinks.","hours":{"_text":"Tuesdays 10am - 12 noon; Wednesdays 10am - 12 noon; Thursdays 10am - 12 noon;","opening":"Tu 10:00-12:00; We 10:00-12:00; Th 10:00-12:00"},"loc_pcd":true,"title":"The Hub at Rugby Methodist Church Centre"},"type":"Feature"},
		{"geometry":{"coordinates":[-1.13819,52.34832],"type":"Point"},"properties":{"_source":"west_northamptonshire","address":"Church Street,, Crick,, NN6 7TP","contact":"Tel: 07763 749075","hours":{"_text":"Tuesday 3pm to 4:30pm Thursday 10:30am to midday","opening":"Tu 15:00-16:30; Th 10:30-12:00"},"loc_pcd":true,"title":"Crick Old School"},"type":"Feature"},
		{"geometry":{"coordinates":[-1.08061,52.30266],"type":"Point"},"properties":{"_source":"west_northamptonshire","address":"Market Place,, Long Buckby,, NN6 7RR","contact":"Tel: 01327 842587","hours":{"_text":"Wednesdays (term-time only) Midday to 2pm","opening":"We 12:00-14:00"},"loc_pcd":true,"title":"Warm Welcome on Wednesdays at Long Buckby and Brington Baptist Church"},"type":"Feature"},
		{"geometry":{"coordinates":[-1.05846,52.33237],"type":"Point"},"properties":{"_source":"west_northamptonshire","address":"West Haddon Community Hub, Northampton Road, West Haddon NN6 7AS","contact":"Tel: 07493 366527","hours":{"_text":"Tuesdays 1pm to 3pm November 7th - 19th December (review)","opening":"Tu 13:00-15:00"},"loc_pcd":true,"title":"West Haddon Parish Council"},"type":"Feature"}
	]
}
