{
	"type": "FeatureCollection",
	"features": [
		{"geometry":{"coordinates":[-1.08309,52.29973],"type":"Point"},"properties":{"_source":"warm_welcome","address":"Station Road, , Long Buckby, Northampton","description":"Community Library","hours":{"_text":"Tuesday: 10:00 - 13:00 / 14:00 - 16:30, Wednesday: 14:00 - 16:00, Thursday: 10:00 - 13:00 / 14:00 - 16:30, Friday: 10:00 - 13:00 / 14:00 - 16:30, Saturday: 10:00 - 12:30","opening":"Tu 10:00-13:00,14:00-16:30; We 14:00-16:00; Th 10:00-13:00,14:00-16:30; Fr 10:00-13:00,14:00-16:30; Sa 10:00-12:30"},"title":"Buckby Library & Hub"},"type":"Feature"},
		{"geometry":{"coordinates":[-1.25970,52.37387],"type":"Point"},"properties":{"_source":"warm_welcome","address":"23, RUGBY, Warwickshire CV21 2SD CV21 2SD","description":"We cater for everyone, including the elderly. We are a multicultural space and have some free and easy exercises available. Gentle pilates, table tennis and snooker and some low level Aerobics. We are also a CAP job club, and will be able to help with Job search issues and signposting advice for housing financial matters. We provide a warm drink an sometimes warm soup and rolls.","hours":{"_text":"Tuesday: 09:30 - 15:00, Wednesday: 09:00 - 16:30, Thursday: 09:00 - 15:00","opening":"Tu 09:30-15:00; We 09:00-16:30; Th 09:00-15:00"},"title":"Harvest Fellowship Hub"},"type":"Feature"},
		{"geometry":{"coordinates":[-1.26324,52.37388],"type":"Point"},"properties":{"_source":"warm_welcome","address":"19 -20 Northway, Warwickshire CV21 2JS","hours":{"_text":"Sunday: 09:00 - 15:00","opening":"Su 09:00-15:00"},"title":"Harvest Hub - Rugby Central"},"type":"Feature"},
		{"geometry":{"coordinates":[-1.23201,52.35993],"type":"Point"},"properties":{"_source":"warm_welcome","address":"Dunsmore Avenue, Rugby, Warwickshire Cv22 5HD","description":"Church foyer Lunch served at 13:00","hours":{"_text":"Tuesday: 13:00 - 16:00","opening":"Tu 13:00-16:00"},"title":"Hillmorton Paddox Methodist Church"},"type":"Feature"},
		{"geometry":{"coordinates":[-1.30636,52.38054],"type":"Point"},"properties":{"_source":"warm_welcome","address":"Long Lawford Methodist Church, 18 School Street , RUGBY, Rugby CV23 9AT","description":"Warm friendly, 'drop-in' space offering tea, coffee, cake and soup and a roll for lunch","hours":{"_text":"Wednesday: 09:00 - 13:00","opening":"We 09:00-13:00"},"title":"Refresh"},"type":"Feature"},
		{"geometry":{"coordinates":[-1.26659,52.37277],"type":"Point"},"properties":{"_source":"warm_welcome","address":"Salvation Army,, Warwickshire CV21 2AS","description":"This space is open for everyone","hours":{"_text":"Friday: 10:00 - 16:00","opening":"Fr 10:00-16:00"},"title":"Rugby Salvation Army"},"type":"Feature"},
		{"geometry":{"coordinates":[-1.26028,52.37262],"type":"Point"},"properties":{"_source":"warm_welcome","address":"St. Andrews Parish Church, Warwickshire CV21 3PT","description":"The church is open to all Monday to Friday 9.30am - 2pm, Saturday until 12noon. We have a cafe, children's area, toilets, weekly concert at 1pm on Tuesday and groups to join.","hours":{"_text":"Monday: 09:30 - 14:00, Tuesday: 09:30 - 14:00, Wednesday: 09:30 - 14:00, Thursday: 09:30 - 14:00, Friday: 09:30 - 14:00, Saturday: 09:30 - 12:00, Sunday: 08:00 - 09:00 / 10:30 - 12:30","opening":"Mo 09:30-14:00; Tu 09:30-14:00; We 09:30-14:00; Th 09:30-14:00; Fr 09:30-14:00; Sa 09:30-12:00; Su 08:00-09:00,10:30-12:30"},"title":"St Andrew's Church"},"type":"Feature"},
		{"geometry":{"coordinates":[-1.20208,52.45534],"type":"Point"},"properties":{"_source":"warm_welcome","address":"St. Mary's Church, Lutterworth, Leicestershire LE17 4AN","description":"The church cafe is open for visitors from 10am-midday (Tuesday to Saturday) for a warm drink, a friendly chat, or simply to have a look at some of the building’s history. We're open on Sundays for our 11am informal service. Donations towards your drink or biscuit are accepted, but not necessary. We'd love to welcome you! We also have plenty of toys available for young children and are able to take referrals for the Lutterworth and Villages Foodbank.","hours":{"_text":"Tuesday: 10:00 - 12:00, Wednesday: 10:00 - 12:00, Thursday: 10:00 - 12:00, Friday: 10:00 - 12:00, Saturday: 10:00 - 12:00, Sunday: 10:00 - 13:00","opening":"Tu 10:00-12:00; We 10:00-12:00; Th 10:00-12:00; Fr 10:00-12:00; Sa 10:00-12:00; Su 10:00-13:00"},"title":"St Mary's Church Lutterworth"},"type":"Feature"},
		{"geometry":{"coordinates":[-1.27612,52.37282],"type":"Point"},"properties":{"_source":"warm_welcome","address":"St. Oswalds Church , Rugby, Warwickshire CV21 2HR","description":"Aimed at adults, but all welcome. Connexions Drop-In with optional free lunch. Tea/Coffee, games, occasional craft activities, occasional speakers.","hours":{"_text":"Tuesday: 10:45 - 13:00","opening":"Tu 10:45-13:00"},"title":"St Oswald's Church - Connexions"},"type":"Feature"},
		{"geometry":{"coordinates":[-1.36107,52.26853],"type":"Point"},"properties":{"_source":"warm_welcome","address":"Stockton Village Church, Warwickshire Cv47 8JG","description":"A warm space in the church Sunday, Monday and Tuesday Refreshments available","hours":{"_text":"Monday: 09:30 - 17:00, Tuesday: 09:30 - 17:00, Sunday: 09:30 - 17:00","opening":"Mo 09:30-17:00; Tu 09:30-17:00; Su 09:30-17:00"},"title":"Stockton Village church"},"type":"Feature"},
		{"geometry":{"coordinates":[-1.26422,52.37165],"type":"Point"},"properties":{"_source":"warm_spaces","address":"Little Elborow Street, Rugby, England, CV21 3BZ, United Kingdom","description":"Free Food/Drink, Free Wi-Fi, Device Charging, Advice, People to chat to, Space to work, Wheelchair Accessible, Toilets, Accessible Toilet, Child Friendly, Computer Access, Books, Board Games, Jigsaws Puzzles, Knitting &amp; Crochet equipment","hours":{"_text":"Mon &amp; Fri 1pm-4pm","opening":"Mo 13:00-16:00; Fr 13:00-16:00"},"title":"Rugby Library","url":"https://www.facebook.com/rugbylibrary"},"type":"Feature"},
		{"geometry":{"coordinates":[-1.26468,52.37164],"type":"Point"},"properties":{"_source":"warm_spaces","address":"Little Elborow Street, Rugby, England, CV21 3BZ, United Kingdom","description":"Free Wi-Fi, People to chat to, Space to work, Wheelchair Accessible, Toilets, Child Friendly","hours":{"_text":"Tuesday 2pm-4pm","opening":"Tu 14:00-16:00"},"title":"Rugby Art Gallery and Museum","url":"https://www.ragm.co.uk"},"type":"Feature"},
		{"geometry":{"coordinates":[-1.26114,52.37456],"type":"Point"},"properties":{"_source":"warm_spaces","address":"Regent Place, Rugby, England, CV21 2PJ, United Kingdom","description":"Free Food/Drink, Device Charging, People to chat to, Space to work, Wheelchair Accessible, Toilets, Accessible Toilet, Child Friendly","hours":{"_text":"Fridays, 10am-4pm (from 2 December 2022)","opening":"Fr 10:00-16:00"},"title":"Rugby Baptist Church Warm Space"},"type":"Feature"},
		{"geometry":{"coordinates":[-1.23492,52.36099],"type":"Point"},"properties":{"_source":"warm_spaces","address":"Saint Johns Avenue, Rugby, England, CV22 5HR, United Kingdom","description":"Free Food/Drink, People to chat to, Toilets, Accessible Toilet","hours":{"_text":"Sundays fortnightly (from 27 November 2022 until March)"},"title":"St George's Church Rugby","url":"https://stgeorgesrugby.org.uk"},"type":"Feature"},
		{"geometry":{"coordinates":[-1.26597,52.37501],"type":"Point"},"properties":{"_source":"warm_spaces","address":"Oliver Street, Rugby, England, CV21 2LE, United Kingdom","description":"Free Food/Drink, Free Wi-Fi, Device Charging, People to chat to, Space to work, Games &amp; Books","hours":{"_text":"10am - 4pm"},"title":"The Church of Jesus Christ of Latter-day Saints"},"type":"Feature"},
		{"geometry":{"coordinates":[-1.27660,52.37288],"type":"Point"},"properties":{"_source":"warm_spaces","address":"St Oswald&#39;s Church, Lawford Road, Rugby, England, CV21 2HR, United Kingdom","description":"Free Food/Drink, People to chat to, Optional games &amp; activities, Occasional speakers, light lunch. All welcome, but aimed at adults.","hours":{"_text":"Tuesdays, 10.45am-1pm","opening":"Tu 10:45-13:00"},"title":"St Oswald's - Connexions","url":"https://www.smso.org.uk"},"type":"Feature"},
		{"geometry":{"coordinates":[-1.24217,52.39177],"type":"Point"},"properties":{"_source":"warwickshire_rural_council","address":"Christ Church, Helvellyn Way, Brownsover, Rugby, CV21 1QG","title":"Brownsover Community Association","url":"https://www.wrccrural.org.uk/brownsover-community-association/"},"type":"Feature"},
		{"geometry":{"coordinates":[-1.25482,52.37684],"type":"Point"},"properties":{"_source":"warwickshire_rural_council","address":"Benn Partnership Centre, Railway Terrace, Rugby, CV21 3HR","hours":{"_text":"Open Daily from 9.00am - 5.00pm","opening":"Mo-Su 09:00-17:00"},"title":"Rugby Warm Hub","url":"https://www.wrccrural.org.uk/rugby-warm-hub/"},"type":"Feature"},
		{"geometry":{"coordinates":[-1.26141,52.37262],"type":"Point"},"properties":{"_source":"warwickshire_rural_council","address":"Church Street, Rugby CV21 3PT","hours":{"_text":"Every Monday from 10.30am - 12.30pm during term time.  Starting on 8th January 2024","opening":"Mo 10:30-12:30"},"title":"St Andrews Church, Rugby","url":"https://www.wrccrural.org.uk/st-andrews-church-rugby/"},"type":"Feature"},
		{"geometry":{"coordinates":[-1.22372,52.35948],"type":"Point"},"properties":{"_source":"warwickshire_rural_council","address":"Rogers Hall, Deerings Road, Hillmorton, Rugby, CV21 4EN","hours":{"_text":"Every Thursday from 9.00am - 12.00 noon","opening":"Th 09:00-12:00"},"title":"St John the Baptist, Hillmorton","url":"https://www.wrccrural.org.uk/st-john-the-baptist-hillmorton-hub/"},"type":"Feature"},
		{"geometry":{"coordinates":[-1.26027,52.37525],"type":"Point"},"properties":{"_source":"warwickshire_rural_council","address":"Friends Meeeting House (Quakers), 28 Regent Place, Rugby, CV21 2PN","hours":{"_text":"Every Wednesday from 1.00pm to 5.00pm","opening":"We 13:00-17:00"},"title":"The New Bilton Community Association, Rugby","url":"https://www.wrccrural.org.uk/the-new-bilton-community-association-rugby/"},"type":"Feature"},
		{"geometry":{"coordinates":[-1.13819,52.34832],"type":"Point"},"properties":{"_source":"west_northamptonshire","address":"Church Street,, Crick,, NN6 7TP","contact":"Tel: 07763 749075","hours":{"_text":"Tuesday 3pm to 4:30pm Thursday 10:30am to midday","opening":"Tu 15:00-16:30; Th 10:30-12:00"},"loc_pcd":true,"title":"Crick Old School"},"type":"Feature"},
		{"geometry":{"coordinates":[-1.08061,52.30266],"type":"Point"},"properties":{"_source":"west_northamptonshire","address":"Market Place,, Long Buckby,, NN6 7RR","contact":"Tel: 01327 842587","hours":{"_text":"Wednesdays (term-time only) Midday to 2pm","opening":"We 12:00-14:00"},"loc_pcd":true,"title":"Warm Welcome on Wednesdays at Long Buckby and Brington Baptist Church"},"type":"Feature"},
		{"geometry":{"coordinates":[-1.05846,52.33237],"type":"Point"},"properties":{"_source":"west_northamptonshire","address":"West Haddon Community Hub, Northampton Road, West Haddon NN6 7AS","contact":"Tel: 07493 366527","hours":{"_text":"Tuesdays 1pm to 3pm November 7th - 19th December (review)","opening":"Tu 13:00-15:00"},"loc_pcd":true,"title":"West Haddon Parish Council"},"type":"Feature"}
	]
}
