{
	"type": "FeatureCollection",
	"features": [
		{"geometry":{"coordinates":[-1.08498,52.29812],"type":"Point"},"properties":{"_source":"warm_welcome","address":"Station Road, Long Buckby, Northants NN6 7QB","hours":{"_text":"Tuesday: 10:00 - 16:30, Wednesday: 14:00 - 16:00, Thursday: 10:00 - 16:30, Friday: 10:00 - 16:30, Saturday: 10:00 - 12:30","opening":"Tu 10:00-16:30; We 14:00-16:00; Th 10:00-16:30; Fr 10:00-16:30; Sa 10:00-12:30"},"title":"Buckby Library & Hub"},"type":"Feature"},
		{"geometry":{"coordinates":[-1.20058,52.45626],"type":"Point"},"properties":{"_source":"warm_welcome","address":"Chapel Street Christian Fellowship, Lutterworth, Leicestershire LE17 4EU","description":"Open from 20/10/2022. We offer hot drinks, soups, toasties and plenty of snacks. There's also toys and games available for families with children.","hours":{"_text":"Thursday: 14:00 - 17:00","opening":"Th 14:00-17:00"},"title":"Chapel Street Christian Fellowship"},"type":"Feature"},
		{"geometry":{"coordinates":[-1.20449,52.45698],"type":"Point"},"properties":{"_source":"warm_welcome","address":"Lutterworth Sports Centre , Lutterworth , Leicestershire LE174RB","hours":{"_text":"Monday: 06:30 - 22:00, Tuesday: 06:30 - 22:00, Wednesday: 06:30 - 22:00, Thursday: 06:30 - 22:00, Friday: 06:30 - 22:00, Saturday: 08:00 - 18:00, Sunday: 08:00 - 18:00","opening":"Mo 06:30-22:00; Tu 06:30-22:00; We 06:30-22:00; Th 06:30-22:00; Fr 06:30-22:00; Sa 08:00-18:00; Su 08:00-18:00"},"title":"Everyone Active"},"type":"Feature"},
		{"geometry":{"coordinates":[-1.20449,52.45698],"type":"Point"},"properties":{"_source":"warm_welcome","address":"Lutterworth Sports Centre , Lutterworth , Leicestershire LE174RB","hours":{"_text":"Monday: 06:30 - 22:00, Tuesday: 06:30 - 22:00, Wednesday: 06:30 - 22:00, Thursday: 06:30 - 22:00, Friday: 06:30 - 22:00, Saturday: 08:00 - 18:00, Sunday: 08:00 - 18:00","opening":"Mo 06:30-22:00; Tu 06:30-22:00; We 06:30-22:00; Th 06:30-22:00; Fr 06:30-22:00; Sa 08:00-18:00; Su 08:00-18:00"},"title":"Everyone Active"},"type":"Feature"},
		{"geometry":{"coordinates":[-1.25967,52.37390],"type":"Point"},"properties":{"_source":"warm_welcome","address":"23 Albert Street, Rugby, Warwickshire CV21 2SD","description":"We cater for everyone, including the elderly. We are also a CAP job club, and will be able to help with Job search issues. We provide a warm drink an sometimes warm soup and rolls.","hours":{"_text":"Monday: 09:00 - 16:00, Tuesday: 09:00 - 18:30, Wednesday: 09:00 - 20:00, Thursday: 09:00 - 16:00, Saturday: 09:00 - 12:00, Sunday: 09:00 - 14:00","opening":"Mo 09:00-16:00; Tu 09:00-18:30; We 09:00-20:00; Th 09:00-16:00; Sa 09:00-12:00; Su 09:00-14:00"},"title":"Harvest Fellowship Church, Rugby"},"type":"Feature"},
		{"geometry":{"coordinates":[-1.25967,52.37390],"type":"Point"},"properties":{"_source":"warm_welcome","address":"23 Albert Street, Rugby, Warwickshire CV21 2SD","description":"We cater for everyone, including the elderly. We are also a CAP job club, and will be able to help with Job search issues. We provide a warm drink an sometimes warm soup and rolls.","hours":{"_text":"Monday: 09:00 - 16:00, Tuesday: 09:00 - 18:30, Wednesday: 09:00 - 20:00, Thursday: 09:00 - 16:00, Saturday: 09:00 - 12:00, Sunday: 09:00 - 14:00","opening":"Mo 09:00-16:00; Tu 09:00-18:30; We 09:00-20:00; Th 09:00-16:00; Sa 09:00-12:00; Su 09:00-14:00"},"title":"Harvest Fellowship Church, Rugby"},"type":"Feature"},
		{"geometry":{"coordinates":[-1.30637,52.38002],"type":"Point"},"properties":{"_source":"warm_welcome","address":"Long Lawford Methodist Church, 18 School Street , Long Lawford, Rugby CV23 9AT","description":"Coffee, cake. soup and roll","hours":{"_text":"Wednesday: 09:00 - 13:30","opening":"We 09:00-13:30"},"title":"Refresh warm space"},"type":"Feature"},
		{"geometry":{"coordinates":[-1.30637,52.38002],"type":"Point"},"properties":{"_source":"warm_welcome","address":"Long Lawford Methodist Church, 18 School Street , Long Lawford, Rugby CV23 9AT","description":"Coffee, cake. soup and roll","hours":{"_text":"Wednesday: 09:00 - 13:30","opening":"We 09:00-13:30"},"title":"Refresh warm space"},"type":"Feature"},
		{"geometry":{"coordinates":[-1.26085,52.37521],"type":"Point"},"properties":{"_source":"warm_welcome","address":"Regent Place, Rugby, United Kingdom CV21 2PJ","description":"Open from 02-12-22.","hours":{"_text":"Friday: 10:00 - 16:00","opening":"Fr 10:00-16:00"},"title":"Rugby Baptist Church"},"type":"Feature"},
		{"geometry":{"coordinates":[-1.26085,52.37521],"type":"Point"},"properties":{"_source":"warm_welcome","address":"Regent Place, Rugby, United Kingdom CV21 2PJ","description":"Open from 02-12-22.","hours":{"_text":"Friday: 10:00 - 16:00","opening":"Fr 10:00-16:00"},"title":"Rugby Baptist Church"},"type":"Feature"},
		{"geometry":{"coordinates":[-1.26564,52.36976],"type":"Point"},"properties":{"_source":"warm_welcome","address":"Russellsheim Way, Rugby , Warwickshire CV22 7TB","description":"Everyone is welcome. We are an inclusive safe space There is also a cafe operating.","hours":{"_text":"Tuesday: 10:00 - 14:00, Wednesday: 10:00 - 14:00, Thursday: 10:00 - 14:00, Friday: 10:00 - 12:00","opening":"Tu 10:00-14:00; We 10:00-14:00; Th 10:00-14:00; Fr 10:00-12:00"},"title":"Rugby Methodist Church Centre"},"type":"Feature"},
		{"geometry":{"coordinates":[-1.26564,52.36976],"type":"Point"},"properties":{"_source":"warm_welcome","address":"Russellsheim Way, Rugby , Warwickshire CV22 7TB","description":"Everyone is welcome. We are an inclusive safe space There is also a cafe operating.","hours":{"_text":"Tuesday: 10:00 - 14:00, Wednesday: 10:00 - 14:00, Thursday: 10:00 - 14:00, Friday: 10:00 - 12:00","opening":"Tu 10:00-14:00; We 10:00-14:00; Th 10:00-14:00; Fr 10:00-12:00"},"title":"Rugby Methodist Church Centre"},"type":"Feature"},
		{"geometry":{"coordinates":[-1.26638,52.37275],"type":"Point"},"properties":{"_source":"warm_welcome","address":"The Salvation Army, Bennfield Road, Rugby, Warwickshire CV21 2AS","description":"Open from 28th October 2022.","hours":{"_text":"Friday: 10:00 - 18:00","opening":"Fr 10:00-18:00"},"title":"Rugby Salvation Army"},"type":"Feature"},
		{"geometry":{"coordinates":[-1.23618,52.36026],"type":"Point"},"properties":{"_source":"warm_welcome","address":"St George's Church, St. John's Avenue, Hillmorton, Rugby, CV22 5HR, Rugby, Warwickshire CV22 7DS","description":"Open from 27-11-2022.","hours":{"_text":"Sunday: 16:00 - 19:00 / - Fortnightly","opening":"Su 16:00-19:00"},"title":"St George's Church Rugby"},"type":"Feature"},
		{"geometry":{"coordinates":[-1.23618,52.36026],"type":"Point"},"properties":{"_source":"warm_welcome","address":"St George's Church, St. John's Avenue, Hillmorton, Rugby, CV22 5HR, Rugby, Warwickshire CV22 7DS","description":"Open from 27-11-2022.","hours":{"_text":"Sunday: 16:00 - 19:00 / - Fortnightly","opening":"Su 16:00-19:00"},"title":"St George's Church Rugby"},"type":"Feature"},
		{"geometry":{"coordinates":[-1.20217,52.45534],"type":"Point"},"properties":{"_source":"warm_welcome","address":"St Mary's Church Cafe, Church Gate, Lutterworth, Leicestershire LE17 4AN","description":"Open Tues-Sat, 10am-midday. You're welcome to visit us just for somewhere to sit or volunteers are available for a chat. Hot and cold refreshments available for a donation or for free with no questions asked. Toys for children also available","hours":{"_text":"Tuesday: 10:00 - 12:00, Wednesday: 10:00 - 12:00, Thursday: 10:00 - 12:00, Friday: 10:00 - 12:00, Saturday: 10:00 - 12:00","opening":"Tu 10:00-12:00; We 10:00-12:00; Th 10:00-12:00; Fr 10:00-12:00; Sa 10:00-12:00"},"title":"St Mary's Church, Lutterworth"},"type":"Feature"},
		{"geometry":{"coordinates":[-1.20217,52.45534],"type":"Point"},"properties":{"_source":"warm_welcome","address":"St Mary's Church Cafe, Church Gate, Lutterworth, Leicestershire LE17 4AN","description":"Open Tues-Sat, 10am-midday. You're welcome to visit us just for somewhere to sit or volunteers are available for a chat. Hot and cold refreshments available for a donation or for free with no questions asked. Toys for children also available","hours":{"_text":"Tuesday: 10:00 - 12:00, Wednesday: 10:00 - 12:00, Thursday: 10:00 - 12:00, Friday: 10:00 - 12:00, Saturday: 10:00 - 12:00","opening":"Tu 10:00-12:00; We 10:00-12:00; Th 10:00-12:00; Fr 10:00-12:00; Sa 10:00-12:00"},"title":"St Mary's Church, Lutterworth"},"type":"Feature"},
		{"geometry":{"coordinates":[-1.27615,52.37299],"type":"Point"},"properties":{"_source":"warm_welcome","address":"St Oswald's Church, 131 Lawford Road, Rugby, Warwickshire CV21 2HR","description":"Aimed at adults, but all welcome. Connexions Drop-In with optional lunch. Tea/Coffee, games, occasional speakers.","hours":{"_text":"Tuesday: 10:45 - 13:00","opening":"Tu 10:45-13:00"},"title":"St Oswald's Church - Connexions"},"type":"Feature"},
		{"geometry":{"coordinates":[-1.27615,52.37299],"type":"Point"},"properties":{"_source":"warm_welcome","address":"St Oswald's Church, 131 Lawford Road, Rugby, Warwickshire CV21 2HR","description":"Aimed at adults, but all welcome. Connexions Drop-In with optional lunch. Tea/Coffee, games, occasional speakers.","hours":{"_text":"Tuesday: 10:45 - 13:00","opening":"Tu 10:45-13:00"},"title":"St Oswald's Church - Connexions"},"type":"Feature"},
		{"geometry":{"coordinates":[-1.26468,52.37164],"type":"Point"},"properties":{"_source":"warm_spaces","address":"Little Elborow Street, Rugby, England, CV21 3BZ","hours":{"_text":"Tuesday 2pm-4pm ","opening":"Tu 14:00-16:00"},"title":"Rugby Art Gallery and Museum","url":"https://www.ragm.co.uk"},"type":"Feature"},
		{"geometry":{"coordinates":[-1.26114,52.37456],"type":"Point"},"properties":{"_source":"warm_spaces","address":"Regent Place, Rugby, England, CV21 2PJ","hours":{"_text":"Fridays, 10am-4pm (from 2 December 2022)","opening":"Fr 10:00-16:00"},"title":"Rugby Baptist Church Warm Space"},"type":"Feature"},
		{"geometry":{"coordinates":[-1.23492,52.36099],"type":"Point"},"properties":{"_source":"warm_spaces","address":"Saint Johns Avenue, Rugby, England, CV22 5HR","hours":{"_text":"Sundays fortnightly (from 27 November 2022 until March)"},"title":"St George's Church Rugby","url":"https://stgeorgesrugby.org.uk"},"type":"Feature"},
		{"geometry":{"coordinates":[-1.26597,52.37501],"type":"Point"},"properties":{"_source":"warm_spaces","address":"Oliver Street, Rugby, England, CV21 2LE","hours":{"_text":"10am - 4pm"},"title":"The Church of Jesus Christ of Latter-day Saints"},"type":"Feature"},
		{"geometry":{"coordinates":[-1.27660,52.37288],"type":"Point"},"properties":{"_source":"warm_spaces","address":"St Oswald&#39;s Church, Lawford Road, Rugby, England, CV21 2HR","hours":{"_text":"Tuesdays, 10.45am-1pm","opening":"Tu 10:45-13:00"},"title":"St Oswald's - Connexions","url":"https://www.smso.org.uk"},"type":"Feature"}
	]
}
