{
	"type": "FeatureCollection",
	"features": [
		{"geometry":{"coordinates":[1.21348,52.94282],"type":"Point"},"properties":{"_source":"warm_welcome","address":"35B Cremer Street, Sheringham, Norfolk NR26 8DZ NR26 8DZ","description":"Older People We provide a two-course lunch and refreshments for £8.50","hours":{"_text":"Tuesday: 12:00 - 13:15, Wednesday: 12:00 - 13:15, Thursday: 12:00 - 13:15, Friday: 12:00 - 13:15","opening":"Tu 12:00-13:15; We 12:00-13:15; Th 12:00-13:15; Fr 12:00-13:15"},"title":"Age Concern North Norfolk Lunch Club"},"type":"Feature"},
		{"geometry":{"coordinates":[1.29955,52.93192],"type":"Point"},"properties":{"_source":"warm_welcome","address":"Cromer Community Centre, Cromer, norfolk NR27 9HN","description":"Cromer Friendship Hub operates from Cromer Community using the main hall, toilets and kitchen. We work with New-U to have rag rugging and other craft activities. We cater for everyone, wheel chair access plus well behaved small dogs. We have Jigsaws, Games etc. On Wednesday we have rag rugging","hours":{"_text":"Wednesday: 10:00 - 13:00, Friday: 10:00 - 13:00","opening":"We 10:00-13:00; Fr 10:00-13:00"},"title":"Cromer Friendship Hub"},"type":"Feature"},
		{"geometry":{"coordinates":[1.29778,52.93100],"type":"Point"},"properties":{"_source":"warm_welcome","address":"Cromer Library, Cromer, Norfolk NR27 9HS","description":"You can access most Libraries outside staffed hours with “Open Library” providing extra access to the library, its books and computers. Check if it's currently available at your local library at www.norfolk.gov.uk/openlibrary. Free hot drinks available, please see our What’s On page or ask in the library for times: https://www.norfolk.gov.uk/libraries-local-history-and-archives/libraries/whats-on.","hours":{"_text":"Monday: 10:30 - 19:00, Tuesday: 10:30 - 19:00, Thursday: 10:30 - 19:00, Friday: 10:30 - 19:00, Saturday: 12:00 - 16:00","opening":"Mo 10:30-19:00; Tu 10:30-19:00; Th 10:30-19:00; Fr 10:30-19:00; Sa 12:00-16:00"},"title":"Cromer Library"},"type":"Feature"},
		{"geometry":{"coordinates":[1.30024,52.93112],"type":"Point"},"properties":{"_source":"warm_welcome","address":"Cromer Parish Church , St Peters and St Pauls, Norfolk NR27 9HH","description":"The lounge is a warm and comfortable place for all open from 09.30 til 3pm every day except when services are taking place","hours":{"_text":"Monday: 09:30 - 15:00, Tuesday: 09:30 - 15:00, Wednesday: 09:30 - 15:00, Thursday: 09:30 - 15:00, Friday: 09:30 - 15:00, Saturday: 09:30 - 15:00, Sunday: 12:00 - 15:00","opening":"Mo 09:30-15:00; Tu 09:30-15:00; We 09:30-15:00; Th 09:30-15:00; Fr 09:30-15:00; Sa 09:30-15:00; Su 12:00-15:00"},"title":"Cromer Parish Church lounge"},"type":"Feature"},
		{"geometry":{"coordinates":[1.20892,52.94279],"type":"Point"},"properties":{"_source":"warm_welcome","address":"St Peter's Church hall, Boulevard Road, Sheringham, Sheringham, Norfolk NR26 8QS","description":"You are welcome to join us, whoever you are, on Monday morning between 10am and 12 noon for a warm welcome, a hot drink and biscuit or perhaps a scone, our treat! We open on Bank Holiday Mondays too.","hours":{"_text":"Monday: 10:00 - 12:00","opening":"Mo 10:00-12:00"},"title":"Monday Cuppa"},"type":"Feature"},
		{"geometry":{"coordinates":[1.30866,52.92222],"type":"Point"},"properties":{"_source":"warm_welcome","address":"St Martin's Church, Norfolk NR27 0AD","description":"The warm welcome space at St martins on a Monday afternoon is open to all including those with children.","hours":{"_text":"Monday: 14:00 - 17:00","opening":"Mo 14:00-17:00"},"title":"Mustard Seed Meals on Monday at St Martin's"},"type":"Feature"},
		{"geometry":{"coordinates":[1.21258,52.94255],"type":"Point"},"properties":{"_source":"warm_welcome","address":"Norfolk County Council, Sheringham, Norfolk NR26 8EB","description":"You can access most Libraries outside staffed hours with “Open Library” providing extra access to the library, its books and computers. Check if it's currently available at your local library at www.norfolk.gov.uk/openlibrary Free hot drinks available, please see our What’s On page or ask in the library for times: https://www.norfolk.gov.uk/libraries-local-history-and-archives/libraries/whats-on","hours":{"_text":"Monday: 10:00 - 19:00, Tuesday: 10:00 - 19:00, Wednesday: 13:00 - 19:00, Friday: 13:00 - 19:00, Saturday: 11:00 - 16:00","opening":"Mo 10:00-19:00; Tu 10:00-19:00; We 13:00-19:00; Fr 13:00-19:00; Sa 11:00-16:00"},"title":"Sheringham Library"},"type":"Feature"},
		{"geometry":{"coordinates":[1.21348,52.94282],"type":"Point"},"properties":{"_source":"warm_welcome","address":"The Salvation Army, Norfolk NR26 8DZ","description":"A safe space to stay warm, have a hot drink/snack and meet new people. You’re welcome to join in with board games, read the newspaper, bring a book, your knitting, use our Wifi, chat or simply enjoy the warm space to sit & have space to be quiet. Just drop in – no need to book.","hours":{"_text":"Thursday: 10:00 - 01:00 / 10:00 - 01:00","opening":"Th 10:00-01:00,10:00-01:00"},"title":"Sheringham Salvation Army - Welcome Space"},"type":"Feature"},
		{"geometry":{"coordinates":[1.21288,52.94064],"type":"Point"},"properties":{"_source":"warm_welcome","address":"St Andrews Road, Sheringham, Norfolk NR26 8SA","description":"Small Hall","hours":{"_text":"Tuesday: 10:00 - 13:00","opening":"Tu 10:00-13:00"},"title":"Sheringham St Andrews Methodist Church"},"type":"Feature"},
		{"geometry":{"coordinates":[1.30217,52.93067],"type":"Point"},"properties":{"_source":"norfolk_community_foundation","address":"North Norfolk, NR279ES","description":"Local Authority: Local Authority Name: North Norfolk Area of Benefit Postcode: NR279ES","loc_pcd":true,"title":"Merchants Place Ltd"},"type":"Feature"},
		{"geometry":{"coordinates":[1.33484,52.91676],"type":"Point"},"properties":{"_source":"norfolk_community_foundation","address":"North Norfolk, NR270NT","description":"Local Authority: Local Authority Name: North Norfolk Area of Benefit Postcode: NR270NT","loc_pcd":true,"title":"The Belfry Centre for Music & Arts C.I.C"},"type":"Feature"},
		{"geometry":{"coordinates":[1.19726,52.94183],"type":"Point"},"properties":{"_source":"norfolk_community_foundation","address":"North Norfolk, NR268WD","description":"Local Authority: Local Authority Name: North Norfolk Area of Benefit Postcode: NR268WD","loc_pcd":true,"title":"Everyone Active (SLM Charitable Trust)"},"type":"Feature"},
		{"geometry":{"coordinates":[1.29522,52.93011],"type":"Point"},"properties":{"_source":"norfolk_community_foundation","address":"North Norfolk, NR279DT","description":"Local Authority: Local Authority Name: North Norfolk Area of Benefit Postcode: NR279DT","loc_pcd":true,"title":"Cromer Methodist - Community Matters Cafe"},"type":"Feature"},
		{"geometry":{"coordinates":[1.30152,52.93158],"type":"Point"},"properties":{"_source":"norfolk_community_foundation","address":"North Norfolk, NR279AE","description":"Local Authority: Local Authority Name: North Norfolk Area of Benefit Postcode: NR279AE","loc_pcd":true,"title":"About with Friends"},"type":"Feature"},
		{"geometry":{"coordinates":[1.20890,52.94282],"type":"Point"},"properties":{"_source":"norfolk_community_foundation","address":"North Norfolk, NR268QS","description":"Local Authority: Local Authority Name: North Norfolk Area of Benefit Postcode: NR268QS","loc_pcd":true,"title":"St Peter's Church"},"type":"Feature"},
		{"geometry":{"coordinates":[1.14000,52.94364],"type":"Point"},"properties":{"_source":"norfolk_community_foundation","address":"North Norfolk, NR257AH","description":"Local Authority: Local Authority Name: North Norfolk Area of Benefit Postcode: NR257AH","loc_pcd":true,"title":"Weybourne Village Hall"},"type":"Feature"}
	]
}
