{
	"type": "FeatureCollection",
	"features": [
		{"geometry":{"coordinates":[1.21348,52.94282],"type":"Point"},"properties":{"_source":"warm_welcome","address":"35B Cremer Street, Sheringham, Norfolk NR26 8DZ NR26 8DZ","description":"Older People We provide a two-course lunch and refreshments for £7.00","hours":{"_text":"Tuesday: 12:00 - 13:15, Wednesday: 12:00 - 13:15, Thursday: 12:00 - 13:15, Friday: 12:00 - 13:15","opening":"Tu 12:00-13:15; We 12:00-13:15; Th 12:00-13:15; Fr 12:00-13:15"},"title":"Age Concern North Norfolk Lunch Club"},"type":"Feature"},
		{"geometry":{"coordinates":[1.29955,52.93192],"type":"Point"},"properties":{"_source":"warm_welcome","address":"Cromer Community Centre, Cromer, norfolk NR27 9HN","description":"Cromer Friendship Hub operates from Cromer Community using the main hall, toilets and kitchen. We work with New-U to have rag rugging and other craft activities. We cater for everyone, wheel chair access plus well behaved small dogs. We have Jigsaws, Games etc. On Wednesday we have rag rugging","hours":{"_text":"Wednesday: 10:00 - 13:00, Friday: 10:00 - 13:00","opening":"We 10:00-13:00; Fr 10:00-13:00"},"title":"Cromer Friendship Hub"},"type":"Feature"},
		{"geometry":{"coordinates":[1.30024,52.93112],"type":"Point"},"properties":{"_source":"warm_welcome","address":"Cromer Parish Church , St Peters and St Pauls, Norfolk NR27 9HH","description":"The lounge is a warm and comfortable place for all open from 09.30 til 3pm every day except when services are taking place","hours":{"_text":"Monday: 09:30 - 15:00, Tuesday: 09:30 - 15:00, Wednesday: 09:30 - 15:00, Thursday: 09:30 - 15:00, Friday: 09:30 - 15:00, Saturday: 09:30 - 15:00, Sunday: 12:00 - 15:00","opening":"Mo 09:30-15:00; Tu 09:30-15:00; We 09:30-15:00; Th 09:30-15:00; Fr 09:30-15:00; Sa 09:30-15:00; Su 12:00-15:00"},"title":"Cromer Parish Church lounge"},"type":"Feature"},
		{"geometry":{"coordinates":[1.30866,52.92222],"type":"Point"},"properties":{"_source":"warm_welcome","address":"St Martin's Church, Norfolk NR27 0AD","description":"The warm welcome space at St martins on a Monday afternoon is open to all including those with children.","hours":{"_text":"Monday: 14:00 - 17:00","opening":"Mo 14:00-17:00"},"title":"Mustard Seed Meals on Monday at St Martin's"},"type":"Feature"},
		{"geometry":{"coordinates":[1.21288,52.94064],"type":"Point"},"properties":{"_source":"warm_welcome","address":"St Andrews Road, Sheringham, Norfolk NR26 8SA","description":"Small Hall","hours":{"_text":"Tuesday: 10:00 - 15:00","opening":"Tu 10:00-15:00"},"title":"Sheringham St Andrews Methodist Church"},"type":"Feature"},
		{"geometry":{"coordinates":[1.21311,52.94062],"type":"Point"},"properties":{"_source":"warm_welcome","address":"St. Andrews Methodist Church, Norfolk NR26 8SA","description":"The space is open for all","hours":{"_text":"Tuesday: 10:00 - 03:00","opening":"Tu 10:00-03:00"},"title":"Warm Welcome Space"},"type":"Feature"},
		{"geometry":{"coordinates":[1.21361,52.94190],"type":"Point"},"properties":{"_source":"warm_spaces","address":"35B Cremer Street, Sheringham, England, NR26 8DZ, United Kingdom","description":"Free Wi-Fi, People to chat to, Food/Drink for sale, Accessible Toilet","hours":{"_text":"Tue - Fri, 12pm-1:15pm","opening":"Tu-Fr 12:00-13:15"},"title":"Age Concern North Norfolk Lunch Club","url":"https://www.ageconcernnorthnorfolk.co.uk"},"type":"Feature"},
		{"geometry":{"coordinates":[1.21219,52.94005],"type":"Point"},"properties":{"_source":"warm_spaces","address":"St Joseph&#39;s Church Hall, 58 Cromer Road, Sheringham, England, NR26 8RT, United Kingdom","description":"Free Food/Drink, Device Charging, People to chat to, Wheelchair Accessible, Toilets, Accessible Toilet, Parking","hours":{"_text":"2pm-3:30pm (10 Weeks from 16 January 2023)"},"title":"Singing for Breathing Course","url":"https://playingforcake.uk/singing-for-breathing-2/"},"type":"Feature"},
		{"geometry":{"coordinates":[1.20570,52.93529],"type":"Point"},"properties":{"_source":"warm_spaces","address":"Sheringham Community Centre, Holway Road, Sheringham, England, NR26 8NP, United Kingdom","description":"Free Food/Drink, People to chat to, Wheelchair Accessible, Toilets, Accessible Toilet, Parking, Child Friendly, Singing with others - physical activity - free tea/coffee","hours":{"_text":"Wednesday 1:30pm-3pm (from 11th January 2023)","opening":"We 13:30-15:00"},"title":"Singing for Health, Wellbeing and Fun","url":"http://playingforcake.uk"},"type":"Feature"},
		{"geometry":{"coordinates":[1.29891,52.93149],"type":"Point"},"properties":{"_source":"warm_spaces","address":"Garden Street, Cromer, England, NR27 9HL, United Kingdom","description":"Free Food/Drink, Free Wi-Fi, Device Charging, People to chat to, Space to work, Wheelchair Accessible, Toilets, Accessible Toilet, Child Friendly, Books, Jigsaws and Games","hours":{"_text":"Wednesday and Friday 10am-2pm","opening":"We 10:00-14:00; Fr 10:00-14:00"},"title":"Cromer Warm Space","url":"https://www.cromercommunity.co.uk"},"type":"Feature"},
		{"geometry":{"coordinates":[1.21196,52.94276],"type":"Point"},"properties":{"_source":"warm_spaces","address":"New Road, Sheringham, England, NR26 8EB, United Kingdom","description":"Free Food/Drink, Free Wi-Fi, Advice, People to chat to, Space to work, Parking, Child Friendly, Computer Access. You can access most Libraries outside staffed hours with “Open Library” providing extra access to the library, its books and computers.","hours":{"_text":"Monday and Tuesday 10am-7pm; Wednesday 1pm-7pm; Friday 1pm-7pm; Saturday 11am-4pm","opening":"Mo 10:00-19:00; Tu 10:00-19:00; We 13:00-19:00; Fr 13:00-19:00; Sa 11:00-16:00"},"title":"Sheringham Library","url":"https://www.norfolk.gov.uk/libraries"},"type":"Feature"},
		{"geometry":{"coordinates":[1.29779,52.93103],"type":"Point"},"properties":{"_source":"warm_spaces","address":"Prince of Wales Road, Cromer, England, NR27 9HS, United Kingdom","description":"Free Food/Drink, Free Wi-Fi, Advice, People to chat to, Space to work, Child Friendly, Computer Access. You can access most Libraries outside staffed hours with “Open Library” providing extra access to the library, its books and computers.","hours":{"_text":"Mon, Tue, Thu, Fri 10:30am-7pm; Sat 12pm-4pm","opening":"Mo 10:30-19:00; Tu 10:30-19:00; Th 10:30-19:00; Fr 10:30-19:00; Sa 12:00-16:00"},"title":"Cromer Library","url":"https://www.norfolk.gov.uk/libraries"},"type":"Feature"},
		{"geometry":{"coordinates":[1.20874,52.94303],"type":"Point"},"properties":{"_source":"warm_spaces","address":"41 Church Street, Sheringham, England, NR26 8QS, United Kingdom","description":"Free Food/Drink, Advice, People to chat to, Wheelchair Accessible, Toilets, Accessible Toilet, Child Friendly","hours":{"_text":"9.30pm-11.30pm"},"title":"Noah’s Ark Baby and Toddler Group","url":"https://m.facebook.com/StPetersSheringham/photos/a.1089398397813359/3958942667525570/"},"type":"Feature"},
		{"geometry":{"coordinates":[1.20874,52.94303],"type":"Point"},"properties":{"_source":"warm_spaces","address":"St Peter’s Church Hall, Church Street, Sheringham, England, NR26 8QS, United Kingdom","description":"Free Food/Drink, Wheelchair Accessible, Toilets, Accessible Toilet","hours":{"_text":"Mondays 10am-12noon","opening":"Mo 10:00-12:00"},"title":"St Peter’s Church, Sheringham ‘Monday Cuppa’","url":"https://www.achurchnearyou.com/church/10042/news/?page=64"},"type":"Feature"},
		{"geometry":{"coordinates":[1.20570,52.93529],"type":"Point"},"properties":{"_source":"warm_spaces","address":"Sheringham Community Centre, Holway Road, Sheringham, England, NR26 8NP, United Kingdom","description":"Advice, People to chat to, Food/Drink for sale, Toilets, Accessible Toilet, Parking, Child Friendly","hours":{"_text":"Tuesday and Friday, 10am-2pm","opening":"Tu 10:00-14:00; Fr 10:00-14:00"},"title":"Little Fishes Sheringham","url":"https://communitydirectory.norfolk.gov.uk/Services/10398"},"type":"Feature"},
		{"geometry":{"coordinates":[1.21300,52.94047],"type":"Point"},"properties":{"_source":"warm_spaces","address":"Cromer Road, Sheringham, England, NR26 8SA, United Kingdom","description":"Free Food/Drink, Free Wi-Fi, People to chat to, Wheelchair Accessible, Toilets, Accessible Toilet, Parking","hours":{"_text":"Tuesday 10am-4pm","opening":"Tu 10:00-16:00"},"title":"Warm Space at St Andrew's","url":"https://www.sheringhammethodist.org.uk"},"type":"Feature"},
		{"geometry":{"coordinates":[1.30871,52.92112],"type":"Point"},"properties":{"_source":"warm_spaces","address":"St Martin&#39;s Church, Mill Road, Cromer, England, NR27 0AD, United Kingdom","description":"Free Food/Drink, Free Wi-Fi, People to chat to, Space to work, Food/Drink for sale","hours":{"_text":"Mondays, 2pm- 5pm &amp; Thursdays 9am-12pm","opening":"Mo 14:00-17:00; Th 09:00-12:00"},"title":"St Martin’s Church"},"type":"Feature"},
		{"geometry":{"coordinates":[1.30130,52.93130],"type":"Point"},"properties":{"_source":"warm_spaces","address":"Cromer Parish Church (St Peter and St Paul), Church Street, Cromer, England, NR27 9HH, United Kingdom","description":"Free Food/Drink, Free Wi-Fi, People to chat to, Space to work, Family area with toys and books","hours":{"_text":"9:30am-3:30pm (Excluding service times)"},"title":"Cromer Parish Church","url":"https://cromer-church.org.uk"},"type":"Feature"},
		{"geometry":{"coordinates":[1.29552,52.93016],"type":"Point"},"properties":{"_source":"warm_spaces","address":"Cromer Methodist Church Hall, West Street, Cromer, England, NR27 9HZ, United Kingdom","description":"Free Food/Drink, Device Charging, People to chat to","hours":{"_text":"Mondays &amp; Thursdays, 10.30am-1.00pm","opening":"Mo 10:30-13:00; Th 10:30-13:00"},"title":"Community Matters Cafe","url":"https://www.northnorfolkmethodist.org.uk/cromer.htm"},"type":"Feature"},
		{"geometry":{"coordinates":[1.30217,52.93067],"type":"Point"},"properties":{"_source":"norfolk_community_foundation","address":"North Norfolk, NR279ES","description":"Local Authority: Local Authority Name: North Norfolk Area of Benefit Postcode: NR279ES","loc_pcd":true,"title":"Merchants Place Ltd"},"type":"Feature"},
		{"geometry":{"coordinates":[1.33484,52.91676],"type":"Point"},"properties":{"_source":"norfolk_community_foundation","address":"North Norfolk, NR270NT","description":"Local Authority: Local Authority Name: North Norfolk Area of Benefit Postcode: NR270NT","loc_pcd":true,"title":"The Belfry Centre for Music & Arts C.I.C"},"type":"Feature"},
		{"geometry":{"coordinates":[1.19726,52.94183],"type":"Point"},"properties":{"_source":"norfolk_community_foundation","address":"North Norfolk, NR268WD","description":"Local Authority: Local Authority Name: North Norfolk Area of Benefit Postcode: NR268WD","loc_pcd":true,"title":"Everyone Active (SLM Charitable Trust)"},"type":"Feature"},
		{"geometry":{"coordinates":[1.29522,52.93011],"type":"Point"},"properties":{"_source":"norfolk_community_foundation","address":"North Norfolk, NR279DT","description":"Local Authority: Local Authority Name: North Norfolk Area of Benefit Postcode: NR279DT","loc_pcd":true,"title":"Cromer Methodist - Community Matters Cafe"},"type":"Feature"},
		{"geometry":{"coordinates":[1.30152,52.93158],"type":"Point"},"properties":{"_source":"norfolk_community_foundation","address":"North Norfolk, NR279AE","description":"Local Authority: Local Authority Name: North Norfolk Area of Benefit Postcode: NR279AE","loc_pcd":true,"title":"About with Friends"},"type":"Feature"},
		{"geometry":{"coordinates":[1.20890,52.94282],"type":"Point"},"properties":{"_source":"norfolk_community_foundation","address":"North Norfolk, NR268QS","description":"Local Authority: Local Authority Name: North Norfolk Area of Benefit Postcode: NR268QS","loc_pcd":true,"title":"St Peter's Church"},"type":"Feature"},
		{"geometry":{"coordinates":[1.14000,52.94364],"type":"Point"},"properties":{"_source":"norfolk_community_foundation","address":"North Norfolk, NR257AH","description":"Local Authority: Local Authority Name: North Norfolk Area of Benefit Postcode: NR257AH","loc_pcd":true,"title":"Weybourne Village Hall"},"type":"Feature"}
	]
}
