{
	"type": "FeatureCollection",
	"features": [
		{"geometry":{"coordinates":[1.21345,52.94214],"type":"Point"},"properties":{"_source":"warm_welcome","address":"35B Cremer Street, Sheringham , Norfolk NR26 8DZ","description":"Older People We provide a two-course lunch and refreshments for £7.00","hours":{"_text":"Tuesday: 12:00 - 13:15, Wednesday: 12:00 - 13:15, Thursday: 12:00 - 13:15, Friday: 12:00 - 13:15","opening":"Tu 12:00-13:15; We 12:00-13:15; Th 12:00-13:15; Fr 12:00-13:15"},"title":"Age Concern North Norfolk Lunch Club"},"type":"Feature"},
		{"geometry":{"coordinates":[1.29955,52.93192],"type":"Point"},"properties":{"_source":"warm_welcome","address":"Cromer Community Centre, Cromer, norfolk NR27 9HN","description":"We cater for everyone, wheel chair access We have Jigsaws, Games etc. On Wednesday we have rag rugging","hours":{"_text":"Wednesday: 10:00 - 14:00, Friday: 10:00 - 14:00","opening":"We 10:00-14:00; Fr 10:00-14:00"},"title":"Cromer Community Association CIO"},"type":"Feature"},
		{"geometry":{"coordinates":[1.29788,52.93174],"type":"Point"},"properties":{"_source":"warm_welcome","address":"Prince of Wales Road, Cromer, Norfolk NR27 9HS","description":"You can access most Libraries outside staffed hours with “Open Library” providing extra access to the library, its books and computers. Check if it's currently available at your local library here www.norfolk.gov.uk/openlibrary","hours":{"_text":"Monday: 10:30 - 19:00, Tuesday: 10:30 - 19:00, Thursday: 10:30 - 19:00, Friday: 10:30 - 19:00, Saturday: 12:00 - 16:00","opening":"Mo 10:30-19:00; Tu 10:30-19:00; Th 10:30-19:00; Fr 10:30-19:00; Sa 12:00-16:00"},"title":"Cromer Library"},"type":"Feature"},
		{"geometry":{"coordinates":[1.30145,52.93096],"type":"Point"},"properties":{"_source":"warm_welcome","address":"Church Street, Cromer, Norfolk NR27 0EX","hours":{"_text":"Monday: 09:30 - 15:00, Tuesday: 09:30 - 15:00, Wednesday: 09:30 - 15:00, Thursday: 09:30 - 15:00, Friday: 09:30 - 15:00, Saturday: 09:30 - 15:00, Sunday: 12:30 - 15:00","opening":"Mo 09:30-15:00; Tu 09:30-15:00; We 09:30-15:00; Th 09:30-15:00; Fr 09:30-15:00; Sa 09:30-15:00; Su 12:30-15:00"},"title":"Cromer Parish Church"},"type":"Feature"},
		{"geometry":{"coordinates":[1.21203,52.94259],"type":"Point"},"properties":{"_source":"warm_welcome","address":"New Road, Sheringham, Norfolk NR26 8EB","description":"You can access most Libraries outside staffed hours with “Open Library” providing extra access to the library, its books and computers. Check if it's currently available at your local library here www.norfolk.gov.uk/openlibrary","hours":{"_text":"Monday: 10:00 - 19:00, Tuesday: 10:00 - 19:00, Wednesday: 13:00 - 19:00, Friday: 13:00 - 19:00, Saturday: 11:00 - 16:00","opening":"Mo 10:00-19:00; Tu 10:00-19:00; We 13:00-19:00; Fr 13:00-19:00; Sa 11:00-16:00"},"title":"Sheringham Library"},"type":"Feature"},
		{"geometry":{"coordinates":[1.21288,52.94064],"type":"Point"},"properties":{"_source":"warm_welcome","address":"St Andrews Road, Sheringham, Norfolk NR26 8SA","hours":{"_text":"Tuesday: 10:00 - 16:00","opening":"Tu 10:00-16:00"},"title":"Sheringham St Andrews Methodist Church"},"type":"Feature"},
		{"geometry":{"coordinates":[1.30217,52.93067],"type":"Point"},"properties":{"_source":"norfolk_community_foundation","address":"North Norfolk, NR279ES","description":"Local Authority: Local Authority Name: North Norfolk Area of Benefit Postcode: NR279ES","loc_pcd":true,"title":"Merchants Place Ltd"},"type":"Feature"},
		{"geometry":{"coordinates":[1.33484,52.91676],"type":"Point"},"properties":{"_source":"norfolk_community_foundation","address":"North Norfolk, NR270NT","description":"Local Authority: Local Authority Name: North Norfolk Area of Benefit Postcode: NR270NT","loc_pcd":true,"title":"The Belfry Centre for Music & Arts C.I.C"},"type":"Feature"},
		{"geometry":{"coordinates":[1.19726,52.94183],"type":"Point"},"properties":{"_source":"norfolk_community_foundation","address":"North Norfolk, NR268WD","description":"Local Authority: Local Authority Name: North Norfolk Area of Benefit Postcode: NR268WD","loc_pcd":true,"title":"Everyone Active (SLM Charitable Trust)"},"type":"Feature"},
		{"geometry":{"coordinates":[1.29522,52.93011],"type":"Point"},"properties":{"_source":"norfolk_community_foundation","address":"North Norfolk, NR279DT","description":"Local Authority: Local Authority Name: North Norfolk Area of Benefit Postcode: NR279DT","loc_pcd":true,"title":"Cromer Methodist - Community Matters Cafe"},"type":"Feature"},
		{"geometry":{"coordinates":[1.30152,52.93158],"type":"Point"},"properties":{"_source":"norfolk_community_foundation","address":"North Norfolk, NR279AE","description":"Local Authority: Local Authority Name: North Norfolk Area of Benefit Postcode: NR279AE","loc_pcd":true,"title":"About with Friends"},"type":"Feature"},
		{"geometry":{"coordinates":[1.20890,52.94282],"type":"Point"},"properties":{"_source":"norfolk_community_foundation","address":"North Norfolk, NR268QS","description":"Local Authority: Local Authority Name: North Norfolk Area of Benefit Postcode: NR268QS","loc_pcd":true,"title":"St Peter's Church"},"type":"Feature"},
		{"geometry":{"coordinates":[1.14000,52.94364],"type":"Point"},"properties":{"_source":"norfolk_community_foundation","address":"North Norfolk, NR257AH","description":"Local Authority: Local Authority Name: North Norfolk Area of Benefit Postcode: NR257AH","loc_pcd":true,"title":"Weybourne Village Hall"},"type":"Feature"}
	]
}
