{
	"type": "FeatureCollection",
	"features": [
		{"geometry":{"coordinates":[1.12096,52.11532],"type":"Point"},"properties":{"_source":"warm_welcome","address":"st Mary & St Peters Church Hall, Barham IP6 0PT, Suffolk IP6 0AZ","hours":{"_text":"Friday: 10:00 - 12:30","opening":"Fr 10:00-12:30"},"title":"Friday Drop-in at Barham"},"type":"Feature"},
		{"geometry":{"coordinates":[1.14785,52.05913],"type":"Point"},"properties":{"_source":"warm_welcome","address":"New Wolsey Theatre Co Ltd, Ipswich, Suffolk IP1 2AS","description":"On Mondays from 27th January - 31st March 2025, The New Wolsey Theatre is opening as a Warm Place for those that need it. We will have free hot drinks, a hot meal, warm clothes bank, and kids area.","hours":{"_text":"Monday: 11:30 - 14:30","opening":"Mo 11:30-14:30"},"title":"New Wolsey Theatre Warm Place"},"type":"Feature"},
		{"geometry":{"coordinates":[1.31395,52.08949],"type":"Point"},"properties":{"_source":"warm_welcome","address":"Jetty Lane, Woodbridge, Suffolk IP12 4BA","description":"Our warm space is run by a consortium of organisations: Jetty Lane, a charity which inspires hope, facilitates support and makes opportunities happen for young people, Rubbish Walks' Vintage Litter Museum (the first in this country) and Transition Woodbridge, a community-led group that aims to strengthen the local economy, reduce the cost of living and prepare for a future with less oil and a changing climate. We're based in 2 bright blue recycled shipping containers, if you walk next to Kingston Field, towards the River Deben you won't miss us! Our space will continue to stay open every Friday and Saturday through the spring and summer into autumn 2024.","hours":{"_text":"Tuesday: 15:30 - 17:30, Wednesday: 15:30 - 17:30, Friday: 10:00 - 12:00, Saturday: 10:00 - 12:00","opening":"Tu 15:30-17:30; We 15:30-17:30; Fr 10:00-12:00; Sa 10:00-12:00"},"title":"The Pod at Jetty Lane in Woodbridge"},"type":"Feature"},
		{"geometry":{"coordinates":[1.14110,52.08201],"type":"Point"},"properties":{"_source":"warm_welcome","address":"Castle Hill United Reformed Church, Ipswich, Suffolk IP1 6QF","description":"A warm welcome and free tea, coffee and biscuits. Accessible toilets and free WiFi. Large selection of cake on first Tuesday of the month (By donation, if able) Knitting group also on 4th Tuesday","hours":{"_text":"Tuesday: 10:00 - 12:00","opening":"Tu 10:00-12:00"},"title":"Warm Welcome Space"},"type":"Feature"},
		{"geometry":{"coordinates":[1.29326,52.08636],"type":"Point"},"properties":{"_source":"warm_welcome","address":"Woodbridge Football Club, Woodbridge, Suffolk IP12 4LS","description":"SPACE OPENING ON 6th January 2025** Bar area","hours":{"_text":"Monday: 08:00 - 11:30","opening":"Mo 08:00-11:30"},"title":"Woodbridge Town Football club"},"type":"Feature"},
		{"geometry":{"coordinates":[1.14033,52.06895],"type":"Point"},"properties":{"_source":"suffolk_-_rural_coffee_caravan","address":"Sherrington Road, Ipswich IP1 4HT, UK","contact":"Phone:01473 749929","hours":{"_text":"Open 6 days a week, please follow the website link for opening times "},"title":"Broomhill Library","url":"https://www.suffolklibraries.co.uk/visit/locations-and-times/broomhill-library"},"type":"Feature"},
		{"geometry":{"coordinates":[1.17985,52.22807],"type":"Point"},"properties":{"_source":"suffolk_-_rural_coffee_caravan","address":"School Road, Debenham, Stowmarket IP14 6PL, UK","contact":"Phone:01728 861940","hours":{"_text":"Open 4 days a week, please follow the website link for opening times "},"title":"Debenham Library","url":"https://www.suffolklibraries.co.uk/visit/locations-and-times/debenham-library"},"type":"Feature"},
		{"geometry":{"coordinates":[1.34249,52.22241],"type":"Point"},"properties":{"_source":"suffolk_-_rural_coffee_caravan","address":"Bridge Street, Framlingham, Woodbridge IP13 9AJ, UK","contact":"Phone:01728 723735","hours":{"_text":"Open 6 days a week, please follow the website link for opening times "},"title":"Framlingham Library","url":"https://www.suffolklibraries.co.uk/visit/locations-and-times/framlingham-library"},"type":"Feature"},
		{"geometry":{"coordinates":[1.15641,52.05901],"type":"Point"},"properties":{"_source":"suffolk_-_rural_coffee_caravan","address":"Northgate Street, Ipswich IP1 3DE, UK","contact":"Phone:01473 927260","hours":{"_text":"Open 7 days a week, please follow the website link for opening times "},"title":"Ipswich County Library","url":"https://www.suffolklibraries.co.uk/visit/locations-and-times/ipswich-county-library"},"type":"Feature"},
		{"geometry":{"coordinates":[1.23769,52.06151],"type":"Point"},"properties":{"_source":"suffolk_-_rural_coffee_caravan","address":"Kinsey House, Kays Close, Kesgrave, Ipswich IP5 2HL, UK","contact":"Phone:01473 626103","hours":{"_text":"Open 7 days a week, please follow the website link for opening times "},"title":"Kesgrave Library","url":"https://www.suffolklibraries.co.uk/visit/locations-and-times/kesgrave-library"},"type":"Feature"},
		{"geometry":{"coordinates":[1.18420,52.06621],"type":"Point"},"properties":{"_source":"suffolk_-_rural_coffee_caravan","address":"Ransomes Sports Pavilion, Sidegate Avenue, Ipswich IP4 4JJ, UK","hours":{"_text":"Open 1 day a week, please follow the website link for opening times "},"title":"Rushmere Library (Suffolk Libraries Local)","url":"https://www.suffolklibraries.co.uk/visit/locations-and-times/rushmere"},"type":"Feature"},
		{"geometry":{"coordinates":[1.36367,52.15184],"type":"Point"},"properties":{"_source":"suffolk_-_rural_coffee_caravan","address":"Resource Centre, Chapel Lane, Wickham Market, Woodbridge, IP13 0SD UK","contact":"Phone:01728 747216","hours":{"_text":"Open 5 days a week, please follow the website link for opening times "},"title":"Wickham Market Library","url":"https://www.suffolklibraries.co.uk/visit/locations-and-times/wickham-market-library"},"type":"Feature"},
		{"geometry":{"coordinates":[1.31838,52.09338],"type":"Point"},"properties":{"_source":"suffolk_-_rural_coffee_caravan","address":"New Street, Woodbridge IP12 1DT, UK","contact":"Phone:01394 330855","hours":{"_text":"Open 7 days a week, please follow the website link for opening times "},"title":"Woodbridge Library","url":"https://www.suffolklibraries.co.uk/visit/locations-and-times/woodbridge-library"},"type":"Feature"},
		{"geometry":{"coordinates":[1.19998,52.06930],"type":"Point"},"properties":{"_source":"suffolk_-_rural_coffee_caravan","address":"Rushmere Village Hall, Humber Doucy Lane, Ipswich IP4 3PD, UK","contact":"Phone:07507 429310","description":"A welcoming warm space providing free hot refreshments, including tea, coffee, hot chocolate and snacks . There is no need to book just come along. All Welcome!","hours":{"_text":"Saturdays from January 6th - March 30th 9.00 - 11.00 *(Except Feb 17th 14.00 - 16.00)"},"title":"Winter Warm Ups - Rushmere","url":"https://www.facebook.com/Villagehallrsa"},"type":"Feature"}
	]
}
