{
	"type": "FeatureCollection",
	"features": [
		{"geometry":{"coordinates":[1.07077,51.96970],"type":"Point"},"properties":{"_source":"warm_welcome","address":"Gravel Pit Lane, Brantham, Manningtree, Suffolk CO11 1NX","hours":{"_text":"Saturday: 10:30 - 12:00 / - Monthly","opening":"Sa 10:30-12:00"},"title":"Brantham Methodist Church"},"type":"Feature"},
		{"geometry":{"coordinates":[1.27104,51.84735],"type":"Point"},"properties":{"_source":"warm_welcome","address":"New Pier Street, Walton on the Naze , Essex CO14 8EB","description":"Open from 01-12-2022.","hours":{"_text":"Thursday: 10:00 - 15:30","opening":"Th 10:00-15:30"},"title":"Emmanuel Church"},"type":"Feature"},
		{"geometry":{"coordinates":[1.33980,51.96931],"type":"Point"},"properties":{"_source":"warm_welcome","address":"Seaton Road, Felixstowe, Suffolk IP11 9BT","hours":{"_text":"Thursday: 11:00 - 15:00","opening":"Th 11:00-15:00"},"title":"Felixstowe Peninsula Methodist Churches @ Seaton Road"},"type":"Feature"},
		{"geometry":{"coordinates":[1.30931,51.99332],"type":"Point"},"properties":{"_source":"warm_welcome","address":"Mill Lane, Trimley St Martin, Suffolk IP11 0RN","description":"Open from 01-11-2022. All are welcome, although mainly elderly people attend but Parent and Toddlers would be very welcome","hours":{"_text":"Tuesday: 11:00 - 15:00","opening":"Tu 11:00-15:00"},"title":"Felixstowe Peninsular Methodist Churches"},"type":"Feature"},
		{"geometry":{"coordinates":[1.27070,51.93528],"type":"Point"},"properties":{"_source":"warm_welcome","address":"Harwich Arts & Heritage Centre, Harwich, Essex CO12 4AJ","hours":{"_text":"Monday: 10:00 - 16:00, Tuesday: 10:00 - 16:00, Wednesday: 10:00 - 16:00, Thursday: 10:00 - 16:00, Friday: 10:00 - 16:00, Saturday: 10:00 - 13:00 / - Monthly","opening":"Mo 10:00-16:00; Tu 10:00-16:00; We 10:00-16:00; Th 10:00-16:00; Fr 10:00-16:00; Sa 10:00-13:00"},"title":"Harwich Arts & Heritage Centre"},"type":"Feature"},
		{"geometry":{"coordinates":[1.25067,51.84599],"type":"Point"},"properties":{"_source":"warm_welcome","address":"Garden Road, Walton on the Naze, Essex CO14 8SJ","hours":{"_text":"Tuesday: 13:30 - 15:30, Friday: 10:00 - 12:00, Sunday: 10:30 - 12:30","opening":"Tu 13:30-15:30; Fr 10:00-12:00; Su 10:30-12:30"},"title":"Homelands Free Church"},"type":"Feature"},
		{"geometry":{"coordinates":[1.18673,52.03107],"type":"Point"},"properties":{"_source":"warm_welcome","address":"Gainsborough Sports Centre, Ipswich, Suffolk IP3 0SP","description":"Open from Monday 17th October 2022.","hours":{"_text":"Monday: 8:30 - 18:30, Tuesday: 8:30 - 18:30, Wednesday: 8:30 - 18:30, Thursday: 8:30 - 18:30, Friday: 8:30 - 18:30, Saturday: 8:30 - 12:00, Sunday: 8:30 - 17:30","opening":"Mo 08:30-18:30; Tu 08:30-18:30; We 08:30-18:30; Th 08:30-18:30; Fr 08:30-18:30; Sa 08:30-12:00; Su 08:30-17:30"},"title":"Ipswich Borough Council"},"type":"Feature"},
		{"geometry":{"coordinates":[1.18466,52.03647],"type":"Point"},"properties":{"_source":"warm_welcome","address":"Landseer Road, Ipswich, Suffolk IP3 9LX","hours":{"_text":"Friday: 08:45 - 12:00","opening":"Fr 08:45-12:00"},"title":"Landseer Road Methodist CHurch"},"type":"Feature"},
		{"geometry":{"coordinates":[1.13915,52.05238],"type":"Point"},"properties":{"_source":"warm_welcome","address":"Penta Hotel Ipswich, Ranelagh Road, Ipswich, Suffolk IP2 0AD","description":"Opening hours: Every Wednesday 13:00-15:00hrs","hours":{"_text":"Wednesday: 13:00 - 15:00","opening":"We 13:00-15:00"},"title":"Pentahotels"},"type":"Feature"},
		{"geometry":{"coordinates":[1.28934,51.94530],"type":"Point"},"properties":{"_source":"warm_welcome","address":"31 Kings Quay Street, Harwich, Essex CO12 3ES","hours":{"_text":"Tuesday: 19:00 - 20:30, Thursday: 10:00 - 14:00","opening":"Tu 19:00-20:30; Th 10:00-14:00"},"title":"The Lounge"},"type":"Feature"},
		{"geometry":{"coordinates":[1.07380,51.94445],"type":"Point"},"properties":{"_source":"essex_map","address":"New Road, Mistley, Manningtree CO11 1ER, UK","title":"Church of St. Mary &#038; St. Michael, Mistley with Manningtree","url":"https://www.essexmap.co.uk/listings/church-of-st-mary-st-michael-mistley-with-manningtree/"},"type":"Feature"}
	]
}
