{
	"type": "FeatureCollection",
	"features": [
		{"geometry":{"coordinates":[1.07077,51.96970],"type":"Point"},"properties":{"_source":"warm_welcome","address":"Gravel Pit Lane, Brantham, Manningtree, Suffolk CO11 1NX","hours":{"_text":"Saturday: 10:30 - 12:00 / - Monthly","opening":"Sa 10:30-12:00"},"title":"Brantham Methodist Church"},"type":"Feature"},
		{"geometry":{"coordinates":[1.27104,51.84735],"type":"Point"},"properties":{"_source":"warm_welcome","address":"New Pier Street, Walton on the Naze , Essex CO14 8EB","description":"Open from 01-12-2022.","hours":{"_text":"Thursday: 10:00 - 15:30","opening":"Th 10:00-15:30"},"title":"Emmanuel Church"},"type":"Feature"},
		{"geometry":{"coordinates":[1.33980,51.96931],"type":"Point"},"properties":{"_source":"warm_welcome","address":"Seaton Road, Felixstowe, Suffolk IP11 9BT","hours":{"_text":"Thursday: 11:00 - 15:00","opening":"Th 11:00-15:00"},"title":"Felixstowe Peninsula Methodist Churches @ Seaton Road"},"type":"Feature"},
		{"geometry":{"coordinates":[1.30931,51.99332],"type":"Point"},"properties":{"_source":"warm_welcome","address":"Mill Lane, Trimley St Martin, Suffolk IP11 0RN","description":"Open from 01-11-2022. All are welcome, although mainly elderly people attend but Parent and Toddlers would be very welcome","hours":{"_text":"Tuesday: 11:00 - 15:00","opening":"Tu 11:00-15:00"},"title":"Felixstowe Peninsular Methodist Churches"},"type":"Feature"},
		{"geometry":{"coordinates":[1.27070,51.93528],"type":"Point"},"properties":{"_source":"warm_welcome","address":"Harwich Arts & Heritage Centre, Harwich, Essex CO12 4AJ","hours":{"_text":"Monday: 10:00 - 16:00, Tuesday: 10:00 - 16:00, Wednesday: 10:00 - 16:00, Thursday: 10:00 - 16:00, Friday: 10:00 - 16:00, Saturday: 10:00 - 13:00 / - Monthly","opening":"Mo 10:00-16:00; Tu 10:00-16:00; We 10:00-16:00; Th 10:00-16:00; Fr 10:00-16:00; Sa 10:00-13:00"},"title":"Harwich Arts & Heritage Centre"},"type":"Feature"},
		{"geometry":{"coordinates":[1.25067,51.84599],"type":"Point"},"properties":{"_source":"warm_welcome","address":"Garden Road, Walton on the Naze, Essex CO14 8SJ","hours":{"_text":"Tuesday: 13:30 - 15:30, Friday: 10:00 - 12:00, Sunday: 10:30 - 12:30","opening":"Tu 13:30-15:30; Fr 10:00-12:00; Su 10:30-12:30"},"title":"Homelands Free Church"},"type":"Feature"},
		{"geometry":{"coordinates":[1.18673,52.03107],"type":"Point"},"properties":{"_source":"warm_welcome","address":"Gainsborough Sports Centre, Ipswich, Suffolk IP3 0SP","description":"Open from Monday 17th October 2022.","hours":{"_text":"Monday: 8:30 - 18:30, Tuesday: 8:30 - 18:30, Wednesday: 8:30 - 18:30, Thursday: 8:30 - 18:30, Friday: 8:30 - 18:30, Saturday: 8:30 - 12:00, Sunday: 8:30 - 17:30","opening":"Mo 08:30-18:30; Tu 08:30-18:30; We 08:30-18:30; Th 08:30-18:30; Fr 08:30-18:30; Sa 08:30-12:00; Su 08:30-17:30"},"title":"Ipswich Borough Council"},"type":"Feature"},
		{"geometry":{"coordinates":[1.18466,52.03647],"type":"Point"},"properties":{"_source":"warm_welcome","address":"Landseer Road, Ipswich, Suffolk IP3 9LX","hours":{"_text":"Friday: 08:45 - 12:00","opening":"Fr 08:45-12:00"},"title":"Landseer Road Methodist CHurch"},"type":"Feature"},
		{"geometry":{"coordinates":[1.13915,52.05238],"type":"Point"},"properties":{"_source":"warm_welcome","address":"Penta Hotel Ipswich, Ranelagh Road, Ipswich, Suffolk IP2 0AD","description":"Opening hours: Every Wednesday 13:00-15:00hrs","hours":{"_text":"Wednesday: 13:00 - 15:00","opening":"We 13:00-15:00"},"title":"Pentahotels"},"type":"Feature"},
		{"geometry":{"coordinates":[1.28934,51.94530],"type":"Point"},"properties":{"_source":"warm_welcome","address":"31 Kings Quay Street, Harwich, Essex CO12 3ES","hours":{"_text":"Tuesday: 19:00 - 20:30, Thursday: 10:00 - 14:00","opening":"Tu 19:00-20:30; Th 10:00-14:00"},"title":"The Lounge"},"type":"Feature"},
		{"geometry":{"coordinates":[1.33626,51.95100],"type":"Point"},"properties":{"_source":"warm_spaces","address":"Orford Road, Felixstowe, England, IP11 2DY, United Kingdom","description":"Free Wi-Fi, Device Charging, People to chat to, Space to work, Food/Drink for sale, Wheelchair Accessible, Toilets, Accessible Toilet, Child Friendly, Pet Friendly","hours":{"_text":"Monday- Sunday 9am - 5pm","opening":"Mo-Su 09:00-17:00"},"title":"SeaYou Cafe &amp; Restaurant","url":"https://www.sea-you.co.uk"},"type":"Feature"},
		{"geometry":{"coordinates":[1.14778,52.04296],"type":"Point"},"properties":{"_source":"warm_spaces","address":"Maidenhall Approach, Ipswich, England, IP2 8PL, United Kingdom","description":"Free Food/Drink, Free Wi-Fi, Device Charging, Advice, People to chat to, Space to work, Wheelchair Accessible, Toilets, Accessible Toilet, Parking, Child Friendly, Computer Access","hours":{"_text":"Tue 9:30am-12:30pm &amp; 2pm-5pm, Wed &amp; Thu 2pm-5pm, Fri &amp; Sat 9:30am-12:30pm, Sun 10am-1pm.","opening":"We 14:00-17:00; Th 14:00-17:00; Fr 09:30-12:30; Sa 09:30-12:30; Tu 09:30-12:30; Su 10:00-13:00"},"title":"Stoke Library","url":"https://www.suffolklibraries.co.uk/visit/locations-and-times/stoke-library"},"type":"Feature"},
		{"geometry":{"coordinates":[1.18143,52.05134],"type":"Point"},"properties":{"_source":"warm_spaces","address":"51 Tomline Rd, England, IP3 8DB, United Kingdom","description":"Free Wi-Fi, Device Charging, Advice, People to chat to, Space to work, Wheelchair Accessible, Accessible Toilet, Parking, Child Friendly, Computer Access","hours":{"_text":"Tue 9:30am-5pm, Wed &amp; Thu 9am-5pm, Fri 9am-6pm, Sat 9:30-5pm, Sun 11am-4pm","opening":"We 09:00-17:00; Th 09:00-17:00; Tu 09:30-17:00; Fr 09:00-18:00; Sa 09:30-17:00; Su 11:00-16:00"},"title":"Rosehill Library","url":"https://www.suffolklibraries.co.uk/visit/locations-and-times/rosehill-library"},"type":"Feature"},
		{"geometry":{"coordinates":[1.18305,52.03364],"type":"Point"},"properties":{"_source":"warm_spaces","address":"Clapgate Lane, Ipswich, England, IP3 0RL, United Kingdom","description":"Free Food/Drink, Free Wi-Fi, Device Charging, Advice, People to chat to, Space to work, Food/Drink for sale, Wheelchair Accessible, Toilets, Parking, Child Friendly, Computer Access, Kindness rack (free clothes), free menstrual products, Fruit &amp; Veg pop-up on Thursdays 1pm-5pm","hours":{"_text":"Monday, Friday, 9am-6pm; Tuesday, Wednesday, Thursday, Saturday 9am-5pm, Sunday 11am-4pm","opening":"Mo 09:00-18:00; Fr 09:00-18:00; Tu 09:00-17:00; We 09:00-17:00; Th 09:00-17:00; Sa 09:00-17:00; Su 11:00-16:00"},"title":"Gainsborough Community Library","url":"https://www.suffolklibraries.co.uk/visit/locations-and-times/gainsborough-community-library"},"type":"Feature"},
		{"geometry":{"coordinates":[1.35074,51.96346],"type":"Point"},"properties":{"_source":"warm_spaces","address":"61 Cobbold Rd, England, IP11 7BH, United Kingdom","description":"Free Wi-Fi, Device Charging, Advice, People to chat to, Space to work, Wheelchair Accessible, Toilets, Child Friendly, Computer Access, Free menstrual products","hours":{"_text":"Mon 10am-4pm, Tue 9am-5:30pm, Wed 9am-7:30pm, Thu &amp; Fri 9am-5:30pm, Sat 9am-5pm, Sun 10am-4pm","opening":"Th 09:00-17:30; Fr 09:00-17:30; Mo 10:00-16:00; Tu 09:00-17:30; We 09:00-19:30; Sa 09:00-17:00; Su 10:00-16:00"},"title":"Felixstowe Library","url":"https://www.suffolklibraries.co.uk/visit/locations-and-times/felixstowe-library"},"type":"Feature"},
		{"geometry":{"coordinates":[1.12045,52.04417],"type":"Point"},"properties":{"_source":"warm_spaces","address":"148 Sheldrake Dr, England, IP2 9NP, United Kingdom","description":"Free Food/Drink, Free Wi-Fi, Device Charging, Advice, People to chat to, Wheelchair Accessible, Toilets, Parking, Child Friendly, Computer Access, Kindness rack (free clothes) and free menstrual products","hours":{"_text":"Mon 2pm-5pm, Tue &amp; Thu 10am-1pm &amp; 2pm-6pm, Wed 10am-1pm, Friday 10am-1pm &amp; 2pm-5pm, Sat 9:30am-1pm &amp; 2pm-5pm, Sun 10am-4pm","opening":"Tu 10:00-13:00; Th 10:00-13:00; Mo 14:00-17:00; We 10:00-13:00; Fr 10:00-13:00; Sa 09:30-13:00; Su 10:00-16:00"},"title":"Chantry Library","url":"https://www.suffolklibraries.co.uk/visit/locations-and-times/chantry-library"},"type":"Feature"},
		{"geometry":{"coordinates":[1.27767,51.93677],"type":"Point"},"properties":{"_source":"warm_spaces","address":"276 High Street, Harwich, England, CO12 3PD, United Kingdom","description":"Free Wi-Fi, Advice, People to chat to, Space to work, Toilets, Activities","hours":{"_text":"Monday-Friday 9am-4pm","opening":"Mo-Fr 09:00-16:00"},"title":"Harwich Hub","url":"https://www.cvstendring.org.uk"},"type":"Feature"},
		{"geometry":{"coordinates":[1.36705,51.97179],"type":"Point"},"properties":{"_source":"warm_spaces","address":"Ferry Road, Felixstowe, England, IP11 9NB, United Kingdom","description":"Free Food/Drink, Free Wi-Fi, Device Charging, People to chat to, Space to work, Wheelchair Accessible, Toilets, Accessible Toilet, Parking, Child Friendly","hours":{"_text":"Tuesday 8.30am-12.30pm, Wednesday 2pm-5pm, Thursday 10am-12pm","opening":"Tu 08:30-12:30; We 14:00-17:00; Th 10:00-12:00"},"title":"Old Felixstowe Community Centre","url":"https://www.oldfelixstoweca.org"},"type":"Feature"},
		{"geometry":{"coordinates":[1.19244,52.03982],"type":"Point"},"properties":{"_source":"warm_spaces","address":"Nansen Road, Ipswich, England, IP3 9HN, United Kingdom","description":"Free Food/Drink, Free Wi-Fi, Device Charging, People to chat to, Wheelchair Accessible, Toilets, Accessible Toilet, Parking, Child Friendly","hours":{"_text":"Thursday 10am-3pm","opening":"Th 10:00-15:00"},"title":"Nansen Road Baptist Church","url":"https://www.nrbconline.org"},"type":"Feature"},
		{"geometry":{"coordinates":[1.27055,51.93673],"type":"Point"},"properties":{"_source":"warm_spaces","address":"Harwich Arts and Heritage Centre, Main Road, Harwich, England, CO12 4AJ, United Kingdom","description":"Free Food/Drink, Free Wi-Fi, Device Charging, People to chat to, Space to work, Creative activities","hours":{"_text":"Tuesdays 1pm-3pm (Starting on the 1 November)","opening":"Tu 13:00-15:00"},"title":"Harwich Festival","url":"https://www.harwichfestival.com"},"type":"Feature"},
		{"geometry":{"coordinates":[1.12068,52.04474],"type":"Point"},"properties":{"_source":"suffolk_-_rural_coffee_caravan","address":"Hawthorn Drive, Ipswich IP2 0QY, UK","contact":"Phone:01473 927275","hours":{"_text":"Open 7 days a week, please follow the website link for opening times "},"title":"WARM SPACES - Chantry Library","url":"https://www.suffolklibraries.co.uk/visit/locations-and-times/chantry-library"},"type":"Feature"},
		{"geometry":{"coordinates":[1.35105,51.96360],"type":"Point"},"properties":{"_source":"suffolk_-_rural_coffee_caravan","address":"Crescent Road, Felixstowe IP11 7BY, UK","contact":"Phone:01394 330850","hours":{"_text":"Open 7 days a week, please follow the website link for opening times "},"title":"WARM SPACES - Felixstowe Library","url":"https://www.suffolklibraries.co.uk/visit/locations-and-times/felixstowe-library"},"type":"Feature"},
		{"geometry":{"coordinates":[1.18308,52.03366],"type":"Point"},"properties":{"_source":"suffolk_-_rural_coffee_caravan","address":"Clapgate Lane, Ipswich IP3 0RL, UK","contact":"Phone:01473 927270","hours":{"_text":"Open 7 days a week, please follow the website link for opening times "},"title":"WARM SPACES - Gainsborough Community Library","url":"https://www.suffolklibraries.co.uk/visit/locations-and-times/gainsborough-community-library"},"type":"Feature"},
		{"geometry":{"coordinates":[1.18177,52.05094],"type":"Point"},"properties":{"_source":"suffolk_-_rural_coffee_caravan","address":"Tomline Road, Ipswich IP3 8DB, UK","contact":"Phone:01473 719279","hours":{"_text":"Open 6 days a week, please follow the website link for opening times "},"title":"WARM SPACES - Rosehill Library","url":"https://www.suffolklibraries.co.uk/visit/locations-and-times/rosehill-library"},"type":"Feature"},
		{"geometry":{"coordinates":[1.25245,51.96890],"type":"Point"},"properties":{"_source":"suffolk_-_rural_coffee_caravan","address":"Shotley Village Hall, The Street, Shotley, Ipswich IP9 1LX, UK","hours":{"_text":"Open 1 day a week, please follow the website link for opening times "},"title":"WARM SPACES - Shotley Library (Suffolk Libraries Local)","url":"https://www.suffolklibraries.co.uk/visit/locations-and-times/shotley"},"type":"Feature"},
		{"geometry":{"coordinates":[1.14903,52.04302],"type":"Point"},"properties":{"_source":"suffolk_-_rural_coffee_caravan","address":"Stoke High School, Maidenhall Approach, Ipswich IP2 8PL, UK","contact":"Phone:01473 681751","hours":{"_text":"Open 6 days a week, please follow the website link for opening times "},"title":"WARM SPACES - Stoke Library","url":"https://www.suffolklibraries.co.uk/visit/locations-and-times/stoke-library"},"type":"Feature"}
	]
}
