{
	"type": "FeatureCollection",
	"features": [
		{"geometry":{"coordinates":[1.09315,51.28469],"type":"Point"},"properties":{"_source":"warm_welcome","address":"All Saints Church, Military Road, Northgate, Canterbury CT1 1PA","description":"Adults of all ages Alternate Fridays we have a representative from CAB available","hours":{"_text":"Friday: 10:00 - 12:00","opening":"Fr 10:00-12:00"},"title":"All Saints Community Larder and Connecting Canterbury"},"type":"Feature"},
		{"geometry":{"coordinates":[1.28017,51.27972],"type":"Point"},"properties":{"_source":"warm_welcome","address":"Ash Village Hall, 10 Queens Road, Ash, Canterbury CT3 2BG","description":"Please visit our website for services provided at your local library","hours":{"_text":"Monday: 11:30 - 13:00 / 14:00 - 17:00, Tuesday: 9:30 - 13:00, Wednesday: 9:30 - 14:00, Friday: 11:30 - 17:00, Saturday: 9:00 - 14:00","opening":"Mo 11:30-13:00,14:00-17:00; Tu 09:30-13:00; We 09:30-14:00; Fr 11:30-17:00; Sa 09:00-14:00"},"title":"Ash Library"},"type":"Feature"},
		{"geometry":{"coordinates":[1.20896,51.22635],"type":"Point"},"properties":{"_source":"warm_welcome","address":"Aylesham Community Centre, Ackholt Road, Aylesham, Kent CT3 3AJ","description":"Please visit our website for services provided at your local library","hours":{"_text":"Tuesday: 9:30 - 12:30 / 13:30 - 17:00, Thursday: 9:30 - 12:30 / 13:30 - 17:00, Friday: 9:30 - 12:30 / 13:00 - 16:00, Saturday: 9:30 - 13:30","opening":"Tu 09:30-12:30,13:30-17:00; Th 09:30-12:30,13:30-17:00; Fr 09:30-12:30,13:00-16:00; Sa 09:30-13:30"},"title":"Aylesham Library"},"type":"Feature"},
		{"geometry":{"coordinates":[1.07914,51.27963],"type":"Point"},"properties":{"_source":"warm_welcome","address":"18 High Street, Canterbury, Kent CT1 2RA","hours":{"_text":"Monday: 10:00 - 17:00, Tuesday: 10:00 - 17:00, Wednesday: 10:00 - 17:00, Thursday: 10:00 - 18:00, Friday: 10:00 - 17:00, Saturday: 10:00 - 16:00","opening":"Mo 10:00-17:00; Tu 10:00-17:00; We 10:00-17:00; Th 10:00-18:00; Fr 10:00-17:00; Sa 10:00-16:00"},"title":"Canterbury Library"},"type":"Feature"},
		{"geometry":{"coordinates":[1.40088,51.34290],"type":"Point"},"properties":{"_source":"warm_welcome","address":"The Corner, 60 Whitehall Road, Ramsgate, Kent CT12 6DF","description":"Open from 05-12-2022.","hours":{"_text":"Monday: 9:00 - 17:00, Tuesday: 9:00 - 17:00","opening":"Mo 09:00-17:00; Tu 09:00-17:00"},"title":"Community Church Ramsgate at The Corner"},"type":"Feature"},
		{"geometry":{"coordinates":[1.40358,51.22314],"type":"Point"},"properties":{"_source":"warm_welcome","address":"Broad Street, Deal, Kent CT14 6ER","description":"Please visit our website for services provided at your local library","hours":{"_text":"Monday: 9:30 - 17:00, Tuesday: 9:30 - 17:00, Wednesday: 9:30 - 13:30, Thursday: 9:30 - 17:00, Friday: 9:30 - 17:00, Saturday: 10:00 - 16:00, Sunday: 10:00 - 16:00","opening":"Mo 09:30-17:00; Tu 09:30-17:00; We 09:30-13:30; Th 09:30-17:00; Fr 09:30-17:00; Sa 10:00-16:00; Su 10:00-16:00"},"title":"Deal Library"},"type":"Feature"},
		{"geometry":{"coordinates":[1.12673,51.37135],"type":"Point"},"properties":{"_source":"warm_welcome","address":"105 High Street, Herne Bay, Kent CT6 5LA","description":"Open from 16-11-22. light breakfast and lunches available - donations welcome","hours":{"_text":"Wednesday: 09:00 - 14:30","opening":"We 09:00-14:30"},"title":"Herne Bay Baptist Church"},"type":"Feature"},
		{"geometry":{"coordinates":[1.12744,51.37130],"type":"Point"},"properties":{"_source":"warm_welcome","address":"Herne Bay Library, 124 High Street, Herne Bay CT6 5JY","hours":{"_text":"Monday: 10:00 - 17:00, Tuesday: 10:00 - 17:00, Wednesday: 10:00 - 17:00, Thursday: 10:00 - 18:00, Friday: 10:00 - 17:00, Saturday: 10:00 - 16:00","opening":"Mo 10:00-17:00; Tu 10:00-17:00; We 10:00-17:00; Th 10:00-18:00; Fr 10:00-17:00; Sa 10:00-16:00"},"title":"Herne Bay Library"},"type":"Feature"},
		{"geometry":{"coordinates":[1.12399,51.36988],"type":"Point"},"properties":{"_source":"warm_welcome","address":"33 Richmond Street, Herne Bay, Kent CT6 5RH","description":"Open from 03-11-2022. We provide soup for lunch as part of our Snack'n'Chat which follows on from the WarmSpace","hours":{"_text":"Thursday: 10:00 - 14:30","opening":"Th 10:00-14:30"},"title":"Herne Bay Salvation Army"},"type":"Feature"},
		{"geometry":{"coordinates":[1.40023,51.34857],"type":"Point"},"properties":{"_source":"warm_welcome","address":"Newington Library, The Royal Harbour Academy Marlowe Way, Ramsgate, Kent CT12 6NB","description":"Please visit our website for services provided at your local library","hours":{"_text":"Monday: 09:00 - 13:00 / 14:00 - 17:30, Tuesday: 09:00 - 13:00, Thursday: 09:00 - 13:00 / 14:00 - 17:30, Saturday: 09:00 - 13:00","opening":"Mo 09:00-13:00,14:00-17:30; Tu 09:00-13:00; Th 09:00-13:00,14:00-17:30; Sa 09:00-13:00"},"title":"Kent County Council"},"type":"Feature"},
		{"geometry":{"coordinates":[1.31423,51.33452],"type":"Point"},"properties":{"_source":"warm_welcome","address":"Minster-in-Thanet Library, 4A Monkton Street, Minster, Ramsgate, Kent CT12 4EA","description":"Please visit our website for services provided at your local library","hours":{"_text":"Monday: 13:00 - 17:00, Tuesday: 09:30 - 13:30, Thursday: 12:00 - 17:00, Friday: 10:00 - 16:00, Saturday: 09:30 - 13:30","opening":"Mo 13:00-17:00; Tu 09:30-13:30; Th 12:00-17:00; Fr 10:00-16:00; Sa 09:30-13:30"},"title":"Kent County Council"},"type":"Feature"},
		{"geometry":{"coordinates":[1.38256,51.38773],"type":"Point"},"properties":{"_source":"warm_welcome","address":"Margate Library, Thanet Gateway Plus, Cecil Street, Margate, Kent CT9 1RE","description":"Please visit our website for services provided at your local library","hours":{"_text":"Monday: 10:00 - 17:30, Tuesday: 10:00 - 17:00, Wednesday: 10:00 - 17:00, Thursday: 10:00 - 17:30, Friday: 10:00 - 17:30, Saturday: 10:00 - 15:30","opening":"Mo 10:00-17:30; Tu 10:00-17:00; We 10:00-17:00; Th 10:00-17:30; Fr 10:00-17:30; Sa 10:00-15:30"},"title":"Kent County Council"},"type":"Feature"},
		{"geometry":{"coordinates":[1.33945,51.37883],"type":"Point"},"properties":{"_source":"warm_welcome","address":"Westgate Library, Minster Road, Westgate-On-Sea, Kent CT8 8BP","description":"Please visit our website for services provided at your local library","hours":{"_text":"Monday: 10:00 - 13:00 / 14:00 - 17:00, Tuesday: 10:00 - 13:00 / 14:00 - 17:00, Wednesday: 10:00 - 13:00 / 14:00 - 17:00, Friday: 10:00 - 13:00, Saturday: 10:00 - 17:00, Sunday: 09:30 - 13:30","opening":"Mo 10:00-13:00,14:00-17:00; Tu 10:00-13:00,14:00-17:00; We 10:00-13:00,14:00-17:00; Fr 10:00-13:00; Sa 10:00-17:00; Su 09:30-13:30"},"title":"Kent County Council"},"type":"Feature"},
		{"geometry":{"coordinates":[1.30377,51.37694],"type":"Point"},"properties":{"_source":"warm_welcome","address":"Birchington Library, Alpha Road, Birchington , Kent CT7 9EG","description":"Please visit our website for services provided at your local library","hours":{"_text":"Monday: 9:30 - 17:00, Tuesday: 9:30 - 17:30, Thursday: 9:30 - 17:30, Friday: 9:30 - 17:00, Saturday: 9:30 - 15:30","opening":"Mo 09:30-17:00; Tu 09:30-17:30; Th 09:30-17:30; Fr 09:30-17:00; Sa 09:30-15:30"},"title":"Kent County Council"},"type":"Feature"},
		{"geometry":{"coordinates":[1.38700,51.34696],"type":"Point"},"properties":{"_source":"warm_welcome","address":"St Johns Avenue, Ramsgate, Kent CT12 6JD","description":"Board games, jigsaws, friendly chat or just a bit of quiet space","hours":{"_text":"Wednesday: 14:30 - 17:00","opening":"We 14:30-17:00"},"title":"Newington Free Chuch"},"type":"Feature"},
		{"geometry":{"coordinates":[1.15838,51.33897],"type":"Point"},"properties":{"_source":"warm_welcome","address":"Prince of Wales Pub, Maypole Road, Hoath,, Canterbury , Kent CT3 4LN","description":"We focus on both families, children, elderly and disabled. Our managers are DBS cleared and trained to care for individuals require extra support or needs. We have disabled parking and ramps to the rear. Please use the ramp to enter the restaurant. We also have a disabled toilet.","hours":{"_text":"Monday: 12:00 - 20:00, Wednesday: 12:00 - 22:00, Thursday: 12:00 - 22:00, Friday: 12:00 - 23:00, Saturday: 12:00 - 23:00, Sunday: 12:00 - 18:00","opening":"Mo 12:00-20:00; We 12:00-22:00; Th 12:00-22:00; Fr 12:00-23:00; Sa 12:00-23:00; Su 12:00-18:00"},"title":"Prince of Wales Pub - Hoath"},"type":"Feature"},
		{"geometry":{"coordinates":[1.33993,51.27533],"type":"Point"},"properties":{"_source":"warm_welcome","address":"Sandwich Library, 13 Market Street, Sandwich, Kent CT13 9DA","description":"Please visit our website for services provided at your local library","hours":{"_text":"Tuesday: 9:30 - 17:00, Thursday: 9:30 - 17:00, Friday: 9:30 - 17:00, Saturday: 9:30 - 15:00","opening":"Tu 09:30-17:00; Th 09:30-17:00; Fr 09:30-17:00; Sa 09:30-15:00"},"title":"Sandwich Library"},"type":"Feature"},
		{"geometry":{"coordinates":[1.07954,51.27658],"type":"Point"},"properties":{"_source":"warm_welcome","address":"Watling Street, Canterbury, Kent CT1 2UA","hours":{"_text":"Tuesday: 10:00 - 14:00, Wednesday: 10:00 - 14:00, Thursday: 10:00 - 14:00, Friday: 10:00 - 14:00","opening":"Tu 10:00-14:00; We 10:00-14:00; Th 10:00-14:00; Fr 10:00-14:00"},"title":"St Andrews URC, Canterbury"},"type":"Feature"},
		{"geometry":{"coordinates":[1.40153,51.22558],"type":"Point"},"properties":{"_source":"warm_welcome","address":"St. Georges, St Georges Road, Deal, Kent CT14 6BA","hours":{"_text":"Wednesday: 12:30 - 15:30","opening":"We 12:30-15:30"},"title":"St Georges, Deal"},"type":"Feature"},
		{"geometry":{"coordinates":[1.12206,51.29970],"type":"Point"},"properties":{"_source":"warm_welcome","address":"Sturry Library, Chafy Crescent, Sturry CT2 0BA","hours":{"_text":"Monday: 13:30 - 17:00, Tuesday: 10:00 - 13:00 / 14:00 - 17:00, Wednesday: 9:00 - 12:30, Friday: 10:00 - 13:00 / 14:00 - 17:00, Saturday: 9:00 - 13:00","opening":"Mo 13:30-17:00; Tu 10:00-13:00,14:00-17:00; We 09:00-12:30; Fr 10:00-13:00,14:00-17:00; Sa 09:00-13:00"},"title":"Sturry Library"},"type":"Feature"},
		{"geometry":{"coordinates":[1.06557,51.36115],"type":"Point"},"properties":{"_source":"warm_welcome","address":"Swalecliffe Library, 78 Herne Bay Road, Whitstable CT5 2LX","hours":{"_text":"Monday: 9:30 - 13:00 / 14:00 - 17:00, Tuesday: 9:30 - 13:00 / 14:00 - 17:00, Thursday: 9:30 - 13:00 / 14:00 - 17:00, Saturday: 9:30 - 13:00","opening":"Mo 09:30-13:00,14:00-17:00; Tu 09:30-13:00,14:00-17:00; Th 09:30-13:00,14:00-17:00; Sa 09:30-13:00"},"title":"Swalecliffe Library"},"type":"Feature"},
		{"geometry":{"coordinates":[1.31369,51.37872],"type":"Point"},"properties":{"_source":"warm_welcome","address":"The Bay Church, Ethelbert Road, Birchington, Kent CT7 9AX","description":"Open from 05-12-2022.","hours":{"_text":"Monday: 10:00 - 14:00","opening":"Mo 10:00-14:00"},"title":"The Bay United Reformed Church"},"type":"Feature"},
		{"geometry":{"coordinates":[1.07223,51.28571],"type":"Point"},"properties":{"_source":"warm_welcome","address":"Forty Acres Road,, Canterbury, Kent CT2 7HJ","hours":{"_text":"Wednesday: 19:30 - 21:00","opening":"We 19:30-21:00"},"title":"The Church of Jesus Christ of Latter-day Saints"},"type":"Feature"},
		{"geometry":{"coordinates":[1.08559,51.27611],"type":"Point"},"properties":{"_source":"warm_welcome","address":"Canterbury Baptist Church, St George's Place, Canterbury, Kent CT1 1UT","hours":{"_text":"Thursday: 11:00 - 14:00, Friday: 11:00 - 14:00","opening":"Th 11:00-14:00; Fr 11:00-14:00"},"title":"The Hub - Lily's Social Kitchen CIC"},"type":"Feature"},
		{"geometry":{"coordinates":[1.38194,51.39148],"type":"Point"},"properties":{"_source":"warm_welcome","address":"Rendezvous, Margate, Kent CT9 1HG","hours":{"_text":"Wednesday: 10:00 - 17:00 / -, Thursday: 10:00 - 17:00 / -, Friday: 10:00 - 17:00 / -, Saturday: 10:00 - 17:00 / -, Sunday: 10:00 - 17:00 / -","opening":"We 10:00-17:00; Th 10:00-17:00; Fr 10:00-17:00; Sa 10:00-17:00; Su 10:00-17:00"},"title":"turner contemporary"},"type":"Feature"},
		{"geometry":{"coordinates":[1.38106,51.21710],"type":"Point"},"properties":{"_source":"warm_welcome","address":"St Richards Church, Mill Hill, Deal, Kent CT14 9LU","description":"All are welcome - refreshments are free to all, donations appreciated.","hours":{"_text":"Monday: 9:30 - 17:00","opening":"Mo 09:30-17:00"},"title":"UpperDeal and Great Mongeham"},"type":"Feature"},
		{"geometry":{"coordinates":[1.15672,51.20429],"type":"Point"},"properties":{"_source":"warm_spaces","address":"Valley Road, Canterbury, England, CT4 6NX","hours":{"_text":"Fridays, Jan-March - see website for times"},"title":"Barham Village Hall","url":"https://www.barhamvillagehall.co.uk/barham-warm-welcome/"},"type":"Feature"},
		{"geometry":{"coordinates":[1.38112,51.20921],"type":"Point"},"properties":{"_source":"warm_spaces","address":"163 Mill Hill, Deal, England, CT14 9JA","hours":{"_text":"Monday 9:30am-5pm","opening":"Mo 09:30-17:00"},"title":"St Richards Church"},"type":"Feature"},
		{"geometry":{"coordinates":[1.09340,51.28457],"type":"Point"},"properties":{"_source":"warm_spaces","address":"All Saints Church, Military Road, Canterbury, England, CT1 1PA","hours":{"_text":"Monday 11am-2pm","opening":"Mo 11:00-14:00"},"title":"Porchlight Open Door","url":"https://www.porchlight.org.uk"},"type":"Feature"},
		{"geometry":{"coordinates":[1.20938,51.22566],"type":"Point"},"properties":{"_source":"warm_spaces","address":"Ackholt Road, Canterbury, England, CT3 3AJ","hours":{"_text":"9am -2pm"},"title":"Bechange Community Hub","url":"https://www.bechange.org.uk"},"type":"Feature"},
		{"geometry":{"coordinates":[1.09949,51.26853],"type":"Point"},"properties":{"_source":"warm_spaces","address":"32 Barton Road, Canterbury, England, CT1 1YQ","hours":{"_text":"Friday 10.30am-4pm","opening":"Fr 10:30-16:00"},"title":"Barton Church Building","url":"https://www.bartonchurch.org.uk"},"type":"Feature"},
		{"geometry":{"coordinates":[1.20941,51.22567],"type":"Point"},"properties":{"_source":"warm_spaces","address":"Ackholt Road, Canterbury, England, CT3 3AJ","hours":{"_text":"9:30am-2:30pm"},"title":"Bechange Community Hub","url":"https://www.bechange.org.uk"},"type":"Feature"},
		{"geometry":{"coordinates":[1.20941,51.22567],"type":"Point"},"properties":{"_source":"warm_spaces","address":"Ackholt Road, Canterbury, England, CT3 3AJ","hours":{"_text":"Tuesday 10am-1pm","opening":"Tu 10:00-13:00"},"title":"The Common Room @ The Old School","url":"https://www.awt.org.uk"},"type":"Feature"},
		{"geometry":{"coordinates":[1.39938,51.23011],"type":"Point"},"properties":{"_source":"warm_spaces","address":"28 Golf Road, Deal, England, CT14 6PY","hours":{"_text":"Monday and Tuesday, 3pm-6pm","opening":"Mo 15:00-18:00; Tu 15:00-18:00"},"title":"Golf Road Community Centre","url":"https://www.deal.gov.uk/dww"},"type":"Feature"},
		{"geometry":{"coordinates":[1.40003,51.22681],"type":"Point"},"properties":{"_source":"warm_spaces","address":"West Street, Deal, England, CT14 6DY","hours":{"_text":"Wednesdays, 9am-12pm","opening":"We 09:00-12:00"},"title":"St Andrews Church","url":"https://www.deal.gov.uk/dww"},"type":"Feature"},
		{"geometry":{"coordinates":[1.40233,51.22025],"type":"Point"},"properties":{"_source":"warm_spaces","address":"43 Victoria Road, Deal, England, CT14 7AY","hours":{"_text":"Every other Saturday, 12pm–2pm","opening":"Sa 12:00-14:00"},"title":"Talk it Out","url":"https://www.deal.gov.uk/dww"},"type":"Feature"},
		{"geometry":{"coordinates":[1.39117,51.22504],"type":"Point"},"properties":{"_source":"warm_spaces","address":"64 Southwall Road, Deal, England, CT14 9QA","hours":{"_text":"Thursday, 3:30pm-6:30pm","opening":"Th 15:30-18:30"},"title":"Leaps &amp; Bounds","url":"https://www.deal.gov.uk/dww"},"type":"Feature"},
		{"geometry":{"coordinates":[1.40265,51.22543],"type":"Point"},"properties":{"_source":"warm_spaces","address":"High Street, Deal, England, CT14","hours":{"_text":"Wednesday, 12.30pm-4.30pm","opening":"We 12:30-16:30"},"title":"St George’s Church","url":"https://www.deal.gov.uk/dww"},"type":"Feature"},
		{"geometry":{"coordinates":[1.40083,51.22639],"type":"Point"},"properties":{"_source":"warm_spaces","address":"Union Road, Deal, England, CT14 6EA","hours":{"_text":"Tuesday, 12.30pm-4pm","opening":"Tu 12:30-16:00"},"title":"Trinity Church, Deal","url":"https://www.deal.gov.uk/dww"},"type":"Feature"},
		{"geometry":{"coordinates":[1.40032,51.22443],"type":"Point"},"properties":{"_source":"warm_spaces","address":"West Street, Deal, England, CT14 6AZ","hours":{"_text":"Monday &amp; Friday, 12pm–5pm ","opening":"Mo 12:00-17:00; Fr 12:00-17:00"},"title":"Deal Salvation Army","url":"https://www.deal.gov.uk/dww"},"type":"Feature"},
		{"geometry":{"coordinates":[1.20236,51.22381],"type":"Point"},"properties":{"_source":"warm_spaces","address":"1 Milner Crescent, Canterbury, England, CT3 3BH","hours":{"_text":"Tuesday -Thursday 10am-2pm","opening":"Tu-Th 10:00-14:00"},"title":"Roses Tearoom &amp; Thriftshop"},"type":"Feature"},
		{"geometry":{"coordinates":[1.20236,51.22381],"type":"Point"},"properties":{"_source":"warm_spaces","address":"1 Milner Crescent, Canterbury, England, CT3","hours":{"_text":"Tuesday, Wednesday &amp; Thursday 10am-2pm","opening":"Tu 10:00-14:00; We 10:00-14:00; Th 10:00-14:00"},"title":"Roses Tearoom &amp; Thriftshop"},"type":"Feature"},
		{"geometry":{"coordinates":[1.33856,51.27427],"type":"Point"},"properties":{"_source":"warm_spaces","address":"Age Concern Sandwich, 19-21 Cattle Market, Sandwich, England, CT13 9AP","hours":{"_text":"10am-4pm"},"title":"Age Concern Sandwich"},"type":"Feature"},
		{"geometry":{"coordinates":[1.08355,51.25706],"type":"Point"},"properties":{"_source":"warm_spaces","address":"Kent MS Therapy Centre, Bradbury House, Merton Lane North, Canterbury, England, CT4 7DZ","hours":{"_text":"Mon-Fri, 9am-5pm","opening":"Mo-Fr 09:00-17:00"},"title":"Kent MS Therapy Centre","url":"https://kentmstc.org.uk"},"type":"Feature"},
		{"geometry":{"coordinates":[1.33681,51.27421],"type":"Point"},"properties":{"_source":"warm_spaces","address":"insideOUT Hair Studio, 36 Moat Sole, Sandwich, England, CT13 9AU","hours":{"_text":"10am-2pm"},"title":"InsideOut","url":"https://www.insideouthairstudio.com"},"type":"Feature"},
		{"geometry":{"coordinates":[1.38193,51.39112],"type":"Point"},"properties":{"_source":"warm_spaces","address":"Turner Contemporary, Rendezvous, Margate, England, CT9 1HG","hours":{"_text":"Wednesday - Sunday, 10am-5pm ","opening":"We-Su 10:00-17:00"},"title":"Turner Contemporary","url":"https://turnercontemporary.org"},"type":"Feature"},
		{"geometry":{"coordinates":[1.08578,51.27573],"type":"Point"},"properties":{"_source":"warm_spaces","address":"Lilys Kitchen, Saint George&#39;s Place (opposite Waitrose), Canterbury, England, CT1 1UT","hours":{"_text":"Thursdays &amp; Fridays, 11:00am-2:00pm","opening":"Th 11:00-14:00; Fr 11:00-14:00"},"title":"The Hub Cafe","url":"https://lilyscommunity.org"},"type":"Feature"},
		{"geometry":{"coordinates":[1.08551,51.27596],"type":"Point"},"properties":{"_source":"warm_spaces","address":"The Hub Cafe, Canterbury Baptist Church, Saint George&#39;s Place, Canterbury, England, CT1 1UT","hours":{"_text":"Thursday &amp; Friday, 11am-2pm","opening":"Th 11:00-14:00; Fr 11:00-14:00"},"title":"The Hub Cafe - Lily's Social Kitchen CIC"},"type":"Feature"},
		{"geometry":{"coordinates":[1.33909,51.27466],"type":"Point"},"properties":{"_source":"dover_council","address":"Age Concern, 15 Cattle Market, Sandwich, Kent, CT13 9AP","hours":{"_text":"Monday - Friday 9.00am - 4.00pm","opening":"Mo-Fr 09:00-16:00"},"title":"Meet Heat Eat - Sandwich Age Concern","url":"https://www.ageconcernsandwich.com/shops.htm"},"type":"Feature"},
		{"geometry":{"coordinates":[1.40211,51.22539],"type":"Point"},"properties":{"_source":"dover_council","address":"St Georges Church, High Street, Deal, Kent","hours":{"_text":"Wednesday 12.30pm - 4.30pm","opening":"We 12:30-16:30"},"title":"Deal Warm Welcome St Georges church","url":"https://www.deal.gov.uk/Deal_Warm_Welcome_43629.aspx"},"type":"Feature"},
		{"geometry":{"coordinates":[1.40011,51.22445],"type":"Point"},"properties":{"_source":"dover_council","address":"The Salvation Army, West Street, Deal, Kent, CT14 6AZ","hours":{"_text":"Monday and Friday 12.00pm - 5.00pm","opening":"Mo 12:00-17:00; Fr 12:00-17:00"},"title":"Deal Salvation Army","url":"https://www.deal.gov.uk/Deal_Warm_Welcome_43629.aspx"},"type":"Feature"},
		{"geometry":{"coordinates":[1.40229,51.22037],"type":"Point"},"properties":{"_source":"dover_council","address":"Deal Ability, 43 Victoria Road, Deal, Kent, CT14 7AY","hours":{"_text":"Alternative Saturdays 12.00pm - 2.00pm","opening":"Sa 12:00-14:00"},"title":"Talk it out friendship Group","url":"https://www.deal.gov.uk/Deal_Warm_Welcome_43629.aspx"},"type":"Feature"},
		{"geometry":{"coordinates":[1.33669,51.27427],"type":"Point"},"properties":{"_source":"dover_council","address":"Inside Out, 36A Moat Sole, Sandwich, Kent, CT13 9AU","hours":{"_text":"Wednesday 10.00am - 14.00pm","opening":"We 10:00-14:00"},"title":"Inside Out Hair Studio","url":"https://danfriend.co.uk/sww/?fbclid=IwAR3bV6B_EMqnbn3LzVF-J6GCYuJgJLW3bqGffRe4sNsdw0XtSH86E4kiQog"},"type":"Feature"},
		{"geometry":{"coordinates":[1.34163,51.27592],"type":"Point"},"properties":{"_source":"dover_council","address":"The Toll Bridge Restaurant & Bar, 7 Fishermans Wharf, Sandwich, Kent, CT13 9RU","hours":{"_text":"Tuesday 9am - 11.00am ","opening":"Tu 09:00-11:00"},"title":"Toll Bridge Bar and Restaurant","url":"https://danfriend.co.uk/sww/?fbclid=IwAR3bV6B_EMqnbn3LzVF-J6GCYuJgJLW3bqGffRe4sNsdw0XtSH86E4kiQog"},"type":"Feature"},
		{"geometry":{"coordinates":[1.40080,51.22646],"type":"Point"},"properties":{"_source":"dover_council","address":"Trinity Methodist Church, Union Road, Deal, Kent, CT14 6EA","hours":{"_text":"Tuesdays 12.30pm - 4.30pm","opening":"Tu 12:30-16:30"},"title":"Deal warm welcome Trinity Church","url":"https://www.deal.gov.uk/Deal_Warm_Welcome_43629.aspx"},"type":"Feature"},
		{"geometry":{"coordinates":[1.40359,51.22336],"type":"Point"},"properties":{"_source":"dover_council","address":"Kent County council, Deal Library, Broad Street, Deal, KENT ct14 6er","hours":{"_text":"Sunday 10am - 4pm, Monday 9.30am - 5.30pm, Tuesday 9.30am - 5.30pm, Wednesday 9.30am - 1.30pm, Thursday 9.30am - 5.30pm, Friday\t9.30am - 5.30pm, Saturday 10am - 4pm","opening":"Su 10:00-16:00; Mo 09:30-17:30; Tu 09:30-17:30; We 09:30-13:30; Th 09:30-17:30; Fr 09:30-17:30; Sa 10:00-16:00"},"title":"Deal Library","url":"https://webapps.kent.gov.uk/KCC.Libraries.Web.Sites.Public/LibraryDetails.aspx?aid=0&lid=28&uprn=100062285653"},"type":"Feature"},
		{"geometry":{"coordinates":[1.40195,51.22431],"type":"Point"},"properties":{"_source":"dover_council","address":"Deal Centre For The Retired, 3 Park Street, Deal, Kent, CT14 6AG","hours":{"_text":"Monday - Friday 9.00am - 4.00pm","opening":"Mo-Fr 09:00-16:00"},"title":"Age Uk Deal","url":"https://www.ageuk.org.uk/southkentcoast/our-services/"},"type":"Feature"},
		{"geometry":{"coordinates":[1.38128,51.21726],"type":"Point"},"properties":{"_source":"dover_council","address":"Parish Hall, 319 London Road, Deal, Kent, CT14 9PR","hours":{"_text":"2pm - 4pm 1st Friday of each month ","opening":"Fr 14:00-16:00"},"title":"St Leonards Social Centre"},"type":"Feature"},
		{"geometry":{"coordinates":[1.20217,51.22444],"type":"Point"},"properties":{"_source":"dover_council","address":"Aylesham Baptist Free Church, Dorman Avenue South, Aylesham, Canterbury, Kent, CT3 3AA","hours":{"_text":"Monday 10.00am - 1.00pm","opening":"Mo 10:00-13:00"},"title":"Aylesham Baptist Church","url":"https://www.ayleshambaptistfreechurch.co.uk/"},"type":"Feature"},
		{"geometry":{"coordinates":[1.34047,51.27493],"type":"Point"},"properties":{"_source":"dover_council","address":"St Peters Church, St Peters Street, Sandwich, Kent","hours":{"_text":"Sunday 10.00am -15.00pm","opening":"Su 10:00-15:00"},"title":"St Peter's Church","url":"https://danfriend.co.uk/sww/?fbclid=IwAR3bV6B_EMqnbn3LzVF-J6GCYuJgJLW3bqGffRe4sNsdw0XtSH86E4kiQog"},"type":"Feature"},
		{"geometry":{"coordinates":[1.20864,51.22540],"type":"Point"},"properties":{"_source":"dover_council","address":"Kent County Council, Aylesham Library, Aylesham Community Centre, Ackholt Road, Aylesham, Canterbury, Kent, CT3 3AJ","hours":{"_text":"Tuesday: 9:30am - 5pm (closed 12:30pm - 1:30pm) Thursday: 9:30am - 5pm (closed 12:30pm - 1:30pm) Friday: 9:30am - 4pm (closed 12:30pm- 1pm) Saturday: 9.30am - 1.30pm","opening":"Tu 09:30-17:00; Th 09:30-17:00; Fr 09:30-16:00; Sa 09:30-13:30"},"title":"Aylesham Library","url":"https://webapps.kent.gov.uk/KCC.Libraries.Web.Sites.Public/LibraryDetails.aspx?aid=0&lid=28&uprn=100062285653"},"type":"Feature"},
		{"geometry":{"coordinates":[1.35269,51.31102],"type":"Point"},"properties":{"_source":"dover_council","address":"Baypoint Club, Baypoint Club, Ramsgate Road, Sandwich, Kent, CT13 9QL","hours":{"_text":"Monday - Friday 1pm - 3pm","opening":"Mo-Fr 13:00-15:00"},"title":"Baypoint Fitness and Sports Centre","url":"https://danfriend.co.uk/sww/?fbclid=IwAR3bV6B_EMqnbn3LzVF-J6GCYuJgJLW3bqGffRe4sNsdw0XtSH86E4kiQog"},"type":"Feature"},
		{"geometry":{"coordinates":[1.20198,51.22426],"type":"Point"},"properties":{"_source":"dover_council","address":"The Manna, Dorman Avenue South, Aylsham, Canterbury, Kent, CT3 3AA","title":"Aylsham Baptist church","url":"https://www.ayleshambaptistfreechurch.co.uk/"},"type":"Feature"},
		{"geometry":{"coordinates":[1.20178,51.22266],"type":"Point"},"properties":{"_source":"dover_council","address":"Freedom Leisure, Aylesham Welfare Leisure Centre, Spinney Lane, Aylesham, Canterbury, Kent, CT3 3BE","hours":{"_text":"Sunday 9.00am - 6.00pm","opening":"Su 09:00-18:00"},"title":"Aylesham Welfare Leisure Centre"},"type":"Feature"},
		{"geometry":{"coordinates":[1.39933,51.22996],"type":"Point"},"properties":{"_source":"dover_council","address":"Golf Road Surgery, 22 Golf Road, Deal, Kent, CT14 6PY","hours":{"_text":"Monday and Tuesday 3.00pm - 6.00pm","opening":"Mo 15:00-18:00; Tu 15:00-18:00"},"title":"Deal Warm Welcome Golf road","url":"https://www.deal.gov.uk/Deal_Warm_Welcome_43629.aspx"},"type":"Feature"},
		{"geometry":{"coordinates":[1.20818,51.22553],"type":"Point"},"properties":{"_source":"dover_council","address":"Aylesham Community Project, Aylesham Community Project, Ackholt Road, Aylesham, Canterbury, Kent, CT3 3AJ","hours":{"_text":"Tuesday 10am -1pm","opening":"Tu 10:00-13:00"},"title":"The Common Room"},"type":"Feature"},
		{"geometry":{"coordinates":[1.20817,51.22551],"type":"Point"},"properties":{"_source":"dover_council","address":"Bechange, Aylesham, Ackholt Road, Aylesham, Kent","hours":{"_text":"Friday 9.30am - 2.30pm","opening":"Fr 09:30-14:30"},"title":"Bechange community hub","url":"https://bechange.org.uk/"},"type":"Feature"},
		{"geometry":{"coordinates":[1.30747,51.24700],"type":"Point"},"properties":{"_source":"dover_council","address":"Eastry Village Hall, High Street, Eastry, Sandwich, Kent, CT13 0HD","hours":{"_text":"Last Friday of each month 12.00pm 1.30pm"},"title":"Eastry Lunch Club"},"type":"Feature"},
		{"geometry":{"coordinates":[1.33987,51.27532],"type":"Point"},"properties":{"_source":"dover_council","address":"Kent County Council, Kent Adult Education Centre, 13 Market Street, Sandwich, Kent, CT13 9DA","hours":{"_text":"Tuesday 9.30am -17.00pm (Scrabble) Thursday 9.30am -17.00pm (Craft Group 10:00 - 12:00) (Conversational French 14:30 - 16:00) Friday 9.30am -17.00pm (Baby Rhyme Time 0-3yrs 10:00 - 10:30) (Bridge 10:00 - 12:00) Saturday 9.30am-15.00pm","opening":"Tu 09:30-17:00; Th 09:30-17:00; Fr 09:30-17:00; Sa 09:30-15:00"},"title":"Sandwich Library","url":"https://danfriend.co.uk/sww/?fbclid=IwAR3bV6B_EMqnbn3LzVF-J6GCYuJgJLW3bqGffRe4sNsdw0XtSH86E4kiQog"},"type":"Feature"}
	]
}
