{
	"type": "FeatureCollection",
	"features": [
		{"geometry":{"coordinates":[1.09315,51.28469],"type":"Point"},"properties":{"_source":"warm_welcome","address":"All Saints Church, Military Road, Northgate, Canterbury CT1 1PA","description":"Adults of all ages Alternate Fridays we have a representative from CAB available","hours":{"_text":"Friday: 10:00 - 12:00","opening":"Fr 10:00-12:00"},"title":"All Saints Community Larder and Connecting Canterbury"},"type":"Feature"},
		{"geometry":{"coordinates":[1.28017,51.27972],"type":"Point"},"properties":{"_source":"warm_welcome","address":"Ash Village Hall, 10 Queens Road, Ash, Canterbury CT3 2BG","description":" Please visit our website for services provided at your local library","hours":{"_text":"Monday: 11:30 - 13:00 / 14:00 - 17:00, Tuesday: 9:30 - 13:00, Wednesday: 9:30 - 14:00, Friday: 11:30 - 17:00, Saturday: 9:00 - 14:00","opening":"Mo 11:30-13:00,14:00-17:00; Tu 09:30-13:00; We 09:30-14:00; Fr 11:30-17:00; Sa 09:00-14:00"},"title":"Ash Library "},"type":"Feature"},
		{"geometry":{"coordinates":[1.20896,51.22635],"type":"Point"},"properties":{"_source":"warm_welcome","address":"Aylesham Community Centre, Ackholt Road, Aylesham, Kent CT3 3AJ","description":" Please visit our website for services provided at your local library","hours":{"_text":"Tuesday: 9:30 - 12:30 / 13:30 - 17:00, Thursday: 9:30 - 12:30 / 13:30 - 17:00, Friday: 9:30 - 12:30 / 13:00 - 16:00, Saturday: 9:30 - 13:30","opening":"Tu 09:30-12:30,13:30-17:00; Th 09:30-12:30,13:30-17:00; Fr 09:30-12:30,13:00-16:00; Sa 09:30-13:30"},"title":"Aylesham Library"},"type":"Feature"},
		{"geometry":{"coordinates":[1.07914,51.27963],"type":"Point"},"properties":{"_source":"warm_welcome","address":"18 High Street, Canterbury, Kent CT1 2RA","description":"","hours":{"_text":"Monday: 10:00 - 17:00, Tuesday: 10:00 - 17:00, Wednesday: 10:00 - 17:00, Thursday: 10:00 - 18:00, Friday: 10:00 - 17:00, Saturday: 10:00 - 16:00","opening":"Mo 10:00-17:00; Tu 10:00-17:00; We 10:00-17:00; Th 10:00-18:00; Fr 10:00-17:00; Sa 10:00-16:00"},"title":"Canterbury Library"},"type":"Feature"},
		{"geometry":{"coordinates":[1.40088,51.34290],"type":"Point"},"properties":{"_source":"warm_welcome","address":"The Corner, 60 Whitehall Road, Ramsgate, Kent CT12 6DF","description":"Open from 05-12-2022.","hours":{"_text":"Monday: 9:00 - 16:00, Tuesday: 9:00 - 16:00","opening":"Mo 09:00-16:00; Tu 09:00-16:00"},"title":"Community Church Ramsgate at The Corner"},"type":"Feature"},
		{"geometry":{"coordinates":[1.40358,51.22314],"type":"Point"},"properties":{"_source":"warm_welcome","address":"Broad Street, Deal, Kent CT14 6ER","description":" Please visit our website for services provided at your local library","hours":{"_text":"Monday: 9:30 - 17:00, Tuesday: 9:30 - 17:00, Wednesday: 9:30 - 13:30, Thursday: 9:30 - 17:00, Friday: 9:30 - 17:00, Saturday: 10:00 - 16:00, Sunday: 10:00 - 16:00","opening":"Mo 09:30-17:00; Tu 09:30-17:00; We 09:30-13:30; Th 09:30-17:00; Fr 09:30-17:00; Sa 10:00-16:00; Su 10:00-16:00"},"title":"Deal Library"},"type":"Feature"},
		{"geometry":{"coordinates":[1.12673,51.37135],"type":"Point"},"properties":{"_source":"warm_welcome","address":"105 High Street, Herne Bay, Kent CT6 5LA","description":"Open from 16-11-22. light breakfast and lunches available - donations welcome","hours":{"_text":"Wednesday: 09:00 - 14:30","opening":"We 09:00-14:30"},"title":"Herne Bay Baptist Church"},"type":"Feature"},
		{"geometry":{"coordinates":[1.12744,51.37130],"type":"Point"},"properties":{"_source":"warm_welcome","address":"Herne Bay Library, 124 High Street, Herne Bay CT6 5JY","description":"","hours":{"_text":"Monday: 10:00 - 17:00, Tuesday: 10:00 - 17:00, Wednesday: 10:00 - 17:00, Thursday: 10:00 - 18:00, Friday: 10:00 - 17:00, Saturday: 10:00 - 16:00","opening":"Mo 10:00-17:00; Tu 10:00-17:00; We 10:00-17:00; Th 10:00-18:00; Fr 10:00-17:00; Sa 10:00-16:00"},"title":"Herne Bay Library"},"type":"Feature"},
		{"geometry":{"coordinates":[1.12399,51.36988],"type":"Point"},"properties":{"_source":"warm_welcome","address":"33 Richmond Street, Herne Bay, Kent CT6 5RH","description":"Open from 03-11-2022. We provide soup for lunch as part of our Snack'n'Chat which follows on from the WarmSpace","hours":{"_text":"Thursday: 10:00 - 14:30","opening":"Th 10:00-14:30"},"title":"Herne Bay Salvation Army"},"type":"Feature"},
		{"geometry":{"coordinates":[1.30377,51.37694],"type":"Point"},"properties":{"_source":"warm_welcome","address":"Birchington Library, Alpha Road, Birchington , Kent CT7 9EG","description":" Please visit our website for services provided at your local library","hours":{"_text":"Monday: 9:30 - 17:00, Tuesday: 9:30 - 17:30, Thursday: 9:30 - 17:30, Friday: 9:30 - 17:00, Saturday: 9:30 - 15:30","opening":"Mo 09:30-17:00; Tu 09:30-17:30; Th 09:30-17:30; Fr 09:30-17:00; Sa 09:30-15:30"},"title":"Kent County Council"},"type":"Feature"},
		{"geometry":{"coordinates":[1.33945,51.37883],"type":"Point"},"properties":{"_source":"warm_welcome","address":"Westgate Library, Minster Road, Westgate-On-Sea, Kent CT8 8BP","description":" Please visit our website for services provided at your local library","hours":{"_text":"Monday: 10:00 - 13:00 / 14:00 - 17:00, Tuesday: 10:00 - 13:00 / 14:00 - 17:00, Wednesday: 10:00 - 13:00 / 14:00 - 17:00, Friday: 10:00 - 13:00, Saturday: 10:00 - 17:00, Sunday: 09:30 - 13:30","opening":"Mo 10:00-13:00,14:00-17:00; Tu 10:00-13:00,14:00-17:00; We 10:00-13:00,14:00-17:00; Fr 10:00-13:00; Sa 10:00-17:00; Su 09:30-13:30"},"title":"Kent County Council"},"type":"Feature"},
		{"geometry":{"coordinates":[1.40023,51.34857],"type":"Point"},"properties":{"_source":"warm_welcome","address":"Newington Library, The Royal Harbour Academy Marlowe Way, Ramsgate, Kent CT12 6NB","description":" Please visit our website for services provided at your local library","hours":{"_text":"Monday: 09:00 - 13:00 / 14:00 - 17:30, Tuesday: 09:00 - 13:00, Thursday: 09:00 - 13:00 / 14:00 - 17:30, Saturday: 09:00 - 13:00","opening":"Mo 09:00-13:00,14:00-17:30; Tu 09:00-13:00; Th 09:00-13:00,14:00-17:30; Sa 09:00-13:00"},"title":"Kent County Council"},"type":"Feature"},
		{"geometry":{"coordinates":[1.31423,51.33452],"type":"Point"},"properties":{"_source":"warm_welcome","address":"Minster-in-Thanet Library, 4A Monkton Street, Minster, Ramsgate, Kent CT12 4EA","description":" Please visit our website for services provided at your local library","hours":{"_text":"Monday: 13:00 - 17:00, Tuesday: 09:30 - 13:30, Thursday: 12:00 - 17:00, Friday: 10:00 - 16:00, Saturday: 09:30 - 13:30","opening":"Mo 13:00-17:00; Tu 09:30-13:30; Th 12:00-17:00; Fr 10:00-16:00; Sa 09:30-13:30"},"title":"Kent County Council"},"type":"Feature"},
		{"geometry":{"coordinates":[1.38256,51.38773],"type":"Point"},"properties":{"_source":"warm_welcome","address":"Margate Library, Thanet Gateway Plus, Cecil Street, Margate, Kent CT9 1RE","description":" Please visit our website for services provided at your local library","hours":{"_text":"Monday: 10:00 - 17:30, Tuesday: 10:00 - 17:00, Wednesday: 10:00 - 17:00, Thursday: 10:00 - 17:30, Friday: 10:00 - 17:30, Saturday: 10:00 - 15:30","opening":"Mo 10:00-17:30; Tu 10:00-17:00; We 10:00-17:00; Th 10:00-17:30; Fr 10:00-17:30; Sa 10:00-15:30"},"title":"Kent County Council"},"type":"Feature"},
		{"geometry":{"coordinates":[1.15838,51.33897],"type":"Point"},"properties":{"_source":"warm_welcome","address":"Prince of Wales Pub, Maypole Road, Hoath,, Canterbury , Kent CT3 4LN","description":"We focus on both families, children, elderly and disabled. Our managers are DBS cleared and trained to care for individuals require extra support or needs. We have disabled parking and ramps to the rear. Please use the ramp to enter the restaurant. We also have a disabled toilet.","hours":{"_text":"Monday: 12:00 - 20:00, Wednesday: 12:00 - 22:00, Thursday: 12:00 - 22:00, Friday: 12:00 - 23:00, Saturday: 12:00 - 23:00, Sunday: 12:00 - 18:00","opening":"Mo 12:00-20:00; We 12:00-22:00; Th 12:00-22:00; Fr 12:00-23:00; Sa 12:00-23:00; Su 12:00-18:00"},"title":"Prince of Wales Pub - Hoath"},"type":"Feature"},
		{"geometry":{"coordinates":[1.33993,51.27533],"type":"Point"},"properties":{"_source":"warm_welcome","address":"Sandwich Library, 13 Market Street, Sandwich, Kent CT13 9DA","description":" Please visit our website for services provided at your local library","hours":{"_text":"Tuesday: 9:30 - 17:00, Thursday: 9:30 - 17:00, Friday: 9:30 - 17:00, Saturday: 9:30 - 15:00","opening":"Tu 09:30-17:00; Th 09:30-17:00; Fr 09:30-17:00; Sa 09:30-15:00"},"title":"Sandwich Library"},"type":"Feature"},
		{"geometry":{"coordinates":[1.07954,51.27658],"type":"Point"},"properties":{"_source":"warm_welcome","address":"Watling Street, Canterbury, Kent CT1 2UA","description":"","hours":{"_text":"Tuesday: 10:00 - 14:00, Wednesday: 10:00 - 14:00, Thursday: 10:00 - 14:00, Friday: 10:00 - 14:00","opening":"Tu 10:00-14:00; We 10:00-14:00; Th 10:00-14:00; Fr 10:00-14:00"},"title":"St Andrews URC, Canterbury"},"type":"Feature"},
		{"geometry":{"coordinates":[1.19769,51.22862],"type":"Point"},"properties":{"_source":"warm_welcome","address":"Dorman Avenue North, Aylesham, Canterbury CT3 3BL","description":"Open from 21-11-2022.","hours":{"_text":"Thursday: 10:00 - 14:00","opening":"Th 10:00-14:00"},"title":"St Peter's Church"},"type":"Feature"},
		{"geometry":{"coordinates":[1.12206,51.29970],"type":"Point"},"properties":{"_source":"warm_welcome","address":"Sturry Library, Chafy Crescent, Sturry CT2 0BA","description":"","hours":{"_text":"Monday: 13:30 - 17:00, Tuesday: 10:00 - 13:00 / 14:00 - 17:00, Wednesday: 9:00 - 12:30, Friday: 10:00 - 13:00 / 14:00 - 17:00, Saturday: 9:00 - 13:00","opening":"Mo 13:30-17:00; Tu 10:00-13:00,14:00-17:00; We 09:00-12:30; Fr 10:00-13:00,14:00-17:00; Sa 09:00-13:00"},"title":"Sturry Library"},"type":"Feature"},
		{"geometry":{"coordinates":[1.06557,51.36115],"type":"Point"},"properties":{"_source":"warm_welcome","address":"Swalecliffe Library, 78 Herne Bay Road, Whitstable CT5 2LX","description":"","hours":{"_text":"Monday: 9:30 - 13:00 / 14:00 - 17:00, Tuesday: 9:30 - 13:00 / 14:00 - 17:00, Thursday: 9:30 - 13:00 / 14:00 - 17:00, Saturday: 9:30 - 13:00","opening":"Mo 09:30-13:00,14:00-17:00; Tu 09:30-13:00,14:00-17:00; Th 09:30-13:00,14:00-17:00; Sa 09:30-13:00"},"title":"Swalecliffe Library"},"type":"Feature"},
		{"geometry":{"coordinates":[1.07223,51.28571],"type":"Point"},"properties":{"_source":"warm_welcome","address":"Forty Acres Road,, Canterbury, Kent CT2 7HJ","description":"","hours":{"_text":"Monday: 19:30 - 21:00, Wednesday: 17:00 - 21:00, Friday: 19:30 - 21:00, Sunday: 10:00 - 12:00","opening":"Mo 19:30-21:00; We 17:00-21:00; Fr 19:30-21:00; Su 10:00-12:00"},"title":"The Church of Jesus Christ of Latter-day Saints "},"type":"Feature"},
		{"geometry":{"coordinates":[1.08559,51.27611],"type":"Point"},"properties":{"_source":"warm_welcome","address":"Canterbury Baptist Church, St George's Place, Canterbury, Kent CT1 1UT","description":"","hours":{"_text":"Thursday: 11:00 - 14:00, Friday: 11:00 - 14:00","opening":"Th 11:00-14:00; Fr 11:00-14:00"},"title":"The Hub - Lily's Social Kitchen CIC"},"type":"Feature"},
		{"geometry":{"coordinates":[1.38194,51.39148],"type":"Point"},"properties":{"_source":"warm_welcome","address":"Rendezvous, Margate, Kent CT9 1HG","hours":{"_text":"Wednesday: 10:00 - 17:00 / -, Thursday: 10:00 - 17:00 / -, Friday: 10:00 - 17:00 / -, Saturday: 10:00 - 17:00 / -, Sunday: 10:00 - 17:00 / -","opening":"We 10:00-17:00; Th 10:00-17:00; Fr 10:00-17:00; Sa 10:00-17:00; Su 10:00-17:00"},"title":"turner contemporary"},"type":"Feature"},
		{"geometry":{"coordinates":[1.38106,51.21710],"type":"Point"},"properties":{"_source":"warm_welcome","address":"St Richards Church, Mill Hill, Deal, Kent CT14 9LU","description":" All are welcome - refreshments are free to all, donations appreciated.","hours":{"_text":"Monday: 9:30 - 13:00","opening":"Mo 09:30-13:00"},"title":"UpperDeal and Great Mongeham"},"type":"Feature"},
		{"geometry":{"coordinates":[1.20941,51.22567],"type":"Point"},"properties":{"_source":"warm_spaces","address":"Ackholt Road, Canterbury, England, CT3 3AJ","hours":{"_text":"9:30am-2:30pm"},"title":"Bechange Community Hub","url":"https://www.bechange.org.uk"},"type":"Feature"},
		{"geometry":{"coordinates":[1.20941,51.22567],"type":"Point"},"properties":{"_source":"warm_spaces","address":"Ackholt Road, Canterbury, England, CT3 3AJ","hours":{"_text":"Tuesday 10am-1pm","opening":"Tu 10:00-13:00"},"title":"The Common Room @ The Old School","url":"https://www.awt.org.uk"},"type":"Feature"},
		{"geometry":{"coordinates":[1.39938,51.23011],"type":"Point"},"properties":{"_source":"warm_spaces","address":"28 Golf Road, Deal, England, CT14 6PY","hours":{"_text":"Monday and Tuesday from 3pm to 6pm","opening":"Mo 15:00-18:00; Tu 15:00-18:00"},"title":"Golf Road Community Centre","url":"https://www.deal.gov.uk/dww"},"type":"Feature"},
		{"geometry":{"coordinates":[1.40003,51.22681],"type":"Point"},"properties":{"_source":"warm_spaces","address":"West Street, Deal, England, CT14 6DY","hours":{"_text":"Wednesdays, 9am-12pm","opening":"We 09:00-12:00"},"title":"St Andrews Church","url":"https://www.deal.gov.uk/dww"},"type":"Feature"},
		{"geometry":{"coordinates":[1.40233,51.22025],"type":"Point"},"properties":{"_source":"warm_spaces","address":"43 Victoria Road, Deal, England, CT14 7AY","hours":{"_text":"Every other Saturday, 12pm–2pm","opening":"Sa 12:00-14:00"},"title":"Talk it Out","url":"https://www.deal.gov.uk/dww"},"type":"Feature"},
		{"geometry":{"coordinates":[1.39117,51.22504],"type":"Point"},"properties":{"_source":"warm_spaces","address":"64 Southwall Road, Deal, England, CT14 9QA","hours":{"_text":"Thursday, 3:30pm-6:30pm","opening":"Th 15:30-18:30"},"title":"Leaps &amp; Bounds","url":"https://www.deal.gov.uk/dww"},"type":"Feature"},
		{"geometry":{"coordinates":[1.40265,51.22543],"type":"Point"},"properties":{"_source":"warm_spaces","address":"High Street, Deal, England, CT14","hours":{"_text":"Wednesday, 12.30pm-4.30pm","opening":"We 12:30-16:30"},"title":"St George’s Church","url":"https://www.deal.gov.uk/dww"},"type":"Feature"},
		{"geometry":{"coordinates":[1.40083,51.22639],"type":"Point"},"properties":{"_source":"warm_spaces","address":"Union Road, Deal, England, CT14 6EA","hours":{"_text":"Tuesday, 12.30pm-4pm","opening":"Tu 12:30-16:00"},"title":"Trinity Church, Deal","url":"https://www.deal.gov.uk/dww"},"type":"Feature"},
		{"geometry":{"coordinates":[1.40032,51.22443],"type":"Point"},"properties":{"_source":"warm_spaces","address":"West Street, Deal, England, CT14 6AZ","hours":{"_text":"Monday &amp; Friday, 12pm–5pm ","opening":"Mo 12:00-17:00; Fr 12:00-17:00"},"title":"Deal Salvation Army","url":"https://www.deal.gov.uk/dww"},"type":"Feature"},
		{"geometry":{"coordinates":[1.20236,51.22381],"type":"Point"},"properties":{"_source":"warm_spaces","address":"1 Milner Crescent, Canterbury, England, CT3 3BH","hours":{"_text":"Tuesday -Thursday 10am-2pm","opening":"Tu-Th 10:00-14:00"},"title":"Roses Tearoom &amp; Thriftshop"},"type":"Feature"},
		{"geometry":{"coordinates":[1.20236,51.22381],"type":"Point"},"properties":{"_source":"warm_spaces","address":"1 Milner Crescent, Canterbury, England, CT3","hours":{"_text":"Tuesday, Wednesday &amp; Thursday 10am-2pm","opening":"Tu 10:00-14:00; We 10:00-14:00; Th 10:00-14:00"},"title":"Roses Tearoom &amp; Thriftshop"},"type":"Feature"},
		{"geometry":{"coordinates":[1.33856,51.27427],"type":"Point"},"properties":{"_source":"warm_spaces","address":"Age Concern Sandwich, 19-21 Cattle Market, Sandwich, England, CT13 9AP","hours":{"_text":"10am-4pm"},"title":"Age Concern Sandwich"},"type":"Feature"},
		{"geometry":{"coordinates":[1.08355,51.25706],"type":"Point"},"properties":{"_source":"warm_spaces","address":"Kent MS Therapy Centre, Bradbury House, Merton Lane North, Canterbury, England, CT4 7DZ","hours":{"_text":"Mon-Fri, 9am-5pm","opening":"Mo-Fr 09:00-17:00"},"title":"Kent MS Therapy Centre","url":"https://kentmstc.org.uk"},"type":"Feature"},
		{"geometry":{"coordinates":[1.33681,51.27421],"type":"Point"},"properties":{"_source":"warm_spaces","address":"insideOUT Hair Studio, 36 Moat Sole, Sandwich, England, CT13 9AU","hours":{"_text":"10am-2pm"},"title":"InsideOut","url":"https://www.insideouthairstudio.com"},"type":"Feature"},
		{"geometry":{"coordinates":[1.38193,51.39112],"type":"Point"},"properties":{"_source":"warm_spaces","address":"Turner Contemporary, Rendezvous, Margate, England, CT9 1HG","hours":{"_text":"Wednesday - Sunday, 10am-5pm ","opening":"We-Su 10:00-17:00"},"title":"Turner Contemporary","url":"https://turnercontemporary.org"},"type":"Feature"},
		{"geometry":{"coordinates":[1.08578,51.27573],"type":"Point"},"properties":{"_source":"warm_spaces","address":"Lilys Kitchen, Saint George&#39;s Place (opposite Waitrose), Canterbury, England, CT1 1UT","hours":{"_text":"Thursdays &amp; Fridays, 11:00am-2:00pm","opening":"Th 11:00-14:00; Fr 11:00-14:00"},"title":"The Hub Cafe","url":"https://lilyscommunity.org"},"type":"Feature"},
		{"geometry":{"coordinates":[1.08551,51.27596],"type":"Point"},"properties":{"_source":"warm_spaces","address":"The Hub Cafe, Canterbury Baptist Church, Saint George&#39;s Place, Canterbury, England, CT1 1UT","hours":{"_text":"Thursday &amp; Friday, 11am-2pm","opening":"Th 11:00-14:00; Fr 11:00-14:00"},"title":"The Hub Cafe - Lily's Social Kitchen CIC"},"type":"Feature"}
	]
}
