{
	"type": "FeatureCollection",
	"features": [
		{"geometry":{"coordinates":[-2.66057,53.72808],"type":"Point"},"properties":{"_source":"warm_welcome","address":"Station Road, Bamber Bridge, Preston PR5 6ED","description":"Open from 9th November 2022. We cater for all There are toys for children to play with. We are currently sourcing computers that will be freely available ","hours":"We 09:00-12:00; Th 09:00-12:00; Su 10:00-12:00","title":"Bamber Bridge Methodist Church "},"type":"Feature"},
		{"geometry":{"coordinates":[-2.47825,53.74863],"type":"Point"},"properties":{"_source":"warm_welcome","address":"The Salvation Army, Vicar Street / Salford, Blackburn, Lancashire BB1 5BE","description":"Open from 03-11-2022. Free Refreshments available: Hot Drinks & Toast. Activities include: \"Walk at Home\" (keep fit session for all ages), \"Curry Cooking Class with Nasreen\", Board Games, and Reflective Colouring.","hours":"Th 10:00-13:00","title":"Blackburn Salvation Army (Church & Community Centre)"},"type":"Feature"},
		{"geometry":{"coordinates":[-2.47186,53.72926],"type":"Point"},"properties":{"_source":"warm_welcome","address":"Roman Road Library, Fishmoor Drive, Blackburn BB2 3UY","description":"","hours":"Mo 17:00-19:00; Tu 09:00-12:00; We 12:00-14:00; Th 09:00-12:00; Fr 09:00-12:00; Sa 10:00-13:00","title":"Blackburn with Darwen Borough Council Blackburn Library"},"type":"Feature"},
		{"geometry":{"coordinates":[-2.58388,53.59370],"type":"Point"},"properties":{"_source":"warm_welcome","address":"Church Street, Blackrod, Bolton BL6 5EQ","description":"All welcome Please see staff for more information about free activities and sessions","hours":"Mo 10:00-17:00; Th 10:00-19:00; Sa 10:00-13:00","title":"Blackrod Library "},"type":"Feature"},
		{"geometry":{"coordinates":[-2.52597,53.58671],"type":"Point"},"properties":{"_source":"warm_welcome","address":"Brazley Community Centre, Horwich, bolton BL66HT","description":"Open from 07/11/22. We cater for all groups","hours":"Mo 09:00-16:00; We 09:00-12:30","title":"brazley community centre"},"type":"Feature"},
		{"geometry":{"coordinates":[-2.48027,53.69969],"type":"Point"},"properties":{"_source":"warm_welcome","address":"Central URC , Darwen, Lancashire BB3 1AT","description":"Asylum seekers and other vulnerable people","hours":"We 10:00-13:00","title":"Central URC DARE Group, Darwen"},"type":"Feature"},
		{"geometry":{"coordinates":[-2.63101,53.65549],"type":"Point"},"properties":{"_source":"warm_welcome","address":"Hollinshead Street, Chorley, Lancashire PR7 1EP","description":"","hours":"We 10:00-14:00; Th 10:00-14:00","title":"Chorley URC"},"type":"Feature"},
		{"geometry":{"coordinates":[-2.63821,53.71318],"type":"Point"},"properties":{"_source":"warm_welcome","address":"Great Greens Lane, Clayton Brook, Chorley PR5 8HL","description":"Open from 07-11-2022. Children welcome with parental supervision. Only assistance dogs allowed.","hours":"Mo 09:00-17:00","title":"Clayton Brook Community Church"},"type":"Feature"},
		{"geometry":{"coordinates":[-2.46538,53.69629],"type":"Point"},"properties":{"_source":"warm_welcome","address":"Railway Road, Darwen, Lancs BB3 2RG","description":"","hours":"We 10:00-15:00; Fr 10:00-15:00; Sa 10:00-15:00","title":"Darwen Heritage Centre"},"type":"Feature"},
		{"geometry":{"coordinates":[-2.64637,53.74412],"type":"Point"},"properties":{"_source":"warm_welcome","address":"Higher Walton Community Centre, Higher Walton Road, Higher Walton PR5 4HU","description":" Join us for a hot drink and some baked refreshments, as well as a bowl of soup at lunchtime. ","hours":"Th 10:00-13:00","title":"Higher Walton Community Centre"},"type":"Feature"},
		{"geometry":{"coordinates":[-2.58441,53.72811],"type":"Point"},"properties":{"_source":"warm_welcome","address":"Holy Trinity Church Hall, Blackburn Old Road, Hoghton PR5 0SJ","description":" You're guaranteed a warm welcome along with hot drinks and home baked treats. There's also soup available for lunch.","hours":"Tu 10:00-13:00","title":"Holy Trinity Church Hall, Hoghton"},"type":"Feature"},
		{"geometry":{"coordinates":[-2.54502,53.60056],"type":"Point"},"properties":{"_source":"warm_welcome","address":"Beaumont Road, Horwich, Bolton, Greater Manchester BL6 7BG","description":"Open from 02/11/2022. Everyone is welcome There are beverages, toast and soup free of charge. Table top games and reading material are available. This space caters to all including children in which toys can also be made available.","hours":"We 09:30-15:30","title":"Horwich Community Centre"},"type":"Feature"},
		{"geometry":{"coordinates":[-2.54908,53.60159],"type":"Point"},"properties":{"_source":"warm_welcome","address":"Jones Street, Horwich, Bolton BL6 7AJ","description":"Everybody welcome Please see staff for more information about free activities and sessions","hours":"Mo 10:00-17:00; Tu 10:00-19:00; Th 10:00-17:00; Fr 10:00-17:00; Sa 10:00-17:00","title":"Horwich Library "},"type":"Feature"},
		{"geometry":{"coordinates":[-2.47989,53.59284],"type":"Point"},"properties":{"_source":"warm_welcome","address":"St Andrew's Hope Centre, 29 Tattersall Avenue, Bolton BL15TE","description":" Term time only on Wednesdays; every week Sundays. Computer access and Cakes only available on Wednesdays.","hours":"We 09:00-01:00; Su 10:00-12:00","title":"Hub at the Hope"},"type":"Feature"},
		{"geometry":{"coordinates":[-2.69289,53.72753],"type":"Point"},"properties":{"_source":"warm_welcome","address":"c/o Age Concern Friendship Centre, Lourdes Avenue, Preston, Lancashire PR5 5TA","description":" Renew Hope runs each Friday afternoon during term time (sometimes during holidays too). We are a space where \"it is OK not to be OK\" We welcome all ages, have simple activities available for adults and children. We have an optional separate prayer space. ","hours":"Fr 13:00-15:00","title":"Interwoven Christian Community and Church. Renew Wellbeing"},"type":"Feature"},
		{"geometry":{"coordinates":[-2.71733,53.69236],"type":"Point"},"properties":{"_source":"warm_welcome","address":"247 Leyland Lane, Leyland, Lancashire PR25 1XL","description":"","hours":"Th 10:30-12:30","title":"Leyland Baptist Church"},"type":"Feature"},
		{"geometry":{"coordinates":[-2.69394,53.69590],"type":"Point"},"properties":{"_source":"warm_welcome","address":"Quin Street, Leyland, Lancashire PR25 2TA","description":"","hours":"Tu 10:00-13:00; Sa 09:30-13:00","title":"Leyland United Reformed Church"},"type":"Feature"},
		{"geometry":{"coordinates":[-2.78050,53.72757],"type":"Point"},"properties":{"_source":"warm_welcome","address":"Liverpool Old Road, Longton , Preston PR4 5HA","description":"","hours":"Mo 09:00-17:00; Tu 09:00-17:00; We 09:00-13:00; Th 09:00-19:00; Fr 09:00-17:00; Sa 09:00-13:00","title":"Longton Library"},"type":"Feature"},
		{"geometry":{"coordinates":[-2.78316,53.72429],"type":"Point"},"properties":{"_source":"warm_welcome","address":"Longton VM , Victory Lane (Off School Lane), Longton PR4 5DL","description":"","hours":"Mo 14:00-15:00","title":"Longton VM"},"type":"Feature"},
		{"geometry":{"coordinates":[-2.71711,53.73617],"type":"Point"},"properties":{"_source":"warm_welcome","address":"Hawkesbury Drive, Kingsfold, Preston PR1 9EN","description":"","hours":"Th 09:30-11:30","title":"Methodist Church"},"type":"Feature"},
		{"geometry":{"coordinates":[-2.79881,53.70235],"type":"Point"},"properties":{"_source":"warm_welcome","address":"Much Hoole Village Hall , Liverpool Old road , Much Hoole PR4 4GA","description":"","hours":"We 10:00-12:00","title":"Much Hoole Village Hall "},"type":"Feature"},
		{"geometry":{"coordinates":[-2.52138,53.59329],"type":"Point"},"properties":{"_source":"warm_welcome","address":"New Chapel Lane, Horwich, Bolton BL6 6QN","description":"Open from 15th November 2023.","hours":"Tu 10:00-13:00","title":"New Chapel United Reformed Church"},"type":"Feature"},
		{"geometry":{"coordinates":[-2.56905,53.62458],"type":"Point"},"properties":{"_source":"warm_welcome","address":"Rivington Parish Church, Horrobin Lane, Rivington, Lancashire BL67SE","description":"ALL welcome! But maybe better suited to adults as no soft play areas due to age of building. Peaceful ambiance. Warm Welcome each Wednesday 11 am -2 pm. Fully accessible disabled toilet/baby change facilities. Nappies, sanitary wear, adult pads available. Wheelchair available. Table games/books.","hours":"We 11:00-14:00","title":"Rivington Parish Church"},"type":"Feature"},
		{"geometry":{"coordinates":[-2.66057,53.72808],"type":"Point"},"properties":{"_source":"warm_welcome","address":"Station Road, Bamber Bridge, Preston PR5 6QR","description":"On Mondays and Fridays we have a Coffee Morning on a pay-as-you-can basis. The Christian Community Food Larder operates from the church hall as well. There's a children's corner with toys. On Sundays we serve hot drinks and biscuits after the service.","hours":"Mo 09:00-12:00; Fr 09:30-11:30; Su 10:00-12:00","title":"St Aidan's Church"},"type":"Feature"},
		{"geometry":{"coordinates":[-2.69514,53.68521],"type":"Point"},"properties":{"_source":"warm_welcome","address":"Worden Lane, Leyland, Lancashire PR25 3EL","description":"","hours":"Fr 10:00-11:30; Sa 10:00-12:00","title":"St Andrew's Church"},"type":"Feature"},
		{"geometry":{"coordinates":[-2.52601,53.58693],"type":"Point"},"properties":{"_source":"warm_welcome","address":"Cedar Ave, Horwich, Bolton BL6 6HT","description":" Open from 02-11-2022. Our focus is for adults but everyone is welcome","hours":"We 11:00-14:00","title":"St Elizabeth's Church"},"type":"Feature"},
		{"geometry":{"coordinates":[-2.71320,53.69854],"type":"Point"},"properties":{"_source":"warm_welcome","address":"St John's Church, Leyland Lane, Leyland, Lancashire PR25 1XB","description":" Wednesday Hub is open 10:30-3pm: conversation; hot drinks; simple hot meal (12pm); gentle exercise (1pm); service of worship (2pm). Sundays 10:30 (hot drinks); 4pm (hot meal)","hours":"We 10:30-15:00; Su 10:00-13:00","title":"St John's Church Leyland"},"type":"Feature"},
		{"geometry":{"coordinates":[-2.58519,53.59437],"type":"Point"},"properties":{"_source":"warm_welcome","address":"Church Street, Blackrod , Greater Manchester BL6 5EE","description":"Open from 25/10/2022. We welcome everyone but have limited space for children. 'Connect' is open to everyone for chat and refreshments in a warm safe space. Come and join us!","hours":"Tu 10:30-12:30","title":"St Katharine's Church, Blackrod "},"type":"Feature"},
		{"geometry":{"coordinates":[-2.63130,53.65439],"type":"Point"},"properties":{"_source":"warm_welcome","address":"St Laurence's Church, Union Street , Chorley, Lancashire PR7 1EB","description":" We have activities available, such as Jigsaws and board games and have access to newspapers and books. A clothes rail of donated clothes including warm clothing and smart clothing for interviews are available. Crafting activites. 'Pay what you can' café. ","hours":"Mo 17:00-18:00; Tu 11:00-14:00; We 11:00-14:00; Th 11:00-14:00; Fr 11:00-14:00","title":"St Laurence's Church and Taste Cafe, Chorley"},"type":"Feature"},
		{"geometry":{"coordinates":[-2.46390,53.59204],"type":"Point"},"properties":{"_source":"warm_welcome","address":"St Peter's Parish Centre, 347 Church Road, Bolton, LANCS BL15RR","description":"Open from 07/11/2022. We are termtime only. A welcoming space with delicious homemade cakes and freshly brewed coffees and teas.","hours":"Mo 10:00-12:30","title":"St Peter's Halliwell"},"type":"Feature"},
		{"geometry":{"coordinates":[-2.55146,53.59831],"type":"Point"},"properties":{"_source":"warm_welcome","address":"Rock st , Horwich , Bolton BL6 5QS","description":" A warm welcome and tots play area provided ","hours":"We 09:30-12:30; Su 09:30-12:30","title":"The Bridge Church Horwich"},"type":"Feature"},
		{"geometry":{"coordinates":[-2.63062,53.67187],"type":"Point"},"properties":{"_source":"warm_welcome","address":"Temple Way, Chorley, Lancashire PR6 7EQ","description":"","hours":"Tu 11:00-13:00; Fr 11:00-13:00","title":"The Church of Jesus Christ of Latter Day Saints"},"type":"Feature"},
		{"geometry":{"coordinates":[-2.77871,53.66201],"type":"Point"},"properties":{"_source":"warm_welcome","address":"Westhead Road, Croston, Leyland PR26 9RQ","description":"We cater for all age groups. We have a very inclusive Open Doors policy.","hours":"Fr 09:00-12:00","title":"Trinity Methodist Church, Croston PR26 9RQ"},"type":"Feature"},
		{"geometry":{"coordinates":[-2.52078,53.54894],"type":"Point"},"properties":{"_source":"warm_welcome","address":"Library Street, Westhoughton, Bolton BL5 3AT","description":"All welcome Please see staff for more information about free activities and sessions","hours":"Mo 10:00-17:00; Tu 10:00-19:00; Th 10:00-17:00; Fr 10:00-17:00; Sa 10:00-17:00","title":"Westhougton Library "},"type":"Feature"},
		{"geometry":{"coordinates":[-2.51805,53.73470],"type":"Point"},"properties":{"_source":"warm_welcome","address":"357 Preston Old Road, Blackburn, Lancashire BB2 5ND","description":"","hours":"Th 14:00-16:00","title":"Woodlands United Reformed Church"},"type":"Feature"},
		{"geometry":{"coordinates":[-2.62384,53.66142],"type":"Point"},"properties":{"_source":"warm_spaces","address":"Harpers Lane, Chorley, England, PR6 0HR","title":"St Joseph's Parish Centre"},"type":"Feature"},
		{"geometry":{"coordinates":[-2.62625,53.54688],"type":"Point"},"properties":{"_source":"wigan_council","address":"Armed Forces Community HQ, Molyneux House, School Lane, Wigan, WN1 3SE","title":"Armed Forces Community HY","url":"https://armedforceshq.org.uk/"},"type":"Feature"},
		{"geometry":{"coordinates":[-2.58794,53.56461],"type":"Point"},"properties":{"_source":"wigan_council","address":"The Fields, off Wigan Rd, Aspull, Wigan, WN21PP","hours":"Th 18:30-07:30; Fr 18:30-07:30","title":"Aspull Olympic Wrestling Club","url":"https://www.snakepitwigan.com/"},"type":"Feature"},
		{"geometry":{"coordinates":[-2.64508,53.55653],"type":"Point"},"properties":{"_source":"wigan_council","address":"Buckley St W, Wigan WN6 7PQ","hours":"Mo-Sa 10:30-16:30; Su 12:00-15:30","title":"Bookcycle Beech Hill ","url":"http://www.book-cycle.org/"},"type":"Feature"},
		{"geometry":{"coordinates":[-2.63255,53.54877],"type":"Point"},"properties":{"_source":"wigan_council","address":"Market Hall, Wigan","hours":"Mo-Sa 11:00-14:00","title":"Bookcycle Wigan","url":"http://www.book-cycle.org/"},"type":"Feature"},
		{"geometry":{"coordinates":[-2.60120,53.54349],"type":"Point"},"properties":{"_source":"wigan_council","address":"Pitfold Street, Ince-in-Makerfield, Wigan WN2 2DZ","hours":"Tu 18:00-21:00; We 18:00-21:00; Th 18:00-21:00","title":"Ince Rose Bridge Sports and Community Club","url":"incerosebridge.co.uk"},"type":"Feature"},
		{"geometry":{"coordinates":[-2.61633,53.55566],"type":"Point"},"properties":{"_source":"wigan_council","address":"St Stephen's Church, Balcarres Ave, Wigan WN1 3UR","hours":"Tu 09:00-13:00","title":"Jed's Pantry at St Stephen's Church"},"type":"Feature"},
		{"geometry":{"coordinates":[-2.65861,53.58395],"type":"Point"},"properties":{"_source":"wigan_council","address":"Grove Lane, Standish, Wigan, WN6 0ES","hours":"Th 10:00-15:00","title":"My Life Works","url":"My Life · Creating a Community Where Everyone Belongs (my-life.org.uk)"},"type":"Feature"},
		{"geometry":{"coordinates":[-2.65065,53.55949],"type":"Point"},"properties":{"_source":"wigan_council","address":"St Anne's Community Hall, 152 Beech Hill Ave, Wigan WN6 7TA","hours":"Mo 09:15-12:00","title":"St Anne's Church"},"type":"Feature"},
		{"geometry":{"coordinates":[-2.64935,53.55284],"type":"Point"},"properties":{"_source":"wigan_council","address":"St Andrew's Parish Church, 120 Woodhouse Lane, Springfield, Wigan WN6 7LZ","hours":"Th[1] 12:45-15:00","title":"St Andrewâs Friendship Circle","url":"https://m.facebook.com/pg/StAndrewsParishCentre/posts/"},"type":"Feature"},
		{"geometry":{"coordinates":[-2.64935,53.55284],"type":"Point"},"properties":{"_source":"wigan_council","address":"St Andrew's Parish Church, 120 Woodhouse Lane, Springfield, Wigan WN6 7LZ","hours":"Mo 13:00-15:00","title":"St Andrew's Parish Church","url":"St Andrew's Parish Centre | Facebook"},"type":"Feature"},
		{"geometry":{"coordinates":[-2.64935,53.55284],"type":"Point"},"properties":{"_source":"wigan_council","address":"St Andrew's Parish Church, 120 Woodhouse Lane, Springfield, Wigan WN6 7LZ","hours":"Fr[-1] 09:30-12:30","title":"St Andrew's Parish Church","url":"St Andrew's Parish Centre | Facebook"},"type":"Feature"},
		{"geometry":{"coordinates":[-2.62986,53.55402],"type":"Point"},"properties":{"_source":"wigan_council","address":"Using Duke Street entrance. 38 Duke St, Wigan WN1 2BJ","hours":"Tu 10:00-12:00","title":"St Michael's Church"},"type":"Feature"},
		{"geometry":{"coordinates":[-2.63595,53.54180],"type":"Point"},"properties":{"_source":"wigan_council","address":"The Brick Works, 4 Hodson Street, Wigan WN3 4EN","hours":"Mo-Fr 10:00-16:00","title":"The Brick Queens Hall Action on Poverty","url":"https://www.thebrick.org.uk/works/thehive/"},"type":"Feature"},
		{"geometry":{"coordinates":[-2.62821,53.54870],"type":"Point"},"properties":{"_source":"wigan_council","address":"St George's, 65 Water Street, Wigan WN1 1XD","hours":"Mo-Fr 10:00-16:00","title":"The Brick / Queens Hall Action on Poverty","url":"https://www.thebrick.org.uk/works/thehive/"},"type":"Feature"},
		{"geometry":{"coordinates":[-2.58725,53.57068],"type":"Point"},"properties":{"_source":"wigan_council","address":"The One House, 45 Haigh Road, Aspull, Wigan, WN2 1RR","hours":"Mo 09:00-12:00; We 09:00-12:00; Fr 09:00-12:00; Sa 09:00-12:00","title":"The One House","url":"https://en-gb.facebook.com/groups/119300522156092/"},"type":"Feature"},
		{"geometry":{"coordinates":[-2.63420,53.54949],"type":"Point"},"properties":{"_source":"wigan_council","address":"Leigh Miners Welfare, Kirby Rd, Leigh WN7 4EF (Thursdays)","hours":"Th 13:00-15:00","title":"Wigan Athletic Community Trust Extra Time over 55s Hub","url":"https://wiganathletic.com/community/"},"type":"Feature"},
		{"geometry":{"coordinates":[-2.62844,53.55290],"type":"Point"},"properties":{"_source":"wigan_council","address":"Using Charles Street entrance. Wigan WN1 2BS","hours":"Tu 12:00-15:30","title":"Wigan Baptist Church","url":"https://www.wiganbaptistchurch.com/"},"type":"Feature"},
		{"geometry":{"coordinates":[-2.65582,53.54601],"type":"Point"},"properties":{"_source":"wigan_council","address":"Loire Drive, Newtown, WN5 0UL","hours":"Mo-Fr 06:30-22:00; Sa 08:00-18:00; Su 08:00-16:00","title":"Robin Park Leisure Centre","url":"https://www.wigan.gov.uk/BeWell/Leisure-centres/robin-park.aspx"},"type":"Feature"},
		{"geometry":{"coordinates":[-2.65245,53.58759],"type":"Point"},"properties":{"_source":"wigan_council","address":"Rectory Lane, Standish, WN6 0XB","hours":"Mo-Fr 06:30-22:00; Sa 08:00-18:00; Su 08:00-16:00","title":"Standish Leisure Centre","url":"https://www.wigan.gov.uk/BeWell/Leisure-centres/standish.aspx"},"type":"Feature"},
		{"geometry":{"coordinates":[-2.62916,53.54473],"type":"Point"},"properties":{"_source":"wigan_council","address":"College Avenue, Wigan, WN1 1NJ","hours":"Mo-Fr 06:30-22:00; Sa 08:00-18:00; Su 08:00-16:00","title":"Wigan Life Centre","url":"https://www.wigan.gov.uk/BeWell/Leisure-centres/wigan.aspx"},"type":"Feature"},
		{"geometry":{"coordinates":[-2.66847,53.54991],"type":"Point"},"properties":{"_source":"wigan_council","address":"Harrow Road, Marsh Green, WN5 0QL","hours":"Mo-We 09:00-14:00; Th-Fr 12:00-17:00; Sa 09:00-14:00","title":"Marsh Green Library","url":"https://wigan.gov.uk/resident/libraries/marsh-green-library.aspx"},"type":"Feature"},
		{"geometry":{"coordinates":[-2.66207,53.58609],"type":"Point"},"properties":{"_source":"wigan_council","address":"Cross Street, Standish, WN6 0HQ","hours":"Mo-We 09:00-14:00; Th-Fr 12:00-17:00; Sa 09:00-14:00","title":"Standish Library","url":"https://wigan.gov.uk/resident/libraries/standish-library.aspx"},"type":"Feature"},
		{"geometry":{"coordinates":[-2.69448,53.57075],"type":"Point"},"properties":{"_source":"wigan_council","address":"Gathurst Lane, Shevington, WN6 8HA","hours":"Mo-We 09:00-14:00; Th-Fr 12:00-17:00; Sa 09:00-14:00","title":"Shevington Library","url":"https://wigan.gov.uk/resident/libraries/shevington-library.aspx"},"type":"Feature"},
		{"geometry":{"coordinates":[-2.63031,53.54564],"type":"Point"},"properties":{"_source":"wigan_council","address":"Life Centre, The Wiend, Wigan, WN1 1NH","hours":"Mo-Fr 10:00-16:00; Sa 09:00-14:00","title":"Wigan Library","url":"https://wigan.gov.uk/resident/libraries/wigan-library.aspx"},"type":"Feature"},
		{"geometry":{"coordinates":[-2.68830,53.54127],"type":"Point"},"properties":{"_source":"wigan_council","address":"Greenhey, Orrell, WN5 0DQ","hours":"Mo-We 09:00-14:00; Th-Fr 12:00-17:00; Sa 09:00-14:00","title":"Lamberhead Green Library","url":"https://wigan.gov.uk/resident/libraries/lamberhead-green-library.aspx"},"type":"Feature"},
		{"geometry":{"coordinates":[-2.58524,53.56987],"type":"Point"},"properties":{"_source":"wigan_council","address":"Oakfield Cresent, Aspull, WN2 1XJ","hours":"Mo 10:00-13:00; Tu 10:00-12:00; Th 09:45-12:15; Fr 10:00-12:00","title":"Aspull Library","url":"https://wigan.gov.uk/resident/libraries/aspull-library.aspx"},"type":"Feature"},
		{"geometry":{"coordinates":[-2.60570,53.54305],"type":"Point"},"properties":{"_source":"wigan_council","address":"Manchester Road, Ince, WN2 2DJ","hours":"Mo-Fr 09:00-16:00","title":"Ince Library","url":"https://wigan.gov.uk/resident/libraries/ince-library.aspx"},"type":"Feature"}
	]
}
