{
	"type": "FeatureCollection",
	"features": [
		{"geometry":{"coordinates":[-2.66057,53.72808],"type":"Point"},"properties":{"_source":"warm_welcome","address":"Station Road, Bamber Bridge, Preston PR5 6ED","description":"Open from 9th November 2022. We cater for all There are toys for children to play with. We are currently sourcing computers that will be freely available ","hours":"We 09:00-12:00; Th 09:00-12:00; Su 10:00-12:00","title":"Bamber Bridge Methodist Church "},"type":"Feature"},
		{"geometry":{"coordinates":[-2.47825,53.74863],"type":"Point"},"properties":{"_source":"warm_welcome","address":"The Salvation Army, Vicar Street / Salford, Blackburn, Lancashire BB1 5BE","description":"Open from 03-11-2022. Free Refreshments available: Hot Drinks & Toast. Activities include: \"Walk at Home\" (keep fit session for all ages), \"Curry Cooking Class with Nasreen\", Board Games, and Reflective Colouring.","hours":"Th 10:00-13:00","title":"Blackburn Salvation Army (Church & Community Centre)"},"type":"Feature"},
		{"geometry":{"coordinates":[-2.47186,53.72926],"type":"Point"},"properties":{"_source":"warm_welcome","address":"Roman Road Library, Fishmoor Drive, Blackburn BB2 3UY","description":"","hours":"Mo 17:00-19:00; Tu 09:00-12:00; We 12:00-14:00; Th 09:00-12:00; Fr 09:00-12:00; Sa 10:00-13:00","title":"Blackburn with Darwen Borough Council Blackburn Library"},"type":"Feature"},
		{"geometry":{"coordinates":[-2.58388,53.59370],"type":"Point"},"properties":{"_source":"warm_welcome","address":"Church Street, Blackrod, Bolton BL6 5EQ","description":"All welcome Please see staff for more information about free activities and sessions","hours":"Mo 10:00-17:00; Th 10:00-19:00; Sa 10:00-13:00","title":"Blackrod Library "},"type":"Feature"},
		{"geometry":{"coordinates":[-2.52597,53.58671],"type":"Point"},"properties":{"_source":"warm_welcome","address":"Brazley Community Centre, Horwich, bolton BL66HT","description":"Open from 07/11/22. We cater for all groups","hours":"Mo 09:00-16:00; We 09:00-12:30","title":"brazley community centre"},"type":"Feature"},
		{"geometry":{"coordinates":[-2.48027,53.69969],"type":"Point"},"properties":{"_source":"warm_welcome","address":"Central URC , Darwen, Lancashire BB3 1AT","description":"Asylum seekers and other vulnerable people","hours":"We 10:00-13:00","title":"Central URC DARE Group, Darwen"},"type":"Feature"},
		{"geometry":{"coordinates":[-2.63101,53.65549],"type":"Point"},"properties":{"_source":"warm_welcome","address":"Hollinshead Street, Chorley, Lancashire PR7 1EP","description":"","hours":"We 10:00-14:00; Th 10:00-14:00","title":"Chorley URC"},"type":"Feature"},
		{"geometry":{"coordinates":[-2.63821,53.71318],"type":"Point"},"properties":{"_source":"warm_welcome","address":"Great Greens Lane, Clayton Brook, Chorley PR5 8HL","description":"Open from 07-11-2022.","hours":"Mo 09:00-17:00","title":"Clayton Brook Community Church"},"type":"Feature"},
		{"geometry":{"coordinates":[-2.46538,53.69629],"type":"Point"},"properties":{"_source":"warm_welcome","address":"Railway Road, Darwen, Lancs BB3 2RG","description":"","hours":"We 10:00-15:00; Fr 10:00-15:00; Sa 10:00-15:00","title":"Darwen Heritage Centre"},"type":"Feature"},
		{"geometry":{"coordinates":[-2.64637,53.74412],"type":"Point"},"properties":{"_source":"warm_welcome","address":"Higher Walton Community Centre, Higher Walton Road, Higher Walton PR5 4HU","description":" Join us for a hot drink and some baked refreshments, as well as a bowl of soup at lunchtime. ","hours":"Th 10:00-13:00","title":"Higher Walton Community Centre"},"type":"Feature"},
		{"geometry":{"coordinates":[-2.58441,53.72811],"type":"Point"},"properties":{"_source":"warm_welcome","address":"Holy Trinity Church Hall, Blackburn Old Road, Hoghton PR5 0SJ","description":" You're guaranteed a warm welcome along with hot drinks and home baked treats. There's also soup available for lunch.","hours":"Tu 10:00-13:00","title":"Holy Trinity Church Hall, Hoghton"},"type":"Feature"},
		{"geometry":{"coordinates":[-2.54502,53.60056],"type":"Point"},"properties":{"_source":"warm_welcome","address":"Beaumont Road, Horwich, Bolton, Greater Manchester BL6 7BG","description":"Open from 02/11/2022. Everyone is welcome There are beverages, toast and soup free of charge. Table top games and reading material are available. This space caters to all including children in which toys can also be made available.","hours":"We 09:30-15:30","title":"Horwich Community Centre"},"type":"Feature"},
		{"geometry":{"coordinates":[-2.54908,53.60159],"type":"Point"},"properties":{"_source":"warm_welcome","address":"Jones Street, Horwich, Bolton BL6 7AJ","description":"Everybody welcome Please see staff for more information about free activities and sessions","hours":"Mo 10:00-17:00; Tu 10:00-19:00; Th 10:00-17:00; Fr 10:00-17:00; Sa 10:00-17:00","title":"Horwich Library "},"type":"Feature"},
		{"geometry":{"coordinates":[-2.47989,53.59284],"type":"Point"},"properties":{"_source":"warm_welcome","address":"St Andrew's Hope Centre, 29 Tattersall Avenue, Bolton BL15TE","description":" Term time only on Wednesdays; every week Sundays. Computer access and Cakes only available on Wednesdays.","hours":"We 09:00-01:00; Su 10:00-12:00","title":"Hub at the Hope"},"type":"Feature"},
		{"geometry":{"coordinates":[-2.69289,53.72753],"type":"Point"},"properties":{"_source":"warm_welcome","address":"c/o Age Concern Friendship Centre, Lourdes Avenue, Preston, Lancashire PR5 5TA","description":" Renew Hope runs each Friday afternoon during term time (sometimes during holidays too). We are a space where \"it is OK not to be OK\" We welcome all ages, have simple activities available for adults and children. We have an optional separate prayer space. ","hours":"Fr 13:00-15:00","title":"Interwoven Christian Community and Church. Renew Wellbeing"},"type":"Feature"},
		{"geometry":{"coordinates":[-2.71733,53.69236],"type":"Point"},"properties":{"_source":"warm_welcome","address":"247 Leyland Lane, Leyland, Lancashire PR25 1XL","description":"","hours":"Th 10:30-12:30","title":"Leyland Baptist Church"},"type":"Feature"},
		{"geometry":{"coordinates":[-2.69394,53.69590],"type":"Point"},"properties":{"_source":"warm_welcome","address":"Quin Street, Leyland, Lancashire PR25 2TA","description":"","hours":"Tu 10:00-13:00; Sa 09:30-13:00","title":"Leyland United Reformed Church"},"type":"Feature"},
		{"geometry":{"coordinates":[-2.78050,53.72757],"type":"Point"},"properties":{"_source":"warm_welcome","address":"Liverpool Old Road, Longton , Preston PR4 5HA","description":"","hours":"Mo 09:00-17:00; Tu 09:00-17:00; We 09:00-13:00; Th 09:00-19:00; Fr 09:00-17:00; Sa 09:00-13:00","title":"Longton Library"},"type":"Feature"},
		{"geometry":{"coordinates":[-2.78316,53.72429],"type":"Point"},"properties":{"_source":"warm_welcome","address":"Longton VM , Victory Lane (Off School Lane), Longton PR4 5DL","description":"","hours":"Mo 14:00-15:00","title":"Longton VM"},"type":"Feature"},
		{"geometry":{"coordinates":[-2.71711,53.73617],"type":"Point"},"properties":{"_source":"warm_welcome","address":"Hawkesbury Drive, Kingsfold, Preston PR1 9EN","description":"","hours":"Th 09:30-11:30","title":"Methodist Church"},"type":"Feature"},
		{"geometry":{"coordinates":[-2.79881,53.70235],"type":"Point"},"properties":{"_source":"warm_welcome","address":"Much Hoole Village Hall , Liverpool Old road , Much Hoole PR4 4GA","description":"","hours":"We 10:00-12:00","title":"Much Hoole Village Hall "},"type":"Feature"},
		{"geometry":{"coordinates":[-2.52138,53.59329],"type":"Point"},"properties":{"_source":"warm_welcome","address":"New Chapel Lane, Horwich, Bolton BL6 6QN","description":"Open from 15th November 2023.","hours":"Tu 10:00-13:00","title":"New Chapel United Reformed Church"},"type":"Feature"},
		{"geometry":{"coordinates":[-2.56905,53.62458],"type":"Point"},"properties":{"_source":"warm_welcome","address":"Rivington Parish Church, Horrobin Lane, Rivington, Lancashire BL67SE","description":"ALL welcome! But maybe better suited to adults as no soft play areas due to age of building. Peaceful ambiance. Warm Welcome each Wednesday 11 am -2 pm. Fully accessible disabled toilet/baby change facilities. Nappies, sanitary wear, adult pads available. Wheelchair available. Table games/books.","hours":"We 11:00-14:00","title":"Rivington Parish Church"},"type":"Feature"},
		{"geometry":{"coordinates":[-2.66057,53.72808],"type":"Point"},"properties":{"_source":"warm_welcome","address":"Station Road, Bamber Bridge, Preston PR5 6QR","description":"On Mondays and Fridays we have a Coffee Morning on a pay-as-you-can basis. The Christian Community Food Larder operates from the church hall as well. There's a children's corner with toys. On Sundays we serve hot drinks and biscuits after the service.","hours":"Mo 09:00-12:00; Fr 09:30-11:30; Su 10:00-12:00","title":"St Aidan's Church"},"type":"Feature"},
		{"geometry":{"coordinates":[-2.69514,53.68521],"type":"Point"},"properties":{"_source":"warm_welcome","address":"Worden Lane, Leyland, Lancashire PR25 3EL","description":"","hours":"Fr 10:00-11:30; Sa 10:00-12:00","title":"St Andrew's Church"},"type":"Feature"},
		{"geometry":{"coordinates":[-2.52601,53.58693],"type":"Point"},"properties":{"_source":"warm_welcome","address":"Cedar Ave, Horwich, Bolton BL6 6HT","description":" Open from 02-11-2022. Our focus is for adults but everyone is welcome","hours":"We 11:00-14:00","title":"St Elizabeth's Church"},"type":"Feature"},
		{"geometry":{"coordinates":[-2.71320,53.69854],"type":"Point"},"properties":{"_source":"warm_welcome","address":"St John's Church, Leyland Lane, Leyland, Lancashire PR25 1XB","description":" Wednesday Hub is open 10:30-3pm: conversation; hot drinks; simple hot meal (12pm); gentle exercise (1pm); service of worship (2pm). Sundays 10:30 (hot drinks); 4pm (hot meal)","hours":"We 10:30-15:00; Su 10:00-13:00","title":"St John's Church Leyland"},"type":"Feature"},
		{"geometry":{"coordinates":[-2.58519,53.59437],"type":"Point"},"properties":{"_source":"warm_welcome","address":"Church Street, Blackrod , Greater Manchester BL6 5EE","description":"Open from 25/10/2022. We welcome everyone but have limited space for children. 'Connect' is open to everyone for chat and refreshments in a warm safe space. Come and join us!","hours":"Tu 10:30-12:30","title":"St Katharine's Church, Blackrod "},"type":"Feature"},
		{"geometry":{"coordinates":[-2.63130,53.65439],"type":"Point"},"properties":{"_source":"warm_welcome","address":"St Laurence's Church, Union Street , Chorley, Lancashire PR7 1EB","description":" We have activities available, such as Jigsaws and board games and have access to newspapers and books. A clothes rail of donated clothes including warm clothing and smart clothing for interviews are available. Crafting activites. 'Pay what you can' caf√©. ","hours":"Mo 17:00-18:00; Tu 11:00-14:00; We 11:00-14:00; Th 11:00-14:00; Fr 11:00-14:00","title":"St Laurence's Church and Taste Cafe, Chorley"},"type":"Feature"},
		{"geometry":{"coordinates":[-2.46390,53.59204],"type":"Point"},"properties":{"_source":"warm_welcome","address":"St Peter's Parish Centre, 347 Church Road, Bolton, LANCS BL15RR","description":"Open from 07/11/2022. We are termtime only. A welcoming space with delicious homemade cakes and freshly brewed coffees and teas.","hours":"Mo 10:00-12:30","title":"St Peter's Halliwell"},"type":"Feature"},
		{"geometry":{"coordinates":[-2.55146,53.59831],"type":"Point"},"properties":{"_source":"warm_welcome","address":"Rock st , Horwich , Bolton BL6 5QS","description":" A warm welcome and tots play area provided ","hours":"We 09:30-12:30; Su 09:30-12:30","title":"The Bridge Church Horwich"},"type":"Feature"},
		{"geometry":{"coordinates":[-2.63062,53.67187],"type":"Point"},"properties":{"_source":"warm_welcome","address":"Temple Way, Chorley, Lancashire PR6 7EQ","description":"","hours":"Tu 11:00-13:00; Fr 11:00-13:00","title":"The Church of Jesus Christ of Latter Day Saints"},"type":"Feature"},
		{"geometry":{"coordinates":[-2.77871,53.66201],"type":"Point"},"properties":{"_source":"warm_welcome","address":"Westhead Road, Croston, Leyland PR26 9RQ","description":"We cater for all age groups. We have a very inclusive Open Doors policy.","hours":"Fr 09:00-12:00","title":"Trinity Methodist Church, Croston PR26 9RQ"},"type":"Feature"},
		{"geometry":{"coordinates":[-2.52078,53.54894],"type":"Point"},"properties":{"_source":"warm_welcome","address":"Library Street, Westhoughton, Bolton BL5 3AT","description":"All welcome Please see staff for more information about free activities and sessions","hours":"Mo 10:00-17:00; Tu 10:00-19:00; Th 10:00-17:00; Fr 10:00-17:00; Sa 10:00-17:00","title":"Westhougton Library "},"type":"Feature"},
		{"geometry":{"coordinates":[-2.51805,53.73470],"type":"Point"},"properties":{"_source":"warm_welcome","address":"357 Preston Old Road, Blackburn, Lancashire BB2 5ND","description":"","hours":"Th 14:00-16:00","title":"Woodlands United Reformed Church"},"type":"Feature"},
		{"geometry":{"coordinates":[-2.62384,53.66142],"type":"Point"},"properties":{"_source":"warm_spaces","address":"Harpers Lane, Chorley, England, PR6 0HR","title":"St Joseph's Parish Centre"},"type":"Feature"}
	]
}
