{
	"type": "FeatureCollection",
	"features": [
		{"geometry":{"coordinates":[-2.52878,53.41531],"type":"Point"},"properties":{"_source":"warm_welcome","address":"25 Benson Road, Birchwood, England WA3 7PJ","hours":"Tu 10:00-15:00; Th 10:00-15:00; Fr 10:00-15:00","title":"Birchwood Community Church"},"type":"Feature"},
		{"geometry":{"coordinates":[-2.71336,53.46781],"type":"Point"},"properties":{"_source":"warm_welcome","address":"Chain Lane Community Centre, Hinckley Road, St Helens, Merseyside WA11 9HT","description":"","hours":"Mo 09:30-14:30; We 09:30-14:30","title":"Chain Lane Community Centre"},"type":"Feature"},
		{"geometry":{"coordinates":[-2.75982,53.53837],"type":"Point"},"properties":{"_source":"warm_welcome","address":"Birkrig Digmoor, Skelmersdale, West lancashire wn89bn","hours":"Mo 08:00-11:30; We 08:00-11:30; Fr 08:00-13:00; Su 16:30-18:00","title":"Christ the servant cofe church Digmoor Skelmersdale "},"type":"Feature"},
		{"geometry":{"coordinates":[-2.72553,53.36399],"type":"Point"},"properties":{"_source":"warm_welcome","address":"Foundry Community Church, Lugsdale Road, Widnes wa8 6da","description":"Open from 09-12-2022. Our space is for anyone who is isolated and feeling alone and would appreciate a friendly conversation, cuppa and warm room. ","hours":"Fr 10:00-12:00","title":"Foundry Community Church "},"type":"Feature"},
		{"geometry":{"coordinates":[-2.59607,53.47798],"type":"Point"},"properties":{"_source":"warm_welcome","address":"98 Hight Street, Golborne, Wigan WA3 3DA","description":"","hours":"We 09:30-12:00; Th 09:30-12:00","title":"Life Church, Golborne"},"type":"Feature"},
		{"geometry":{"coordinates":[-2.48143,53.38186],"type":"Point"},"properties":{"_source":"warm_welcome","address":"Lymm Library, Warrington, Cheshire WA13 0QW","description":"","hours":"Mo 14:00-16:00","title":"LiveWire Warrington"},"type":"Feature"},
		{"geometry":{"coordinates":[-2.58832,53.40460],"type":"Point"},"properties":{"_source":"warm_welcome","address":"Orford Jubilee Hub, Warrington, Cheshire WA2 8HE","description":"","hours":"Th 11:00-13:00","title":"LiveWire Warrington"},"type":"Feature"},
		{"geometry":{"coordinates":[-2.51827,53.45232],"type":"Point"},"properties":{"_source":"warm_welcome","address":"Culcheth Library, Warrington, Cheshire WA3 5SL","description":"","hours":"Sa 10:30-12:30","title":"LiveWire Warrington"},"type":"Feature"},
		{"geometry":{"coordinates":[-2.65676,53.43059],"type":"Point"},"properties":{"_source":"warm_welcome","address":"Burtonwood Library and Post Office, Warrington, Cheshire WA5 4PS","description":"","hours":"We 15:00-17:00","title":"LiveWire Warrington"},"type":"Feature"},
		{"geometry":{"coordinates":[-2.54596,53.39911],"type":"Point"},"properties":{"_source":"warm_welcome","address":"Woolston Library, Warrington, Cheshire WA1 4PN","description":"","hours":"Th 11:00-13:00","title":"LiveWire Warrington"},"type":"Feature"},
		{"geometry":{"coordinates":[-2.55984,53.41145],"type":"Point"},"properties":{"_source":"warm_welcome","address":"Padgate Library, Warrington, Cheshire WA2 0HD","description":"","hours":"Sa 10:30-12:30","title":"LiveWire Warrington"},"type":"Feature"},
		{"geometry":{"coordinates":[-2.57647,53.37171],"type":"Point"},"properties":{"_source":"warm_welcome","address":"Stockton Heath Library, Warrington, Cheshire WA4 2AN","description":"","hours":"Fr 10:00-12:00","title":"LiveWire Warrington"},"type":"Feature"},
		{"geometry":{"coordinates":[-2.64796,53.38461],"type":"Point"},"properties":{"_source":"warm_welcome","address":"Penketh Library, Warrington, Cheshire WA5 2EY","description":"","hours":"Tu 11:00-13:00","title":"LiveWire Warrington"},"type":"Feature"},
		{"geometry":{"coordinates":[-2.52597,53.41288],"type":"Point"},"properties":{"_source":"warm_welcome","address":"Birchwood Library, Warrington, Cheshire WA3 7PT","description":"","hours":"Tu 16:00-18:00","title":"LiveWire Warrington"},"type":"Feature"},
		{"geometry":{"coordinates":[-2.59705,53.38683],"type":"Point"},"properties":{"_source":"warm_welcome","address":"Warrington Library, Warrington, Cheshire WA1 1HU","description":"","hours":"Su 13:00-15:00","title":"LiveWire Warrington"},"type":"Feature"},
		{"geometry":{"coordinates":[-2.48140,53.38185],"type":"Point"},"properties":{"_source":"warm_welcome","address":"Davies Way, Lymm, Cheshire WA13 0QW","description":" This space is offered in partnership by Lymm Library (YourLiveWire Libraries) and the charity Lymm Sanctuary Hub based at the library. Free hot drinks, biscuits and warm spaces are offered Monday's 2-4pm. Further paid facilities are available onsite.","hours":"Mo 14:00-16:00","title":"Lymm Sanctuary Hub"},"type":"Feature"},
		{"geometry":{"coordinates":[-2.52399,53.49682],"type":"Point"},"properties":{"_source":"warm_welcome","address":"Ulleswater Street, Leigh, Manchester WN7 4DZ","description":"Open from 7/10/22. Wednesdays - all ages welcome - On Fridays our focus is over 55's but all are welcome Free lunch served Fridays, Free bacon and sausage barms Wednesdays, Free drinks ","hours":"We 10:00-12:00; Fr 11:00-14:00","title":"New Life Church Leigh"},"type":"Feature"},
		{"geometry":{"coordinates":[-2.73921,53.45419],"type":"Point"},"properties":{"_source":"warm_welcome","address":"Ormskirk Street, St Helens, Merseyside WA10 2JZ","description":"","title":"Ormskirk Street United Reformed church"},"type":"Feature"},
		{"geometry":{"coordinates":[-2.57169,53.37763],"type":"Point"},"properties":{"_source":"warm_welcome","address":"Latchford Baptist Church, Latchford, Warrington WA4 2RP","description":"We cater for anyone over the age of 18. Crafts, puzzles, games or simply chat. Optional 15 minute prayer time in separate room","hours":"Tu 10:30-12:30","title":"Renew With a Brew"},"type":"Feature"},
		{"geometry":{"coordinates":[-2.71482,53.37256],"type":"Point"},"properties":{"_source":"warm_welcome","address":"ST AMBROSE CHURCH, WIDNES, Cheshire WA8 0TR","description":"Open from 08 11 2022.","hours":"Tu 13:00-15:00","title":"St Ambrose Widnes"},"type":"Feature"},
		{"geometry":{"coordinates":[-2.58198,53.36930],"type":"Point"},"properties":{"_source":"warm_welcome","address":"40 Walton Road, Stockton Heath, Warrington WA4 6NL","description":" Open House runs on a Tuesday where we serve a bowl of soup and refreshments. On a Friday we offer toast and hot drinks.","hours":"Tu 11:00-14:00; Fr 11:00-14:00","title":"Stockton Heath Christian Fellowship "},"type":"Feature"},
		{"geometry":{"coordinates":[-2.58032,53.39419],"type":"Point"},"properties":{"_source":"warm_welcome","address":"Fairfield Street, Warrington, Warrington WA1 3AJ","description":"","hours":"Mo 12:00-14:00","title":"The Old School Project"},"type":"Feature"},
		{"geometry":{"coordinates":[-2.79082,53.42391],"type":"Point"},"properties":{"_source":"warm_welcome","address":"Warrington Road, Prescot, Merseyside L35 2UA","description":"Open from Beginning 19th October 2022.","hours":"We 12:00-14:00; Th 11:00-13:00","title":"The Salvation Army"},"type":"Feature"},
		{"geometry":{"coordinates":[-2.58907,53.38852],"type":"Point"},"properties":{"_source":"warm_welcome","address":"The Salvation Army Church, Academy Street, Warrington WA1 2BQ, Warrington, Cheshire WA1 2BQ","description":"Toddler Group, Thursdays 0930-11.30 Refreshments are available in our Coffee Shop. Knitting Group fortnightly Thursdays 1100-1300","hours":"Mo 10:00-14:00; Tu 10:00-14:00; We 10:00-14:00; Th 10:00-14:00; Fr 10:00-14:00","title":"The Salvation Army"},"type":"Feature"},
		{"geometry":{"coordinates":[-2.53875,53.42432],"type":"Point"},"properties":{"_source":"warm_welcome","address":"Glover Road, Warrington, Cheshire WA3 7PH","description":"Open from 31-10-2022. There will be games and activities available and there will be a prayer space for quiet prayer","hours":"Mo 13:00-15:00; Th 08:45-11:00","title":"Thomas Risley Church"},"type":"Feature"},
		{"geometry":{"coordinates":[-2.46499,53.51571],"type":"Point"},"properties":{"_source":"warm_welcome","address":"Primrose Street North , Tyldesley, Manchester M29 8BQ","description":"Open from 10/11/2022.","hours":"Th 10:00-14:00","title":"Tyldesley Independent Methodist Church"},"type":"Feature"},
		{"geometry":{"coordinates":[-2.59499,53.39120],"type":"Point"},"properties":{"_source":"warm_welcome","address":"Bewsey Street, Warrington, Cheshire WA2 7HZ","description":"","hours":"Tu 11:00-13:00","title":"Wycliffe URC Church"},"type":"Feature"},
		{"geometry":{"coordinates":[-2.58185,53.36935],"type":"Point"},"properties":{"_source":"warm_spaces","address":"40 Walton Road, Warrington, England, WA4 6NL","title":"Stockton Heath Christian Fellowship","url":"https://www.shcf.info"},"type":"Feature"},
		{"geometry":{"coordinates":[-2.59583,53.38710],"type":"Point"},"properties":{"_source":"warm_spaces","address":"Museum Street, Warrington, England, WA1 1HU","title":"Warrington Library","url":"https://livewirewarrington.co.uk"},"type":"Feature"},
		{"geometry":{"coordinates":[-2.51852,53.45253],"type":"Point"},"properties":{"_source":"warm_spaces","address":"Warrington Road, Warrington, England, WA3 5SL","title":"Culcheth Library","url":"https://livewirewarrington.co.uk"},"type":"Feature"},
		{"geometry":{"coordinates":[-2.55996,53.41125],"type":"Point"},"properties":{"_source":"warm_spaces","address":"Insall Road, Warrington, England, WA2 0HD","title":"Padgate Library","url":"https://livewirewarrington.co.uk"},"type":"Feature"},
		{"geometry":{"coordinates":[-2.57662,53.37236],"type":"Point"},"properties":{"_source":"warm_spaces","address":"Alexandra Road, Warrington, England, WA4 2AN","title":"Stockton Heath Library","url":"https://livewirewarrington.co.uk"},"type":"Feature"},
		{"geometry":{"coordinates":[-2.53378,53.39985],"type":"Point"},"properties":{"_source":"warm_spaces","address":"Hall Road, Warrington, England, WA1 4PN","title":"Woolston Library","url":"https://livewirewarrington.co.uk"},"type":"Feature"},
		{"geometry":{"coordinates":[-2.58826,53.40474],"type":"Point"},"properties":{"_source":"warm_spaces","address":"Jubilee Way, Warrington, England, WA2 8HE","title":"Orford Library","url":"https://livewirewarrington.co.uk"},"type":"Feature"},
		{"geometry":{"coordinates":[-2.65631,53.43030],"type":"Point"},"properties":{"_source":"warm_spaces","address":"Chapel Lane, Warrington, England, WA5 4PS","title":"Burtonwood Library","url":"https://livewirewarrington.co.uk"},"type":"Feature"},
		{"geometry":{"coordinates":[-2.52914,53.41630],"type":"Point"},"properties":{"_source":"warm_spaces","address":"Brock Road, Warrington, England, WA3 7PT","title":"Birchwood Library","url":"https://livewirewarrington.co.uk"},"type":"Feature"},
		{"geometry":{"coordinates":[-2.65597,53.38664],"type":"Point"},"properties":{"_source":"warm_spaces","address":"Honiton Way, Warrington, England, WA5 2EY","title":"Penketh Library","url":"https://livewirewarrington.co.uk"},"type":"Feature"},
		{"geometry":{"coordinates":[-2.48155,53.38196],"type":"Point"},"properties":{"_source":"warm_spaces","address":"Lymm Library, Davies Way, Lymm, England, WA13 0QW","title":"Lymm Library","url":"https://livewirewarrington.co.uk"},"type":"Feature"},
		{"geometry":{"coordinates":[-2.63148,53.40835],"type":"Point"},"properties":{"_source":"warm_spaces","address":"Westbrook Library, Westbrook Crescent, Warrington, England, WA5 8UG","title":"Westbrook Library","url":"https://livewirewarrington.co.uk"},"type":"Feature"},
		{"geometry":{"coordinates":[-2.52845,53.38255],"type":"Point"},"properties":{"_source":"warm_spaces","address":"All Saints Church, Warrington, England, WA4 2JF","title":"All Saints Church"},"type":"Feature"},
		{"geometry":{"coordinates":[-2.58600,53.40006],"type":"Point"},"properties":{"_source":"warm_spaces","address":"Rhodes Street, Warrington, England, WA2 7QE","title":"St Benedict's Catholic Church","url":"https://blessedjamesbell.co.uk"},"type":"Feature"},
		{"geometry":{"coordinates":[-2.65032,53.52394],"type":"Point"},"properties":{"_source":"warm_spaces","address":"Marus Avenue, Wigan, England, WN3 5QR","title":"St Jude's Parish Centre","url":"https://www.facebook.com/StJudesSocial"},"type":"Feature"},
		{"geometry":{"coordinates":[-2.66015,53.52145],"type":"Point"},"properties":{"_source":"warm_spaces","address":"Highfield Grange Avenue, Wigan, England, WN3","title":"St Aidan's Parish Centre","url":"https://www.facebook.com/pages/St%20Aidans%20Social%20Centre/591278644373042/"},"type":"Feature"},
		{"geometry":{"coordinates":[-2.77590,53.37749],"type":"Point"},"properties":{"_source":"warm_spaces","address":"Hough Green Road, Widnes, England, WA8 4SZ","title":"St Basil &amp; All Saints Parish Centre","url":"https://www.facebook.com/stbasilsclub"},"type":"Feature"},
		{"geometry":{"coordinates":[-2.65885,53.38767],"type":"Point"},"properties":{"_source":"warm_spaces","address":"Meeting Lane, Warrington, England, WA5 2BB","title":"St Joseph's Parish Centre","url":"https://www.facebook.com/profile.php?id=100004973087974"},"type":"Feature"},
		{"geometry":{"coordinates":[-2.56496,53.40266],"type":"Point"},"properties":{"_source":"warm_spaces","address":"Padgate Lane, Warrington, England, WA1 3LB","title":"St Oswald Parish Centre","url":"https://www.facebook.com/people/St-Oswalds-Club-2018/100057656250649/"},"type":"Feature"},
		{"geometry":{"coordinates":[-2.58600,53.40006],"type":"Point"},"properties":{"_source":"warm_spaces","address":"Rhodes Street, Warrington, England, WA2 7QE","title":"St Benedict Parish Centre"},"type":"Feature"},
		{"geometry":{"coordinates":[-2.75875,53.45404],"type":"Point"},"properties":{"_source":"warm_spaces","address":"Windsor Road, Saint Helens, England, WA10 4HW","title":"St Teresa's Social Centre","url":"https://en-gb.facebook.com/stteresassthelens/?ref=page_internal"},"type":"Feature"},
		{"geometry":{"coordinates":[-2.70853,53.43403],"type":"Point"},"properties":{"_source":"warm_spaces","address":"40 Monastery Road, Saint Helens, England, WA9 3ZD","title":"St Anne &amp; Blessed Dominic Parish Centre"},"type":"Feature"},
		{"geometry":{"coordinates":[-2.65563,53.45329],"type":"Point"},"properties":{"_source":"warm_spaces","address":"111 Common Road, Newton-le-Willows, England, WA12 9JH","title":"St Patrick's Parish Centre","url":"https://www.facebook.com/stpatsnewton"},"type":"Feature"},
		{"geometry":{"coordinates":[-2.71882,53.49118],"type":"Point"},"properties":{"_source":"warm_spaces","address":"Birchley Road, Wigan, England","title":"St Mary's Parish Centre","url":"https://www.facebook.com/StMarys-Club-Billinge-410135142676310"},"type":"Feature"},
		{"geometry":{"coordinates":[-2.49209,53.52184],"type":"Point"},"properties":{"_source":"warm_spaces","address":"Mayfield Street, Manchester, England, M46 0AQ","title":"St Richard's Parish Centre","url":"https://www.facebook.com/strichardsatherton"},"type":"Feature"},
		{"geometry":{"coordinates":[-2.49354,53.38305],"type":"Point"},"properties":{"_source":"warm_spaces","address":"64 Star Lane, Lymm, England, WA13 9LN","title":"The Star Inn"},"type":"Feature"},
		{"geometry":{"coordinates":[-2.48198,53.38196],"type":"Point"},"properties":{"_source":"warm_spaces","address":"1 Brookfield Road, Lymm, England, WA13 0QL","title":"Sanctuary Cafe, Lymm","url":"https://Www.sanctuarycafe.org.uk"},"type":"Feature"}
	]
}
