{
	"type": "FeatureCollection",
	"features": [
		{"geometry":{"coordinates":[-2.57392,51.75113],"type":"Point"},"properties":{"_source":"warm_welcome","address":"WEST DEAN CENTRE HIGH STREET, LYDNEY, Gloucestershire GL15 6JW","description":"Open from 16th November 2022. We are a warm welcoming space for all age groups. Bream Friends will also be offering crafting activities on Wednesdays afternoons.","hours":"We 10:30-18:30; Fr 10:30-17:00","title":"Bream Library & Bream Friends"},"type":"Feature"},
		{"geometry":{"coordinates":[-2.67813,51.63992],"type":"Point"},"properties":{"_source":"warm_welcome","address":"The Rainbow Centre, 38 Moor Street, Chepstow NP16 5DF","hours":"We 09:00-12:00","title":"Chepstow & District CAP Debt Centre"},"type":"Feature"},
		{"geometry":{"coordinates":[-2.67734,51.64073],"type":"Point"},"properties":{"_source":"warm_welcome","address":"Albion Square, Chepstow, Monmouthshire NP16 5DA","description":"Open from From 17th Nov 2022. There will be 2 rooms - one with books, magazines, newspapers, table games, free Wifi & mobile charging facilities The 2 rooms are upstairs. friendly physical assistance can be given, but the lift is currently extremely unreliable","hours":"Th 10:00-12:00; Fr 10:00-12:00","title":"Chepstow Methodist Church"},"type":"Feature"},
		{"geometry":{"coordinates":[-2.49687,51.82260],"type":"Point"},"properties":{"_source":"warm_welcome","address":"The Wesley Forest of Dean Community & Arts Centre, Cinderford , Gloucestershire GL14 2AB","description":"Open from 11-11-22.","hours":"Fr 10:00-12:00","title":"Cinderford Methodist Church "},"type":"Feature"},
		{"geometry":{"coordinates":[-2.61985,51.79217],"type":"Point"},"properties":{"_source":"warm_welcome","address":"Newland Street, Coleford, Glos. GL16 8AJ","description":"Open from 11-11-2022. We have toys for the little ones, and plan to show family films on our screen ","hours":"Fr 17:00-19:00; Su 14:30-17:00","title":"Coleford Baptist church"},"type":"Feature"},
		{"geometry":{"coordinates":[-2.52526,51.76065],"type":"Point"},"properties":{"_source":"warm_welcome","address":"2 Bailey Hill , Yorkley, Gloucestershire GL15 4RS","description":" We hope to have equipment for pre-school age children from 11:00am ","hours":"Fr 09:00-17:00","title":"Community Centre Yorkley with All Saints CoE"},"type":"Feature"},
		{"geometry":{"coordinates":[-2.61176,51.83378],"type":"Point"},"properties":{"_source":"warm_welcome","address":"English Bicknor Village Hall , English Bicknor , Coleford GL16 7PB","description":"","title":"English Bicknor village hall"},"type":"Feature"},
		{"geometry":{"coordinates":[-2.50148,51.82538],"type":"Point"},"properties":{"_source":"warm_welcome","address":"Forest & Wye Community Church, 2 Parragate Road, Cinderford GL14 2LY","description":"","hours":"Tu 10:00-12:00; Th 14:00-16:00; Su 10:00-13:00","title":"Forest and Wye Community Church"},"type":"Feature"},
		{"geometry":{"coordinates":[-2.59797,51.80014],"type":"Point"},"properties":{"_source":"warm_welcome","address":"43 North Road, Broadwell, Coleford GL16 7BX","description":"","hours":"Mo 10:00-14:00; Tu 10:00-14:00; We 10:00-14:00; Th 18:30-21:00; Fr 10:00-14:00","title":"Forest of Dean Salvation Army - Broadwell Hub"},"type":"Feature"},
		{"geometry":{"coordinates":[-2.50020,51.82139],"type":"Point"},"properties":{"_source":"warm_welcome","address":"Forest Road, Cinderford, Gloucestershire GL142NR","description":"Open from 24.11.22. IT Suite, Hot drinks available, plus help for people to learn IT.","hours":"Th 09:30-13:00","title":"Forest Road Centre (St Stephens Hall)"},"type":"Feature"},
		{"geometry":{"coordinates":[-2.67247,51.63165],"type":"Point"},"properties":{"_source":"warm_welcome","address":"Unit 1 A, Critchcraft Industrial Estate, Bulwark, Chepstow NP16 5QZ","description":"Our focus in on catering for adult men We provide a warm cooked meal","hours":"Th 12:00-14:00","title":"Lads Lunch"},"type":"Feature"},
		{"geometry":{"coordinates":[-2.71246,51.81351],"type":"Point"},"properties":{"_source":"warm_welcome","address":"Monk Street, Monmouth, Monmouthshire NP25 3LR","description":"Open from 08-11-2022.","hours":"Tu 10:30-18:00","title":"Monmouth Baptist Church"},"type":"Feature"},
		{"geometry":{"coordinates":[-2.48052,51.81898],"type":"Point"},"properties":{"_source":"warm_welcome","address":"The Chapel Broad Street, Littledean, Gloucestershire HL14 3NH","description":"","hours":"Tu 10:00-12:00; Th 09:00-12:00","title":"Salvation Army "},"type":"Feature"},
		{"geometry":{"coordinates":[-2.49644,51.82170],"type":"Point"},"properties":{"_source":"warm_welcome","address":"St Stephen's Church, Cinderford, Gloucestershire GL14 2AA","description":" Fridays are \"Coffee Afternoon\" with tea & coffee, cakes, chance to chat & browse the Fairtrade shop. There's a small creche area for young children to play (under supervision of their grown up). Sunday mornings, service begins at 11am & refreshments follow","hours":"Fr 12:00-16:00; Su 10:30-12:30","title":"St Stephen's Church, Cinderford "},"type":"Feature"},
		{"geometry":{"coordinates":[-2.61687,51.78896],"type":"Point"},"properties":{"_source":"warm_welcome","address":"St. Margaret Mary Church Hall 4, High Nash , Coleford, Gloucestershire GL168HN","description":"Open from From Wednesday 30th November 2022. Our focus is on anyone who needs help in this crisis. In an attempt to help people who may be struggling with fuel bills during the winter, feeling isolated or in search of company and convivial atmosphere, the SVP is opening the church hall so that anyone at all can turn up.","hours":"We 12:00-14:00","title":"St.Vincent de Paul Society"},"type":"Feature"},
		{"geometry":{"coordinates":[-2.70184,51.80536],"type":"Point"},"properties":{"_source":"warm_welcome","address":"Chapel Close, Wyesham, Monmouth, Monmouthsire NP25 3NN","description":" We have toys for little ones","hours":"Mo 10:30-12:00; We 10:30-12:00; Th 10:30-12:00; Su 10:00-12:30","title":"Wyesham Christian Fellowship"},"type":"Feature"}
	]
}
