{
	"type": "FeatureCollection",
	"features": [
		{"geometry":{"coordinates":[-2.57178,51.45739],"type":"Point"},"properties":{"_source":"warm_welcome","address":"Salvation Army Hassell Drive Newtown, Newtown, Bristol BS2 0AN","description":"Open from Thursday 3rd November 2022 . we have laundry facilities ","hours":"Mo 14:00-18:00, Tu 15:00-21:00, Th 15:00-21:00","title":"Bristol Easton Salvation Army "},"type":"Feature"},
		{"geometry":{"coordinates":[-2.66555,51.43056],"type":"Point"},"properties":{"_source":"warm_welcome","address":"Keedwell Church, Church Of Ascension, Keedwell Hill, Long Ashton, Bristol BS41 9DP","description":"Open from 05-10-2022.","hours":"We 10:00-12:00","title":"Cafe @ Keedwell"},"type":"Feature"},
		{"geometry":{"coordinates":[-2.60431,51.48009],"type":"Point"},"properties":{"_source":"warm_welcome","address":"Cairns Road, Westbury Park, Bristol BS6 7TH","description":"Open from 01/11/2022.","hours":"Tu 18:00-21:00","title":"Cairns Road Baptist Church"},"type":"Feature"},
		{"geometry":{"coordinates":[-2.75810,51.43331],"type":"Point"},"properties":{"_source":"warm_welcome","address":"91 High Street, Nailsea, Bristol BS48 1AW","description":"","hours":"Mo 09:00-22:00, Tu 09:00-22:00, We 09:00-22:00, Th 09:00-22:00, Fr 09:00-23:00, Sa 09:00-23:00, Su 09:00-22:00","title":"Coates House "},"type":"Feature"},
		{"geometry":{"coordinates":[-2.50349,51.48714],"type":"Point"},"properties":{"_source":"warm_welcome","address":"Downend Baptist Church, Salisbury Road, Bristol , Bristol BS165RA","hours":"Mo 13:00-15:00","title":"Downend Baptist Church "},"type":"Feature"},
		{"geometry":{"coordinates":[-2.57484,51.49409],"type":"Point"},"properties":{"_source":"warm_welcome","address":"286 Filton Avenue, Horfield, Bristol BS7 0BA","description":"Open from 01-11-2022.","hours":"Mo 09:00-11:00, We 01:30-03:30, Th 10:30-12:30, Fr 09:00-10:30","title":"Ebenezer Church"},"type":"Feature"},
		{"geometry":{"coordinates":[-2.56800,51.43382],"type":"Point"},"properties":{"_source":"warm_welcome","address":"Knowle Public Library, Broadwalk Shopping Centre, 1 Wells Road, , Bristol BS4 2QU","description":"Open from 16-11-2022. We are opening the library for an hour on a Wednesday morning when it is usually closed. Come along to find warmth, conversation, newspapers, knitting, reading, a quiet corner, free tea and coffee. ","hours":"We 11:00-12:00","title":"Friends of Knowle Library"},"type":"Feature"},
		{"geometry":{"coordinates":[-2.60750,51.50020],"type":"Point"},"properties":{"_source":"warm_welcome","address":"Greenway Centre, Doncaster Road, Bristol, Bristol BS10 5PY","description":"Open from 01-10-2022. Our Cafe is open 09:00 - 14:00 Monday to Friday. At other times we have a hot drinks machine and snacks from Reception available.","hours":"Mo 09:00-16:00, Tu 09:00-16:00, We 09:00-16:00, Th 09:00-16:00, Fr 09:00-16:00, Sa 09:00-16:00, Su 09:00-16:00","title":"Greenway Centre"},"type":"Feature"},
		{"geometry":{"coordinates":[-2.52524,51.60639],"type":"Point"},"properties":{"_source":"warm_welcome","address":"St Mary Street, Thornbury, Bristol BS35 2AB","description":"","hours":"Mo 09:00-22:00, Tu 09:00-22:00, We 09:00-22:00, Th 09:00-22:00, Fr 09:00-23:00, Sa 09:00-23:00, Su 09:00-22:00","title":"Hawkes House"},"type":"Feature"},
		{"geometry":{"coordinates":[-2.59029,51.48783],"type":"Point"},"properties":{"_source":"warm_welcome","address":"Wellington Hill, Bristol, Bristol BS7 8ST","hours":"Mo 09:00-18:00, Tu 09:00-18:00, We 09:00-18:00, Th 09:00-18:00, Fr 09:00-18:00, Sa 09:00-16:00, Su 09:00-16:00","title":"Holy Trinity church, Horfield, Bristol"},"type":"Feature"},
		{"geometry":{"coordinates":[-2.67513,51.48971],"type":"Point"},"properties":{"_source":"warm_welcome","address":"Penpole Avenue, Shirehampton, Bristol, Other BS11 0DY","description":"Open from 30-11-2022. Entrance is in Penpole Avenue - the White doors","hours":"We 15:00-20:00, Th 15:00-20:00","title":"JTE Hub at Shirehampton Methodist Church"},"type":"Feature"},
		{"geometry":{"coordinates":[-2.56783,51.43512],"type":"Point"},"properties":{"_source":"warm_welcome","address":"Knowle Methodist Church, Knowle, Bristol BS4 2EP","description":"Open from 17-10-2022. join us to make lunch, bake bread or paint","hours":"Mo 11:00-14:00","title":"Knowle South Bristol Methodist Church"},"type":"Feature"},
		{"geometry":{"coordinates":[-2.55872,51.52420],"type":"Point"},"properties":{"_source":"warm_welcome","address":"Kingsway, Little Stoke, BRISTOL, South Gloucstershire BS34 6JW","description":"","hours":"We 14:00-16:00, Th 10:00-14:00, Su 10:00-12:00","title":"Little Stoke Baptist Church "},"type":"Feature"},
		{"geometry":{"coordinates":[-2.56276,51.49014],"type":"Point"},"properties":{"_source":"warm_welcome","address":"The Hub, Fedden buildings, Gainsborough Square, Lockleaze, Bristol BS7 9FB","description":"Open from 01/11/22. We are open Monday to Friday 9.30 - 3.00 for people to pop-in, get signposting or for a chat. Our warm welcome space is open Wednesday and Friday as advertised and we can point you to other spaces locally where you can work and eat at other times. ","hours":"We 10:30-14:00, Fr 13:00-15:00","title":"Lockleaze Neighbourhood Trust"},"type":"Feature"},
		{"geometry":{"coordinates":[-2.77303,51.43083],"type":"Point"},"properties":{"_source":"warm_welcome","address":"15 Chapel Barton, Nailsea, North Somerset BS48 2ED","description":"Open from 04-11-2022. EVERYBODY IS INCLUDED AT NAILSEA SOCIAL CLUB BOARD GAMES, CARDS, BINGO, TV, KNIT AND NATTER, BOOKS, PUZZLES AND CLOTHING BANK","hours":"Fr 10:00-16:00","title":"Nailsea Social Club "},"type":"Feature"},
		{"geometry":{"coordinates":[-2.68447,51.47948],"type":"Point"},"properties":{"_source":"warm_welcome","address":"Mount Pleasant, Pill, Bristol BS20 0ES","description":"All welcome, toys available for young children Safe space for remote working (using own mobile phone for wifi), playing board games, meeting others, having soup lunch.","hours":"We 10:00-15:00","title":"Pill Methodist Church"},"type":"Feature"},
		{"geometry":{"coordinates":[-2.59092,51.44658],"type":"Point"},"properties":{"_source":"warm_welcome","address":"4 Waring House, Redcliff Hill, Redcliffe, Bristol BS1 6TB","description":"Open from 07-11-2022. We're also open on Thursday 1-3pm","hours":"Mo 08:30-10:30, Tu 08:30-10:30, We 08:30-10:30, Th 08:30-10:30, Fr 13:00-15:00","title":"Redcliffe Hub"},"type":"Feature"},
		{"geometry":{"coordinates":[-2.61068,51.46835],"type":"Point"},"properties":{"_source":"warm_welcome","address":"Whiteladies Road, Redland, Bristol BS6 6SA","description":"Open from Wednesday 7th December. Everyone is welcome up a limit of 30 people per session Books, puzzles, newspapers, magazines, toys","hours":"We 10:30-14:30, Th 10:30-14:30","title":"Redland Park United Reformed Church"},"type":"Feature"},
		{"geometry":{"coordinates":[-2.56487,51.46762],"type":"Point"},"properties":{"_source":"warm_welcome","address":"St Marks Baptist Church, St Marks Road, Bristol, Bristol BS56HX","description":"","hours":"We 09:30-16:00, Th 09:30-20:30, Fr 09:30-16:00","title":"St Marks Community Cafe"},"type":"Feature"},
		{"geometry":{"coordinates":[-2.57411,51.50953],"type":"Point"},"properties":{"_source":"warm_welcome","address":"St Peters Church, Filton, South Gloucestershire BS34 7BQ","description":" We welcome everyone!","hours":"Mo 10:00-13:00, Tu 10:00-13:00, We 10:00-13:00, Th 10:00-13:00, Su 10:00-11:00","title":"St Peters, Filton"},"type":"Feature"},
		{"geometry":{"coordinates":[-2.57877,51.53129],"type":"Point"},"properties":{"_source":"warm_welcome","address":"The Casson Centre, Bristol, Avon BS34 5DQ","description":"","hours":"Mo 10:00-14:00, Tu 10:00-14:00, We 10:00-14:00, Th 10:00-14:00, Fr 10:00-14:00","title":"The Community Hub"},"type":"Feature"},
		{"geometry":{"coordinates":[-2.74300,51.41341],"type":"Point"},"properties":{"_source":"warm_welcome","address":"Backwell Parish Hall, Backwell, Bristol BS48 3QW","description":" We have a twice monthly lunch club and offer general IT support with phones, tablets etc (not repairs) as well as ","hours":"Tu 10:30-16:30","title":"The Meeting Point"},"type":"Feature"},
		{"geometry":{"coordinates":[-2.58422,51.42641],"type":"Point"},"properties":{"_source":"warm_welcome","address":"4 Padstow Road, Knowle West, Bristol BS4 1EN","description":"Open from 31/10/2022","hours":"Mo 10:00-14:00, Su 10:00-12:30","title":"The Salvation Army"},"type":"Feature"},
		{"geometry":{"coordinates":[-2.58854,51.46446],"type":"Point"},"properties":{"_source":"warm_welcome","address":"6 Ashley Road, Bristol, Severn/Somerset BS6 5NL","description":"Open from 28/10/22. Availability of shower","hours":"Tu 15:00-19:00, Th 15:00-19:00","title":"The Salvation Army Bristol Citadel"},"type":"Feature"},
		{"geometry":{"coordinates":[-2.50564,51.48110],"type":"Point"},"properties":{"_source":"warm_welcome","address":"The Salvation Army, Broad Street, Staple Hill, Bristol BS16 5LN","description":"Open from 01-11-2022. We cater for everyone Entry is by our main entrance on Broad Street","hours":"Tu 12:00-18:00, Fr 12:00-18:00","title":"The Salvation Army Staple Hill"},"type":"Feature"},
		{"geometry":{"coordinates":[-2.75889,51.43628],"type":"Point"},"properties":{"_source":"warm_welcome","address":"85 Southfield Road, Nailsea, North Somerset BS48 1SB","description":"","hours":"Fr 10:30-14:30","title":"The Well Cafe - Southfield Church"},"type":"Feature"},
		{"geometry":{"coordinates":[-2.52590,51.60740],"type":"Point"},"properties":{"_source":"warm_welcome","address":"Town Hall, High Street, Thornbury, Bristol BS35 2AR","description":"Open from 31/10/2022. Over 60s only. Over 60s only. To be accessed via the over 60's Tea Room only.","hours":"Mo 10:00-15:00, Tu 10:00-15:00, We 10:00-15:00, Th 10:00-15:00, Fr 10:00-15:00","title":"Thornbury Town Council"},"type":"Feature"},
		{"geometry":{"coordinates":[-2.57341,51.50996],"type":"Point"},"properties":{"_source":"warm_spaces","address":"Gloucester Road North, Bristol, England, BS34 7BQ","title":"St Peters, Filton","url":"https://www.stpeterschurchfilton.com"},"type":"Feature"},
		{"geometry":{"coordinates":[-2.71109,51.42121],"type":"Point"},"properties":{"_source":"warm_spaces","address":"Church of St Michael and All Angels, Flax Bourton, Bristol, England, BS48 3QQ","title":"Cafe@Flax"},"type":"Feature"},
		{"geometry":{"coordinates":[-2.49779,51.41738],"type":"Point"},"properties":{"_source":"warm_spaces","address":"1 The Park, Bristol, England, BS31 2BL","title":"One Community &amp; Wild About Community"},"type":"Feature"},
		{"geometry":{"coordinates":[-2.57497,51.49412],"type":"Point"},"properties":{"_source":"warm_spaces","address":"Ebenezer Church, 286 Filton Avenue, Bristol, England, BS7 0BA","title":"Ebenezer Church","url":"https://www.ebe.org.uk/welcomingspace"},"type":"Feature"},
		{"geometry":{"coordinates":[-2.55819,51.52471],"type":"Point"},"properties":{"_source":"warm_spaces","address":"Little Stoke Baptist Church, Kingsway, Bristol, England, BS34 6JW","title":"Little Stoke Baptist Church","url":"https://www.littlestokebaptist.org"},"type":"Feature"}
	]
}
