{
	"type": "FeatureCollection",
	"features": [
		{"geometry":{"coordinates":[-2.79522,50.88400],"type":"Point"},"properties":{"_source":"warm_welcome","address":"Falkland Square, Crewkerne, Somerset TA18 7JS","description":"","hours":"Mo 09:30-13:30, Tu 09:30-17:00, We 09:30-17:00, Fr 09:30-17:00, Sa 09:30-12:00","title":"Crewkerne Library"},"type":"Feature"},
		{"geometry":{"coordinates":[-2.63069,50.94087],"type":"Point"},"properties":{"_source":"warm_welcome","address":"Yeovil Trinity Foyer, Peter St, Yeovil BA20 1PN","description":"","hours":"We 10:00-16:00","title":"Mind in Somerset"},"type":"Feature"},
		{"geometry":{"coordinates":[-2.64883,50.95306],"type":"Point"},"properties":{"_source":"warm_welcome","address":"Coronation Avenue, yeovil, somerset ba213dy","description":"Open from 31-10-2022. Here to provide a community warm hub, all welcome. Catering for ALL. Daily papers, puzzles,magazines, a lounge area, a dining area, childrens play space, library all free to use.","hours":"Mo 09:30-15:00, Tu 09:30-15:00, We 09:30-15:00","title":"St Peter's Community Centre, Westfield"},"type":"Feature"},
		{"geometry":{"coordinates":[-2.63362,50.94061],"type":"Point"},"properties":{"_source":"warm_welcome","address":"Petters Way, South Street, Yeovil, Somerset BA20 1QF","description":"Open from 07-11-22. We can cater for young children as well as being accessible friendly We provide a separate quiet space for those who want to work or be undisturbed, and another social space for chatting, doing puzzles, board games or other activities people want to bring along. We provide free hot refreshments, biscuits, soup and bread","hours":"Mo 09:00-15:00, Th 09:00-12:00","title":"Yeovil Baptist Church"},"type":"Feature"}
	]
}
