{
	"type": "FeatureCollection",
	"features": [
		{"geometry":{"coordinates":[0.71183,51.53529],"type":"Point"},"properties":{"_source":"warm_welcome","address":"57 West, 6 Clarence Road, Southend, Essex SS1 1AN","description":" Open from 02-11-2022.","hours":"We 12:00-14:00; Th 12:00-14:00; Fr 11:00-13:00","title":"57 West"},"type":"Feature"},
		{"geometry":{"coordinates":[0.80433,51.42004],"type":"Point"},"properties":{"_source":"warm_welcome","address":"Minster-in-Sheppey Library, Worcester Close, Minster-On-Sea, Sheppey, Kent ME12 3NP","description":" Please visit our website for services provided at your local library","hours":"Mo 09:00-12:00; Tu 09:00-13:00; We 09:00-13:00; Fr 09:00-13:00; Sa 09:00-13:00","title":"Minster-in-Sheppey Library"},"type":"Feature"},
		{"geometry":{"coordinates":[0.74770,51.41620],"type":"Point"},"properties":{"_source":"warm_welcome","address":"Railway Terrace, Queenborough, Kent ME11 5AY","description":" Please visit our website for services provided at your local library","hours":"Tu 13:00-17:00; Th 09:00-13:00; Fr 13:00-17:00; Sa 09:00-12:00","title":"Queenborough Library"},"type":"Feature"},
		{"geometry":{"coordinates":[0.76423,51.43767],"type":"Point"},"properties":{"_source":"warm_welcome","address":"163 High Street, Sheerness, Kent ME12 1UH","description":"Open from 19th October 2022.","hours":"We 09:30-14:30; Su 12:00-14:00","title":"Sheerness Salvation Army"},"type":"Feature"},
		{"geometry":{"coordinates":[0.75731,51.53038],"type":"Point"},"properties":{"_source":"warm_welcome","address":"The Broadway, Southend on sea, Southend on Sea Ss1 3hq","description":"","hours":"We 10:00-12:00","title":"Thorpe Bay Methodist Church "},"type":"Feature"}
	]
}
