{
	"type": "FeatureCollection",
	"features": [
		{"geometry":{"coordinates":[0.79531,51.21060],"type":"Point"},"properties":{"_source":"warm_welcome","address":"Market Place, Charing, Kent TN27 0LR","description":" Please visit our website for services provided at your local library. Find out how else we can help with the cost-of-living support: bit.ly/CostOfLivingSupportKent.","hours":"Tu 09:00-13:00; We 09:00-13:00; Th 09:00-13:00; Fr 13:00-17:00; Sa 09:00-13:00","title":"Charing Library "},"type":"Feature"},
		{"geometry":{"coordinates":[0.89190,51.31250],"type":"Point"},"properties":{"_source":"warm_welcome","address":"Newton Road, Faversham, Kent ME13 8DY","description":"","hours":"Mo 10:00-17:00; Tu 10:00-17:00; We 10:00-17:00; Th 10:00-17:00; Fr 10:00-17:00; Sa 10:00-17:00","title":"Faversham Library"},"type":"Feature"},
		{"geometry":{"coordinates":[0.71819,51.23719],"type":"Point"},"properties":{"_source":"warm_welcome","address":"11 The Square, Lenham, Kent ME17 2PQ","description":" Please visit our website for services provided at your local library. Find out how else we can help with the cost-of-living support: bit.ly/CostOfLivingSupportKent.","title":"Lenham Library"},"type":"Feature"},
		{"geometry":{"coordinates":[0.73452,51.33855],"type":"Point"},"properties":{"_source":"warm_welcome","address":"Central Avenue, Sittingbourne, Kent ME10 4AH","description":" Please visit our website for services provided at your local library","hours":"Mo 10:00-17:00; Tu 10:00-17:00; We 10:00-17:00; Th 10:00-17:00; Fr 10:00-17:00; Sa 10:00-17:00","title":"Sittingbourne Library"},"type":"Feature"},
		{"geometry":{"coordinates":[0.73597,51.34002],"type":"Point"},"properties":{"_source":"warm_welcome","address":"High St, Sittingbourne, Kent ME10 4PB","description":"Open from 25/11/2022.","hours":"Fr 10:00-13:00","title":"Sittingbourne Methodist Church"},"type":"Feature"},
		{"geometry":{"coordinates":[1.02504,51.36154],"type":"Point"},"properties":{"_source":"warm_welcome","address":"10 Harbour Street, Whitstable, Kent CT5 1AQ","description":" This space will be open to Welcome you from Friday 25th November.","hours":"Fr 14:00-16:00","title":"The Harbour Church"},"type":"Feature"},
		{"geometry":{"coordinates":[1.02737,51.35479],"type":"Point"},"properties":{"_source":"warm_welcome","address":"11 Belmont Road, Whitstable, Kent CT5 1PP","description":"","hours":"Th 13:00-17:00","title":"Whitstable Labour Club"},"type":"Feature"},
		{"geometry":{"coordinates":[1.02456,51.35552],"type":"Point"},"properties":{"_source":"warm_welcome","address":"Whitstable Library, Oxford Street, Whitstable CT5 1DB","description":"","hours":"Mo 10:30-16:30; Tu 10:30-16:30; We 10:30-16:30; Th 10:00-17:00; Fr 10:30-16:30; Sa 10:00-16:00; Su 10:00-16:00","title":"Whitstable Library"},"type":"Feature"},
		{"geometry":{"coordinates":[0.93710,51.18237],"type":"Point"},"properties":{"_source":"warm_welcome","address":"6 Upper Bridge Street, Wye, Ashford, Kent TN25 5AF","description":" Please visit our website for services provided at your local library. Find out how else we can help with the cost-of-living support: bit.ly/CostOfLivingSupportKent","hours":"Mo 09:00-13:00; Tu 09:00-13:00; Th 10:00-13:00; Fr 09:00-13:00; Sa 09:00-13:00","title":"Wye Library "},"type":"Feature"},
		{"geometry":{"coordinates":[0.73494,51.33886],"type":"Point"},"properties":{"_source":"warm_spaces","address":"Phoenix House, Central Avenue, Sittingbourne, England, ME10 4AH","title":"The Bus Shelter Kent Community Hub"},"type":"Feature"}
	]
}
