{
	"type": "FeatureCollection",
	"features": [
		{"geometry":{"coordinates":[0.87275,51.14683],"type":"Point"},"properties":{"_source":"warm_welcome","address":"Church Road, Ashford, Kent TN23 1AS","description":" Please visit our website for services provided at your local library. Find out how else we can help with the cost-of-living support: bit.ly/CostOfLivingSupportKent.","hours":"Mo 09:00-17:00, Tu 09:00-17:00, We 09:00-13:00, Th 10:00-18:00, Fr 09:00-15:00, Sa 09:00-15:00","title":"Ashford Library"},"type":"Feature"},
		{"geometry":{"coordinates":[0.88144,51.16422],"type":"Point"},"properties":{"_source":"warm_welcome","address":"10 Belmont Road, Kennington, Ashford, Kent TN24 9LS","description":" Please visit our website for services provided at your local library. Find out how else we can help with the cost-of-living support: bit.ly/CostOfLivingSupportKent.","hours":"Mo 13:00-17:00, We 10:00-13:00, Fr 13:00-17:00, Sa 09:00-13:00","title":"Bockhanger Library"},"type":"Feature"},
		{"geometry":{"coordinates":[0.88182,51.15836],"type":"Point"},"properties":{"_source":"warm_welcome","address":"110 Canterbury Road , Ashford, Kent TN24 9QA","description":"Open from Thursday 1st December . Individuals, families, children, elderly people - all are welcome. We have comfortable chairs for all. All are very welcome to come and socialise (or not if they prefer to not to) and charge their phones and enjoy some soup and hot drink whilst keeping warm. We are a friendly and non-judgemental people and anyone is welcome to benefit from our resources. ","hours":"Th 18:00-21:00","title":"Church of Jesus Christ of Latter-Day Saints"},"type":"Feature"},
		{"geometry":{"coordinates":[0.83981,51.13872],"type":"Point"},"properties":{"_source":"warm_welcome","address":"Singleton Village Hall, Hoxton Close, Ashford, Kent TN23 5LB","description":" We are a social enterprise offering employment opportunities to those with Autism & Learning Disabilities. We have toys for children to play with and food and drink open a pay as you can afford basis","hours":"Mo 08:00-16:00, Tu 08:00-16:00, We 08:00-16:00, Th 08:00-16:00, Fr 08:00-16:00","title":"Lilys Social Kitchen CIC"},"type":"Feature"},
		{"geometry":{"coordinates":[0.85711,51.13494],"type":"Point"},"properties":{"_source":"warm_welcome","address":"St Francis Church, Cryol Road, Ashford, Kent TN23 5AS","description":"Families We are a baby and toddler group. Open to all carers with children under school age. Serving hot drinks for adults and snack time at 11am for children.","hours":"We 10:00-11:30","title":"Little Squeakers Baby and Toddler Group"},"type":"Feature"},
		{"geometry":{"coordinates":[1.02236,51.07281],"type":"Point"},"properties":{"_source":"warm_welcome","address":"Lympne Church, Castle Close, Lympne, Hythe CT21 4LQ","description":"","hours":"Tu 10:30-12:30","title":"Lympne Church"},"type":"Feature"},
		{"geometry":{"coordinates":[0.85711,51.13494],"type":"Point"},"properties":{"_source":"warm_welcome","address":"St Francis Church, Cryol Road, Ashford, Kent TN23 5AS","description":"We cater for families There are toys and activities for children. We serve a hot meal to everyone attending. We are open on Tuesday 25th October and Tuesday 20th December. Booking required","hours":"Tu 11:30-13:30","title":"Make Lunch Ashford"},"type":"Feature"},
		{"geometry":{"coordinates":[0.85191,51.13088],"type":"Point"},"properties":{"_source":"warm_welcome","address":"The Stanhope Centre, 67A, Otterden Close, Stanhope, Ashford, Kent TN23 5TH","description":" Please visit our website for services provided at your local library. Find out how else we can help with the cost-of-living support: bit.ly/CostOfLivingSupportKent","hours":"Mo 09:00-12:00, We 14:00-17:00, Th 10:00-13:00, Sa 09:00-12:00","title":"Stanhope Library "},"type":"Feature"},
		{"geometry":{"coordinates":[0.96410,50.98248],"type":"Point"},"properties":{"_source":"warm_spaces","address":"104 Littlestone Road, New Romney, England, TN28 8NH","title":"Lindau Care Home"},"type":"Feature"},
		{"geometry":{"coordinates":[0.84015,51.13859],"type":"Point"},"properties":{"_source":"warm_spaces","address":"Singleton Village Hall, Hoxton Close, Ashford, England, TN23 5LB","title":"Lily's at Singleton","url":"https://lilyscommunity.org"},"type":"Feature"}
	]
}
