{
	"type": "FeatureCollection",
	"features": [
		{"geometry":{"coordinates":[-2.20534,53.46023],"type":"Point"},"properties":{"_source":"warm_welcome","address":"422 Stockport Road, Manchester M12 4EX","description":" Our 422 cafe is open 9am to 3pm every weekday and we have various activities running throughout the week. Drop by on Tuesdays 12pm for our Community Lunch! We have toys and games available for children, and an affordable cafe with a pay-it-forward scheme.","hours":"Mo 09:00-15:00, Tu 09:00-15:00, We 09:00-15:00, Th 09:00-15:00, Fr 09:00-15:00","title":"422 Community Hub"},"type":"Feature"},
		{"geometry":{"coordinates":[-2.25491,53.48589],"type":"Point"},"properties":{"_source":"warm_welcome","address":"Audacious Church, Trinity Way, Salford M3 7BB","hours":"Tu 19:00-21:00, Th 10:00-12:00, Su 10:00-14:00","title":"Audacious Foundation"},"type":"Feature"},
		{"geometry":{"coordinates":[-2.24397,53.45067],"type":"Point"},"properties":{"_source":"warm_welcome","address":"Cornerstone Day Centre, Ingham House, Hulme, Manchester M14 7Js","description":"","hours":"Mo 12:00-13:30, Tu 12:00-13:30, We 12:00-13:30, Th 12:00-13:30, Fr 12:00-13:30","title":"Caritas diocese of salford"},"type":"Feature"},
		{"geometry":{"coordinates":[-2.27472,53.43921],"type":"Point"},"properties":{"_source":"warm_welcome","address":"CHORLTON CEENTRAL CHURCH, CHORLTON, MANCHESTER M21 8BF","description":"Open from 24/11/2022. We are open every Sunday morning from 10.30 for a church service. Refreshments of tea and coffee are served after the service and we have a free soup lunch once a month to which all are welcome. On Thursdays there is a simple pasta meal and activities for ","hours":"Th 15:30-18:00, Su 10:30-13:00","title":"CHORLTON CENTRAL CHURCH"},"type":"Feature"},
		{"geometry":{"coordinates":[-2.27796,53.44565],"type":"Point"},"properties":{"_source":"warm_welcome","address":"Manchester Road, Chorlton, Manchester M21 9PN","description":"","hours":"Mo 09:00-17:00, Tu 09:00-20:00, Th 09:00-20:00, Fr 09:00-17:00, Sa 09:00-17:00","title":"Chorlton Library"},"type":"Feature"},
		{"geometry":{"coordinates":[-2.21528,53.48599],"type":"Point"},"properties":{"_source":"warm_welcome","address":"Church of the Apostles, Ridgway Street, Miles Platting, Manchester M40 7FY","description":"A warm welcoming space, home to our Social Super Market too. Advice and support available on Wednesdays, as well as members of the Be Well team. ","hours":"Tu 12:00-16:00, We 12:00-19:00, Fr 10:00-16:00, Sa 12:00-14:00","title":"Church of the Apostles"},"type":"Feature"}