{
	"type": "FeatureCollection",
	"features": [
		{"geometry":{"coordinates":[-1.77857,57.50556],"type":"Point"},"properties":{"_source":"warm_welcome","address":"Chapel Street, Peterhead, Aberdeenshire AB42 1ZD","description":" Community Cafe","hours":"We 12:00-13:15","title":"Apex Church"},"type":"Feature"},
		{"geometry":{"coordinates":[-2.08428,57.36843],"type":"Point"},"properties":{"_source":"warm_welcome","address":"Hospital Road, Ellon, Aberdeenshire AB41 9AW","description":"Open from 23-11-2022. We cater for adults (mother and babies are allowed) Table top games","hours":"We 11:00-15:00","title":"Ellon and District Men's Shed"},"type":"Feature"},
		{"geometry":{"coordinates":[-2.07988,57.36560],"type":"Point"},"properties":{"_source":"warm_welcome","address":"Station Road, Ellon , Aberdeenshire AB41 9AE","description":"Open from 11-11-2022. All ages welcome, toys available for children. Free homemade soup available, plus rolls & hot/cold drinks for all. ","hours":"Fr 12:00-14:00","title":"Ellon Baptist Church"},"type":"Feature"},
		{"geometry":{"coordinates":[-2.07185,57.36541],"type":"Point"},"properties":{"_source":"warm_welcome","address":"4 Station Road, Ellon, Aberdeenshire AB41 9AE","description":"Gluten free available Thursday:coffee, cakes,soup. Saturday:coffee, cakes, bacon/sausage rolls","hours":"Th 09:30-13:30, Sa 09:30-12:00","title":"Ellon Parish Church"},"type":"Feature"},
		{"geometry":{"coordinates":[-1.78656,57.50650],"type":"Point"},"properties":{"_source":"warm_welcome","address":"49 King Street, Peterhead, Aberdeenshire AB42 1TA","description":"Open from 31/10/22. Hot drink and biscuits served, 2-4pm and dinner between 4-6pm. Warm comfortable space with games, newspapers and computer games to stay entertained while you relax.","hours":"Mo 14:00-18:00, Tu 14:00-18:00, We 14:00-18:00, Th 14:00-18:00, Fr 14:00-18:00","title":"Peterhead Baptist Church"},"type":"Feature"}
	]
}
