{
	"type": "FeatureCollection",
	"features": [
		{"geometry":{"coordinates":[-1.82908,54.85125],"type":"Point"},"properties":{"_source":"warm_welcome","address":"Station Road, Consett, County Durham DH8 5RL","description":"Open from November 15 2022.","hours":"Mo 09:30-12:00, Tu 09:30-12:00, We 09:30-12:00, Th 09:30-12:00, Fr 09:30-12:00","title":"Consett Methodist Church"},"type":"Feature"},
		{"geometry":{"coordinates":[-1.81692,54.91860],"type":"Point"},"properties":{"_source":"warm_welcome","address":"Chopwell Primary School, Derwent Street, Chopwell NE17 7HS","hours":"Mo 09:00-17:00, Tu 09:00-17:00, Th 09:00-17:00, Sa 09:00-13:00","title":"Gateshead Libraries"},"type":"Feature"},
		{"geometry":{"coordinates":[-1.81570,54.90558],"type":"Point"},"properties":{"_source":"gateshead_council","address":"Community Centre, 25 River View, Blackhall Mill, NE17 7TQ","description":"Free Wifi, Baby changing facilities, Hot drinks, cordial and biscuits, Car parking, Accessible toilets","title":"Blackhall Mill Community Association"},"type":"Feature"},
		{"geometry":{"coordinates":[-1.81795,54.91838],"type":"Point"},"properties":{"_source":"gateshead_council","address":"Derwent Street, Chopwell, NE17 7HS","description":"Book borrowing, Hot drinks, cordial and biscuits, Accessible toilet, Wifi, Charging facilities , Car parking","title":"Chopwell Community Centre"},"type":"Feature"},
		{"geometry":{"coordinates":[-1.81795,54.91838],"type":"Point"},"properties":{"_source":"gateshead_council","address":"Chopwell Primary School, Derwent Street, Chopwell, NE17 7HS","description":"Free wifi, Hot drinks, cordial and biscuits, Accessible toilets, Free use of computers , Charging facilities , Car parking, Baby changing facilities ","title":"Chopwell Library"},"type":"Feature"},
		{"geometry":{"coordinates":[-1.78912,54.96678],"type":"Point"},"properties":{"_source":"gateshead_council","address":"Main Street , Crawcrook, Ryton , NE40 4NB","description":"Free wifi, Hot drinks, cordial and biscuits, Accessible toilets, Free use of computers , Charging facilities , Car parking, Baby changing facilities ","title":"Crawcrook Library"},"type":"Feature"}
	]
}
