{
	"type": "FeatureCollection",
	"features": [
		{"geometry":{"coordinates":[-1.82908,54.85125],"type":"Point"},"properties":{"_source":"warm_welcome","address":"Station Road, Consett, County Durham DH8 5RL","description":"Open from November 15 2022.","hours":"Mo 09:30-12:00; Tu 09:30-12:00; We 09:30-12:00; Th 09:30-12:00; Fr 09:30-12:00","title":"Consett Methodist Church"},"type":"Feature"},
		{"geometry":{"coordinates":[-1.81692,54.91860],"type":"Point"},"properties":{"_source":"warm_welcome","address":"Chopwell Primary School, Derwent Street, Chopwell NE17 7HS","hours":"Mo 09:00-17:00; Tu 09:00-17:00; Th 09:00-17:00; Sa 09:00-13:00","title":"Gateshead Libraries"},"type":"Feature"},
		{"geometry":{"coordinates":[-1.83274,54.85312],"type":"Point"},"properties":{"_source":"durham_county_council","address":"Consett Library, Victoria Road, Consett, County Durham, DH8 5AT","contact":"Telephone: 03000 269 513 Email: consett.lib@durham.gov.uk","title":"Consett Library","url":"https://www.durhamlocate.org.uk"},"type":"Feature"},
		{"geometry":{"coordinates":[-1.82999,54.85158],"type":"Point"},"properties":{"_source":"durham_county_council","address":"Consett Methodist Church Station Road Consett DH8 5RL, Station Road, Consett, County Durham, DH8 5RL","contact":"Telephone: 01207 505 564 Email: liztemple51@gmail.com","title":"Consett Methodist Church","url":"https://www.durhamlocate.org.uk"},"type":"Feature"},
		{"geometry":{"coordinates":[-1.81652,54.84070],"type":"Point"},"properties":{"_source":"durham_county_council","address":"Delves lane Village Hall, Delves Lane, Consett, County Durham, DH8 7BH","contact":"Telephone: 01207 583 174 Email: delvesvillagehall@gmail.com","title":"Delves Lane Village Hall","url":"https://www.durhamlocate.org.uk"},"type":"Feature"},
		{"geometry":{"coordinates":[-1.83249,54.85325],"type":"Point"},"properties":{"_source":"durham_county_council","address":"13 Trafalger Street, Consett, County Durham, DH8 5AP","contact":"Email: emma.bell@ffgfoundation.com","title":"FFG Foundation","url":"https://www.durhamlocate.org.uk"},"type":"Feature"},
		{"geometry":{"coordinates":[-1.80599,54.86054],"type":"Point"},"properties":{"_source":"durham_county_council","address":"Eden Miner&#39;s Centre, Watling Road, Leadgate, County Durham, DH8 6DP","contact":"Email: edenminerscentre@hotmail.com","title":"Eden Miner&#39;s Centre","url":"https://www.durhamlocate.org.uk"},"type":"Feature"},
		{"geometry":{"coordinates":[-1.81570,54.90558],"type":"Point"},"properties":{"_source":"gateshead_council","address":"Community Centre, 25 River View, Blackhall Mill, NE17 7TQ","description":"Free Wifi, Baby changing facilities, Hot drinks, cordial and biscuits, Car parking, Accessible toilets","title":"Blackhall Mill Community Association"},"type":"Feature"},
		{"geometry":{"coordinates":[-1.81795,54.91838],"type":"Point"},"properties":{"_source":"gateshead_council","address":"Derwent Street, Chopwell, NE17 7HS","description":"Book borrowing, Hot drinks, cordial and biscuits, Accessible toilet, Wifi, Charging facilities , Car parking","title":"Chopwell Community Centre"},"type":"Feature"},
		{"geometry":{"coordinates":[-1.81795,54.91838],"type":"Point"},"properties":{"_source":"gateshead_council","address":"Chopwell Primary School, Derwent Street, Chopwell, NE17 7HS","description":"Free wifi, Hot drinks, cordial and biscuits, Accessible toilets, Free use of computers , Charging facilities , Car parking, Baby changing facilities ","title":"Chopwell Library"},"type":"Feature"},
		{"geometry":{"coordinates":[-1.78912,54.96678],"type":"Point"},"properties":{"_source":"gateshead_council","address":"Main Street , Crawcrook, Ryton , NE40 4NB","description":"Free wifi, Hot drinks, cordial and biscuits, Accessible toilets, Free use of computers , Charging facilities , Car parking, Baby changing facilities ","title":"Crawcrook Library"},"type":"Feature"}
	]
}
