{
	"type": "FeatureCollection",
	"features": [
		{"geometry":{"coordinates":[-1.90961,53.86993],"type":"Point"},"properties":{"_source":"warm_welcome","address":"All Nations Church Centre, North Street, Keighley, West Yorkshire BD21 3AF","description":"","hours":"Th 11:00-14:00","title":"All Nations Church"},"type":"Feature"},
		{"geometry":{"coordinates":[-1.77265,53.80547],"type":"Point"},"properties":{"_source":"warm_welcome","address":"Carlisle Road, Bradford, West Yorkshire BD8 8BB","description":"Open from 10/10/2022.","hours":"Mo 10:00-18:00, Tu 10:00-18:00, We 10:00-18:00, Th 10:00-16:00, Fr 10:00-15:00, Sa 10:00-15:00, Su 12:30-15:00","title":"Bradford Council Manningham Library"},"type":"Feature"},
		{"geometry":{"coordinates":[-1.77696,53.76693],"type":"Point"},"properties":{"_source":"warm_welcome","address":"North Road, Bradford, West Yorkshire BD6 1TR","description":"","hours":"Mo 09:30-19:00, Tu 09:30-17:30, We 09:30-13:00, Th 09:30-19:00, Fr 09:30-17:30, Sa 09:30-16:00","title":"Bradford Libraries"},"type":"Feature"},
		{"geometry":{"coordinates":[-1.90936,53.75358],"type":"Point"},"properties":{"_source":"warm_welcome","address":"Mixenden Library, Mixenden Activity Centre Clough Lane, Mixenden, Halifax HX2 8SH","description":" We also have a selection of board games, which are free to use, and free crafts for kids too. use. ","hours":"Tu 10:00-17:00, Th 10:00-17:00, Fr 10:00-17:00","title":"Calderdale MBC"},"type":"Feature"},
		{"geometry":{"coordinates":[-1.82114,53.78128],"type":"Point"},"properties":{"_source":"warm_welcome","address":"Village hall Reva Syke Rd . Clayton, Bradford, West Yorkshire BD146QN","description":"","hours":"Fr 13:00-15:00","title":"Clayton Village Hall"},"type":"Feature"},
		{"geometry":{"coordinates":[-1.89708,53.80792],"type":"Point"},"properties":{"_source":"warm_welcome","address":"2 Keighley Road, Denholme, Bradford BD13 4JY","description":"Open from 04-11-2022.","hours":"Fr 12:00-15:00, Su 16:00-19:00","title":"Denholme Shared Church"},"type":"Feature"},
		{"geometry":{"coordinates":[-1.89418,53.80250],"type":"Point"},"properties":{"_source":"warm_welcome","address":"DMI Community Centre, Main Road, Denholme, Bradford BD13 4BL","description":"","hours":"We 10:00-12:00","title":"Denholme Shared Church Place of Welcome"},"type":"Feature"},
		{"geometry":{"coordinates":[-1.75932,53.79662],"type":"Point"},"properties":{"_source":"warm_welcome","address":"22 Shaw House, Bradford, West Yorkshire BD1 3SQ","hours":"We 10:00-02:00, Th 10:00-02:00","title":"FoodSavers"},"type":"Feature"},
		{"geometry":{"coordinates":[-1.99753,53.89950],"type":"Point"},"properties":{"_source":"warm_welcome","address":"Glusburn Institute, Colne Road, , Glusburn, North Yorkshire BD20 8FQ","description":"","hours":"Mo 10:00-12:00","title":"Glusburn Community & Arts Centre"},"type":"Feature"},
		{"geometry":{"coordinates":[-1.90963,53.86821],"type":"Point"},"properties":{"_source":"warm_welcome","address":"North Street, Keighley, Bradford BD21 3SX","description":"We are a library so have a vast collection of books for all ages, also jigsaws, chess, boardgames, audiobooks and two small meeting rooms","hours":"Mo 09:00-19:00, Tu 09:00-19:00, We 09:00-19:00, Th 09:00-19:00, Fr 09:00-19:00, Sa 09:00-17:00","title":"Keighley Library"},"type":"Feature"},
		{"geometry":{"coordinates":[-1.77871,53.83276],"type":"Point"},"properties":{"_source":"warm_welcome","address":"Wellcroft, Shipley, West Yorkshire BD18 3QH","description":"","hours":"Mo 09:00-19:00, Tu 09:00-19:00, We 09:00-19:00, Th 09:00-19:00, Fr 09:00-19:00, Sa 09:00-17:00","title":"Shipley Library"},"type":"Feature"},
		{"geometry":{"coordinates":[-1.76472,53.76942],"type":"Point"},"properties":{"_source":"warm_welcome","address":"St Matthew's Church, Carrbottom Road, Bradford, West Yorkshire BD5 9AA","description":"Our community Pop Up Pantry is available for anyone to use - Â£5 for approx 16 items of fresh fruit, veg and cupboard staples. Free shops available if needed. Free tea, coffee, biscuits and company in our community space. ","hours":"Th 12:00-13:30","title":"St Matthew's Church"},"type":"Feature"},
		{"geometry":{"coordinates":[-1.76877,53.85305],"type":"Point"},"properties":{"_source":"warm_welcome","address":"Baildon Methodist Church, Newton Way,, Baildon, Shipley. West Yorkshire. BD17 5NH","description":"All Free soup and a roll available 11.30-13.30 every weekday. Community Pantry starting 1 November on a \"help yourself if you need food for today\" basis.","title":"Wesleys Community Hub at Baildon Methodist Church"},"type":"Feature"},
		{"geometry":{"coordinates":[-1.96183,53.83191],"type":"Point"},"properties":{"_source":"warm_welcome","address":"west Lane , Haworth, West Yorks bd228en","description":"Our current focus is the local elderly residents but all are welcome and there are opportunites to help twice a month (usually 1st and 3rd Monday) we do a lunch from 12:30 (by donation), and once a month (usually 2nd Monday)we put on a film from 2pm","hours":"Mo 12:00-14:30","title":"West Lane Baptist Church"},"type":"Feature"},
		{"geometry":{"coordinates":[-1.91195,53.85989],"type":"Point"},"properties":{"_source":"warm_spaces","address":"Apsley Street, Keighley, England, BD21 1ED","title":"New Hope Apostolic Church","url":"https://www.facebook.com/profile.php?id=100064568086427"},"type":"Feature"},
		{"geometry":{"coordinates":[-1.90947,53.87000],"type":"Point"},"properties":{"_source":"warm_spaces","address":"All Nations Church Centre, North Street, Keighley, England, BD21 3AF","title":"All Nations Church","url":"https://www.myallnations.co.uk"},"type":"Feature"}
	]
}
