{
	"type": "FeatureCollection",
	"features": [
		{"geometry":{"coordinates":[-1.90961,53.86993],"type":"Point"},"properties":{"_source":"warm_welcome","address":"All Nations Church Centre, North Street, Keighley, West Yorkshire BD21 3AF","description":"","hours":"Th 11:00-14:00","title":"All Nations Church"},"type":"Feature"},
		{"geometry":{"coordinates":[-1.77265,53.80547],"type":"Point"},"properties":{"_source":"warm_welcome","address":"Carlisle Road, Bradford, West Yorkshire BD8 8BB","description":"Open from 10/10/2022.","hours":"Mo 10:00-18:00; Tu 10:00-18:00; We 10:00-18:00; Th 10:00-16:00; Fr 10:00-15:00; Sa 10:00-15:00; Su 12:30-15:00","title":"Bradford Council Manningham Library"},"type":"Feature"},
		{"geometry":{"coordinates":[-1.77696,53.76693],"type":"Point"},"properties":{"_source":"warm_welcome","address":"North Road, Bradford, West Yorkshire BD6 1TR","description":"","hours":"Mo 09:30-19:00; Tu 09:30-17:30; We 09:30-13:00; Th 09:30-19:00; Fr 09:30-17:30; Sa 09:30-16:00","title":"Bradford Libraries"},"type":"Feature"},
		{"geometry":{"coordinates":[-1.90936,53.75358],"type":"Point"},"properties":{"_source":"warm_welcome","address":"Mixenden Library, Mixenden Activity Centre Clough Lane, Mixenden, Halifax HX2 8SH","description":" We also have a selection of board games, which are free to use, and free crafts for kids too. use. ","hours":"Tu 10:00-17:00; Th 10:00-17:00; Fr 10:00-17:00","title":"Calderdale MBC"},"type":"Feature"},
		{"geometry":{"coordinates":[-1.82114,53.78128],"type":"Point"},"properties":{"_source":"warm_welcome","address":"Village hall Reva Syke Rd . Clayton, Bradford, West Yorkshire BD146QN","description":"","hours":"Fr 13:00-15:00","title":"Clayton Village Hall"},"type":"Feature"},
		{"geometry":{"coordinates":[-1.89708,53.80792],"type":"Point"},"properties":{"_source":"warm_welcome","address":"2 Keighley Road, Denholme, Bradford BD13 4JY","description":"Open from 04-11-2022.","hours":"Fr 12:00-15:00; Su 16:00-19:00","title":"Denholme Shared Church"},"type":"Feature"},
		{"geometry":{"coordinates":[-1.89418,53.80250],"type":"Point"},"properties":{"_source":"warm_welcome","address":"DMI Community Centre, Main Road, Denholme, Bradford BD13 4BL","description":"","hours":"We 10:00-12:00","title":"Denholme Shared Church Place of Welcome"},"type":"Feature"},
		{"geometry":{"coordinates":[-1.75932,53.79662],"type":"Point"},"properties":{"_source":"warm_welcome","address":"22 Shaw House, Bradford, West Yorkshire BD1 3SQ","hours":"We 10:00-02:00; Th 10:00-02:00","title":"FoodSavers"},"type":"Feature"},
		{"geometry":{"coordinates":[-1.99753,53.89950],"type":"Point"},"properties":{"_source":"warm_welcome","address":"Glusburn Institute, Colne Road, , Glusburn, North Yorkshire BD20 8FQ","description":"","hours":"Mo 10:00-12:00","title":"Glusburn Community & Arts Centre"},"type":"Feature"},
		{"geometry":{"coordinates":[-1.90963,53.86821],"type":"Point"},"properties":{"_source":"warm_welcome","address":"North Street, Keighley, Bradford BD21 3SX","description":"We are a library so have a vast collection of books for all ages, also jigsaws, chess, boardgames, audiobooks and two small meeting rooms","hours":"Mo 09:00-19:00; Tu 09:00-19:00; We 09:00-19:00; Th 09:00-19:00; Fr 09:00-19:00; Sa 09:00-17:00","title":"Keighley Library"},"type":"Feature"},
		{"geometry":{"coordinates":[-1.77871,53.83276],"type":"Point"},"properties":{"_source":"warm_welcome","address":"Wellcroft, Shipley, West Yorkshire BD18 3QH","description":"","hours":"Mo 09:00-19:00; Tu 09:00-19:00; We 09:00-19:00; Th 09:00-19:00; Fr 09:00-19:00; Sa 09:00-17:00","title":"Shipley Library"},"type":"Feature"},
		{"geometry":{"coordinates":[-1.76472,53.76942],"type":"Point"},"properties":{"_source":"warm_welcome","address":"St Matthew's Church, Carrbottom Road, Bradford, West Yorkshire BD5 9AA","description":"Our community Pop Up Pantry is available for anyone to use - £5 for approx 16 items of fresh fruit, veg and cupboard staples. Free shops available if needed. Free tea, coffee, biscuits and company in our community space. ","hours":"Th 12:00-13:30","title":"St Matthew's Church"},"type":"Feature"},
		{"geometry":{"coordinates":[-1.76877,53.85305],"type":"Point"},"properties":{"_source":"warm_welcome","address":"Baildon Methodist Church, Newton Way,, Baildon, Shipley. West Yorkshire. BD17 5NH","description":"All Free soup and a roll available 11.30-13.30 every weekday. Community Pantry starting 1 November on a \"help yourself if you need food for today\" basis.","title":"Wesleys Community Hub at Baildon Methodist Church"},"type":"Feature"},
		{"geometry":{"coordinates":[-1.96183,53.83191],"type":"Point"},"properties":{"_source":"warm_welcome","address":"west Lane , Haworth, West Yorks bd228en","description":"Our current focus is the local elderly residents but all are welcome and there are opportunites to help twice a month (usually 1st and 3rd Monday) we do a lunch from 12:30 (by donation), and once a month (usually 2nd Monday)we put on a film from 2pm","hours":"Mo 12:00-14:30","title":"West Lane Baptist Church"},"type":"Feature"},
		{"geometry":{"coordinates":[-1.91195,53.85989],"type":"Point"},"properties":{"_source":"warm_spaces","address":"Apsley Street, Keighley, England, BD21 1ED","title":"New Hope Apostolic Church","url":"https://www.facebook.com/profile.php?id=100064568086427"},"type":"Feature"},
		{"geometry":{"coordinates":[-1.90947,53.87000],"type":"Point"},"properties":{"_source":"warm_spaces","address":"All Nations Church Centre, North Street, Keighley, England, BD21 3AF","title":"All Nations Church","url":"https://www.myallnations.co.uk"},"type":"Feature"},
		{"geometry":{"coordinates":[-1.84693,53.76951],"type":"Point"},"properties":{"_source":"bradford_council","address":"BD13 2PR","title":"We are Queensbury","url":"https://costoflivingbradford.co.uk/warm-spaces-directory-old/we-are-queensbury/"},"type":"Feature"},
		{"geometry":{"coordinates":[-1.75851,53.77987],"type":"Point"},"properties":{"_source":"bradford_council","address":"BD5 7DL","title":"MAPA Bradford","url":"https://costoflivingbradford.co.uk/warm-spaces-directory-old/mapa-bradford/"},"type":"Feature"},
		{"geometry":{"coordinates":[-1.76424,53.83376],"type":"Point"},"properties":{"_source":"bradford_council","address":"BD18 2NR","title":"Windhill Community Centre","url":"https://costoflivingbradford.co.uk/warm-spaces-directory-old/windhill-community-centre/"},"type":"Feature"},
		{"geometry":{"coordinates":[-1.78809,53.76846],"type":"Point"},"properties":{"_source":"bradford_council","address":"BD6 3ET","title":"Beacon Community Church. &#8216;Food For Thought&#8217; Community Cafe","url":"https://costoflivingbradford.co.uk/warm-spaces-directory-old/beacon-community-church-food-for-thought-community-cafe/"},"type":"Feature"},
		{"geometry":{"coordinates":[-1.82077,53.78173],"type":"Point"},"properties":{"_source":"bradford_council","address":"BD146QN","title":"Clayton Village Hall","url":"https://costoflivingbradford.co.uk/warm-spaces-directory-old/clayton-village-hall/"},"type":"Feature"},
		{"geometry":{"coordinates":[-1.78718,53.80057],"type":"Point"},"properties":{"_source":"bradford_council","address":"BD8 9NN","title":"Girlington Community Centre","url":"https://costoflivingbradford.co.uk/warm-spaces-directory-old/girlington-community-centre/"},"type":"Feature"},
		{"geometry":{"coordinates":[-1.80814,53.81643],"type":"Point"},"properties":{"_source":"bradford_council","address":"BD9 6LL","title":"Heaton Hub","url":"https://costoflivingbradford.co.uk/warm-spaces-directory-old/heaton-hub/"},"type":"Feature"},
		{"geometry":{"coordinates":[-1.84612,53.79086],"type":"Point"},"properties":{"_source":"bradford_council","address":"BD13 3HW","title":"Thornton Community Library","url":"https://costoflivingbradford.co.uk/warm-spaces-directory-old/thornton-community-library/"},"type":"Feature"},
		{"geometry":{"coordinates":[-1.93146,53.86804],"type":"Point"},"properties":{"_source":"bradford_council","address":"BD22 6JB","title":"Keighley Family Hub","url":"https://costoflivingbradford.co.uk/warm-spaces-directory-old/keighley-family-hub/"},"type":"Feature"},
		{"geometry":{"coordinates":[-1.90055,53.87043],"type":"Point"},"properties":{"_source":"bradford_council","address":"BD21 3HU","title":"Sangat Centre","url":"https://costoflivingbradford.co.uk/warm-spaces-directory-old/sangat-centre/"},"type":"Feature"},
		{"geometry":{"coordinates":[-1.83552,53.85055],"type":"Point"},"properties":{"_source":"bradford_council","address":"BD16 4LJ","title":"Bingley Baptist Church","url":"https://costoflivingbradford.co.uk/warm-spaces-directory-old/bingley-baptist-church/"},"type":"Feature"},
		{"geometry":{"coordinates":[-1.80110,53.79880],"type":"Point"},"properties":{"_source":"bradford_council","address":"BD8 0LU","title":"St Saviours Parish Church","url":"https://costoflivingbradford.co.uk/warm-spaces-directory-old/st-saviours-parish-church/"},"type":"Feature"},
		{"geometry":{"coordinates":[-1.77087,53.78944],"type":"Point"},"properties":{"_source":"bradford_council","address":"BD71PX","title":"LADS West Yorkshire","url":"https://costoflivingbradford.co.uk/warm-spaces-directory-old/lads-west-yorkshire/"},"type":"Feature"},
		{"geometry":{"coordinates":[-1.95641,53.80792],"type":"Point"},"properties":{"_source":"bradford_council","address":"BD22 9QJ","title":"St Mary&#8217;s Church, Oxenhope","url":"https://costoflivingbradford.co.uk/warm-spaces-directory-old/st-marys-church-oxenhope/"},"type":"Feature"},
		{"geometry":{"coordinates":[-1.81564,53.77894],"type":"Point"},"properties":{"_source":"bradford_council","address":"BD14 6JW","title":"Mayfield Community Group","url":"https://costoflivingbradford.co.uk/warm-spaces-directory-old/mayfield-community-group/"},"type":"Feature"},
		{"geometry":{"coordinates":[-1.76392,53.80311],"type":"Point"},"properties":{"_source":"bradford_council","address":"BD8 7RZ","title":"Connecting Roma C.I.C","url":"https://costoflivingbradford.co.uk/warm-spaces-directory-old/connecting-roma-c-i-c/"},"type":"Feature"},
		{"geometry":{"coordinates":[-1.76893,53.85308],"type":"Point"},"properties":{"_source":"bradford_council","address":"BD17 5NH","title":"Baildon Methodist Church and Wesleys Community Hub","url":"https://costoflivingbradford.co.uk/warm-spaces-directory-old/baildon-methodist-church-and-wesleys-community-hub/"},"type":"Feature"},
		{"geometry":{"coordinates":[-1.84536,53.76843],"type":"Point"},"properties":{"_source":"bradford_council","address":"BD13 2PA","title":"QUEENSBURY LIBRARY AND COMMUNITY PROGRAMME","url":"https://costoflivingbradford.co.uk/warm-spaces-directory-old/queensbury-library-and-community-programme/"},"type":"Feature"},
		{"geometry":{"coordinates":[-1.78869,53.78612],"type":"Point"},"properties":{"_source":"bradford_council","address":"BD7 2LP","title":"Lidget Green Healthy Living Centre","url":"https://costoflivingbradford.co.uk/warm-spaces-directory-old/lidget-green-healthy-living-centre/"},"type":"Feature"},
		{"geometry":{"coordinates":[-1.88467,53.94475],"type":"Point"},"properties":{"_source":"bradford_council","address":"LS29 0NS","title":"Addingham Parish Council","url":"https://costoflivingbradford.co.uk/warm-spaces-directory-old/addingham-parish-council/"},"type":"Feature"},
		{"geometry":{"coordinates":[-1.78553,53.84106],"type":"Point"},"properties":{"_source":"bradford_council","address":"BD17 5HS","title":"The St Hugh&#8217;s Community Centre","url":"https://costoflivingbradford.co.uk/warm-spaces-directory-old/the-st-hughs-community-centre/"},"type":"Feature"},
		{"geometry":{"coordinates":[-1.77014,53.84811],"type":"Point"},"properties":{"_source":"bradford_council","address":"BD17 6NX","title":"Baildon Community Link","url":"https://costoflivingbradford.co.uk/warm-spaces-directory-old/baildon-community-link/"},"type":"Feature"},
		{"geometry":{"coordinates":[-1.77841,53.82202],"type":"Point"},"properties":{"_source":"bradford_council","address":"BD183AL","title":"Bradford New Church","url":"https://costoflivingbradford.co.uk/warm-spaces-directory-old/bradford-new-church/"},"type":"Feature"},
		{"geometry":{"coordinates":[-1.81657,53.78470],"type":"Point"},"properties":{"_source":"bradford_council","address":"BD14 6DD","title":"Clayton Gospel Hall","url":"https://costoflivingbradford.co.uk/warm-spaces-directory-old/clayton-gospel-hall/"},"type":"Feature"},
		{"geometry":{"coordinates":[-1.90907,53.86971],"type":"Point"},"properties":{"_source":"bradford_council","address":"BD21 3AF","title":"All Nations Church","url":"https://costoflivingbradford.co.uk/warm-spaces-directory-old/all-nations-church/"},"type":"Feature"},
		{"geometry":{"coordinates":[-1.89566,53.82759],"type":"Point"},"properties":{"_source":"bradford_council","address":"Cullingworth Methodist Church, Dellside Fold, Cullingworth, Bradford BD13 5AB","title":"Cullingworth Methodist Church","url":"https://costoflivingbradford.co.uk/warm-spaces-directory-old/cullingworth-methodist-church/"},"type":"Feature"},
		{"geometry":{"coordinates":[-1.94937,53.89712],"type":"Point"},"properties":{"_source":"bradford_council","address":"BD20 6SB","title":"St. Stephen&#8217;s Church (HALL)","url":"https://costoflivingbradford.co.uk/warm-spaces-directory-old/st-stephens-church-hall/"},"type":"Feature"},
		{"geometry":{"coordinates":[-1.81292,53.86028],"type":"Point"},"properties":{"_source":"bradford_council","address":"BD16 3EQ","title":"The Eldwick Church","url":"https://costoflivingbradford.co.uk/warm-spaces-directory-old/the-eldwick-church/"},"type":"Feature"},
		{"geometry":{"coordinates":[-1.91143,53.86738],"type":"Point"},"properties":{"_source":"bradford_council","address":"BD21 2BH","title":"Project 6","url":"https://costoflivingbradford.co.uk/warm-spaces-directory-old/project-6/"},"type":"Feature"},
		{"geometry":{"coordinates":[-1.84970,53.76656],"type":"Point"},"properties":{"_source":"bradford_council","address":"BD13 2AW","title":"Holy Trinity Parish Church, Queensbury","url":"https://costoflivingbradford.co.uk/warm-spaces-directory-old/holy-trinity-parish-church-queensbury/"},"type":"Feature"},
		{"geometry":{"coordinates":[-1.91195,53.85989],"type":"Point"},"properties":{"_source":"bradford_council","address":"BD21 1ED","title":"New Hope Apostolic Church","url":"https://costoflivingbradford.co.uk/warm-spaces-directory-old/new-hope-apostolic-church/"},"type":"Feature"},
		{"geometry":{"coordinates":[-1.78200,53.83389],"type":"Point"},"properties":{"_source":"bradford_council","address":"BD18 3EH","title":"The Kirkgate Centre","url":"https://costoflivingbradford.co.uk/warm-spaces-directory-old/the-kirkgate-centre/"},"type":"Feature"},
		{"geometry":{"coordinates":[-1.93752,53.91377],"type":"Point"},"properties":{"_source":"bradford_council","address":"BD20 0PA","title":"Silsden Methodist Church","url":"https://costoflivingbradford.co.uk/warm-spaces-directory-old/silsden-methodist-church/"},"type":"Feature"},
		{"geometry":{"coordinates":[-1.76085,53.83049],"type":"Point"},"properties":{"_source":"bradford_council","address":"BD18 1JJ","title":"Wrose Chapel","url":"https://costoflivingbradford.co.uk/warm-spaces-directory-old/wrose-chapel/"},"type":"Feature"},
		{"geometry":{"coordinates":[-1.90843,53.87176],"type":"Point"},"properties":{"_source":"bradford_council","address":"BD21 3BA","title":"Keighley Quaker Meeting","url":"https://costoflivingbradford.co.uk/warm-spaces-directory-old/keighley-quaker-meeting/"},"type":"Feature"},
		{"geometry":{"coordinates":[-1.89871,53.82839],"type":"Point"},"properties":{"_source":"bradford_council","address":"BD13 5HT","title":"St John&#8217;s Church, Cullingworth","url":"https://costoflivingbradford.co.uk/warm-spaces-directory-old/st-johns-church-cullingworth/"},"type":"Feature"},
		{"geometry":{"coordinates":[-1.86115,53.82431],"type":"Point"},"properties":{"_source":"bradford_council","address":"BD15 0DZ","title":"St Matthew&#8217;s Church, Wilsden","url":"https://costoflivingbradford.co.uk/warm-spaces-directory-old/st-matthews-church-wilsden/"},"type":"Feature"},
		{"geometry":{"coordinates":[-1.87246,53.84100],"type":"Point"},"properties":{"_source":"bradford_council","address":"BD16 1HP","title":"St Saviour&#8217;s Church, Harden","url":"https://costoflivingbradford.co.uk/warm-spaces-directory-old/st-saviours-church-harden/"},"type":"Feature"},
		{"geometry":{"coordinates":[-1.82035,53.80098],"type":"Point"},"properties":{"_source":"bradford_council","address":"BD15 7PA","title":"Cafe West Healthy Living Centre","url":"https://costoflivingbradford.co.uk/warm-spaces-directory-old/cafe-west-healthy-living-centre/"},"type":"Feature"},
		{"geometry":{"coordinates":[-1.90308,53.87553],"type":"Point"},"properties":{"_source":"bradford_council","address":"bd21 3rf","title":"Keighley Cougars","url":"https://costoflivingbradford.co.uk/warm-spaces-directory-old/keighley-cougars/"},"type":"Feature"},
		{"geometry":{"coordinates":[-1.99286,53.90104],"type":"Point"},"properties":{"_source":"bradford_council","address":"BD20 8TQ","title":"South Craven Community Library","url":"https://costoflivingbradford.co.uk/warm-spaces-directory-old/south-craven-community-library/"},"type":"Feature"},
		{"geometry":{"coordinates":[-1.77347,53.82326],"type":"Point"},"properties":{"_source":"bradford_council","address":"BD18 2DH","title":"St Margaret&#8217;s Church","url":"https://costoflivingbradford.co.uk/warm-spaces-directory-old/st-margarets-church/"},"type":"Feature"},
		{"geometry":{"coordinates":[-1.84165,53.85162],"type":"Point"},"properties":{"_source":"bradford_council","address":"BD16 2RH","title":"All Saints, Bingley Parish Church","url":"https://costoflivingbradford.co.uk/warm-spaces-directory-old/all-saints-bingley-parish-church/"},"type":"Feature"},
		{"geometry":{"coordinates":[-1.78200,53.83389],"type":"Point"},"properties":{"_source":"bradford_council","address":"BD18 3EH","title":"Hive","url":"https://costoflivingbradford.co.uk/warm-spaces-directory-old/hive/"},"type":"Feature"},
		{"geometry":{"coordinates":[-1.82797,53.80134],"type":"Point"},"properties":{"_source":"bradford_council","address":"BD15 7JJ","title":"Saffron Dean Community Association/Weymouth Centre","url":"https://costoflivingbradford.co.uk/warm-spaces-directory-old/saffron-dean-community-association-weymouth-centre/"},"type":"Feature"},
		{"geometry":{"coordinates":[-1.85121,53.79021],"type":"Point"},"properties":{"_source":"bradford_council","address":"BD13 3LD","title":"Thornton and Allerton Community Association","url":"https://costoflivingbradford.co.uk/warm-spaces-directory-old/thornton-and-allerton-community-association/"},"type":"Feature"},
		{"geometry":{"coordinates":[-1.95155,53.89589],"type":"Point"},"properties":{"_source":"bradford_council","address":"BD20 6PD","title":"Steeton Methodist Church","url":"https://costoflivingbradford.co.uk/warm-spaces-directory-old/steeton-methodist-church/"},"type":"Feature"},
		{"geometry":{"coordinates":[-1.77114,53.82678],"type":"Point"},"properties":{"_source":"bradford_council","address":"BD18 2EJ","title":"Crag Road Methodist Church","url":"https://costoflivingbradford.co.uk/warm-spaces-directory-old/crag-road-methodist-church/"},"type":"Feature"},
		{"geometry":{"coordinates":[-1.79770,53.92380],"type":"Point"},"properties":{"_source":"bradford_council","address":"LS29 8PP","title":"Churches Together in Ilkley","url":"https://costoflivingbradford.co.uk/warm-spaces-directory-old/churches-together-in-ilkley-2/"},"type":"Feature"},
		{"geometry":{"coordinates":[-1.79826,53.92492],"type":"Point"},"properties":{"_source":"bradford_council","address":"LS29 8PN","title":"Churches Together in Ilkley","url":"https://costoflivingbradford.co.uk/warm-spaces-directory-old/churches-togethr-in-ilkley/"},"type":"Feature"},
		{"geometry":{"coordinates":[-1.82395,53.92435],"type":"Point"},"properties":{"_source":"bradford_council","address":"LS29 9LW","title":"Churches Together in Ilkley","url":"https://costoflivingbradford.co.uk/warm-spaces-directory-old/churches-together-in-ilkley/"},"type":"Feature"},
		{"geometry":{"coordinates":[-1.77923,53.83327],"type":"Point"},"properties":{"_source":"bradford_council","address":"BD18 3EA","title":"Christian Life Church","url":"https://costoflivingbradford.co.uk/warm-spaces-directory-old/christian-life-church/"},"type":"Feature"},
		{"geometry":{"coordinates":[-1.81775,53.80334],"type":"Point"},"properties":{"_source":"bradford_council","address":"BD15 7QX","title":"St Peters Church Hall","url":"https://costoflivingbradford.co.uk/warm-spaces-directory-old/st-peters-church-hall/"},"type":"Feature"},
		{"geometry":{"coordinates":[-1.78741,53.83606],"type":"Point"},"properties":{"_source":"bradford_council","address":"BD18 3JF","title":"The People Powered Press","url":"https://costoflivingbradford.co.uk/warm-spaces-directory-old/the-people-powered-press/"},"type":"Feature"},
		{"geometry":{"coordinates":[-1.79625,53.76825],"type":"Point"},"properties":{"_source":"bradford_council","address":"BD6 3ST","title":"Bradford South Family Hub","url":"https://costoflivingbradford.co.uk/warm-spaces-directory-old/bradford-south-family-hub/"},"type":"Feature"},
		{"geometry":{"coordinates":[-1.83438,53.84700],"type":"Point"},"properties":{"_source":"bradford_council","address":"BD16 2TA","title":"Community Action Bradford &#038; District","url":"https://costoflivingbradford.co.uk/warm-spaces-directory-old/community-action-bradford-district-2/"},"type":"Feature"},
		{"geometry":{"coordinates":[-1.90881,53.86942],"type":"Point"},"properties":{"_source":"bradford_council","address":"BD21 3JD","title":"Community Action Bradford &amp; District","url":"https://costoflivingbradford.co.uk/warm-spaces-directory-old/community-action-bradford-district/"},"type":"Feature"},
		{"geometry":{"coordinates":[-1.79936,53.76448],"type":"Point"},"properties":{"_source":"bradford_council","address":"BD6 3PZ","title":"Buttershaw Baptist Church","url":"https://costoflivingbradford.co.uk/warm-spaces-directory-old/buttershaw-baptist-church/"},"type":"Feature"},
		{"geometry":{"coordinates":[-1.76463,53.76957],"type":"Point"},"properties":{"_source":"bradford_council","address":"BD5 9AA","title":"St Matthew&#8217;s Church &#8211; Pop Up Pantry","url":"https://costoflivingbradford.co.uk/warm-spaces-directory-old/st-matthews-church-pop-up-pantry/"},"type":"Feature"},
		{"geometry":{"coordinates":[-1.75786,53.77771],"type":"Point"},"properties":{"_source":"bradford_council","address":"BD5 7BX","title":"Shine (West Bowling) and St Stephen&#8217;s Church","url":"https://costoflivingbradford.co.uk/warm-spaces-directory-old/shine-west-bowling-and-st-stephens-church/"},"type":"Feature"},
		{"geometry":{"coordinates":[-1.76649,53.85394],"type":"Point"},"properties":{"_source":"bradford_council","address":"BD17 6JX","title":"Baildon Library","url":"https://costoflivingbradford.co.uk/warm-spaces-directory-old/baildon-library/"},"type":"Feature"},
		{"geometry":{"coordinates":[-1.94079,53.91206],"type":"Point"},"properties":{"_source":"bradford_council","address":"BD20 0DE","title":"The Hive Community Centre","url":"https://costoflivingbradford.co.uk/warm-spaces-directory-old/the-hive-silsden-cio/"},"type":"Feature"},
		{"geometry":{"coordinates":[-1.87038,53.84087],"type":"Point"},"properties":{"_source":"bradford_council","address":"BD16 1JP","title":"HARDEN CONGREGATIONAL CHURCH","url":"https://costoflivingbradford.co.uk/warm-spaces-directory-old/harden-congregational-church/"},"type":"Feature"},
		{"geometry":{"coordinates":[-1.79870,53.78481],"type":"Point"},"properties":{"_source":"bradford_council","address":"BD7 2RJ","title":"Scholemoor Beacon","url":"https://costoflivingbradford.co.uk/warm-spaces-directory-old/scholemoor-beacon/"},"type":"Feature"},
		{"geometry":{"coordinates":[-1.82243,53.78342],"type":"Point"},"properties":{"_source":"bradford_council","address":"BD14 6RL","title":"St. John&#8217;s Church, Clayton","url":"https://costoflivingbradford.co.uk/warm-spaces-directory-old/st-johns-church-clayton/"},"type":"Feature"},
		{"geometry":{"coordinates":[-1.77932,53.80820],"type":"Point"},"properties":{"_source":"bradford_council","address":"BD9 5BD","title":"Equality Together","url":"https://costoflivingbradford.co.uk/warm-spaces-directory-old/equality-together/"},"type":"Feature"},
		{"geometry":{"coordinates":[-1.77060,53.77583],"type":"Point"},"properties":{"_source":"bradford_council","address":"BD5 9DH","title":"The West end Centre","url":"https://costoflivingbradford.co.uk/warm-spaces-directory-old/the-west-end-centre/"},"type":"Feature"},
		{"geometry":{"coordinates":[-1.90268,53.87205],"type":"Point"},"properties":{"_source":"bradford_council","address":"BD21 3ES","title":"Latifiah Academy","url":"https://costoflivingbradford.co.uk/warm-spaces-directory-old/latifiah-academy/"},"type":"Feature"},
		{"geometry":{"coordinates":[-1.76191,53.80105],"type":"Point"},"properties":{"_source":"bradford_council","address":"BD1 3BW","title":"Yam Spice foods ltd","url":"https://costoflivingbradford.co.uk/warm-spaces-directory-old/yam-spice-foods-ltd/"},"type":"Feature"},
		{"geometry":{"coordinates":[-1.91040,53.86835],"type":"Point"},"properties":{"_source":"bradford_council","address":"BD21 2JH","title":"Keighley Healthy Living","url":"https://costoflivingbradford.co.uk/warm-spaces-directory-old/keighley-healthy-living/"},"type":"Feature"},
		{"geometry":{"coordinates":[-1.91042,53.86486],"type":"Point"},"properties":{"_source":"bradford_council","address":"bd21 5ht","title":"Keighley Parish","url":"https://costoflivingbradford.co.uk/warm-spaces-directory-old/keighley-parish/"},"type":"Feature"},
		{"geometry":{"coordinates":[-1.78558,53.77812],"type":"Point"},"properties":{"_source":"bradford_council","address":"BD7 3PE","title":"Red Letter Project","url":"https://costoflivingbradford.co.uk/warm-spaces-directory-old/red-letter-project-2/"},"type":"Feature"},
		{"geometry":{"coordinates":[-1.80315,53.83026],"type":"Point"},"properties":{"_source":"bradford_council","address":"BD18 4ER","title":"St Peterâs Church","url":"https://costoflivingbradford.co.uk/warm-spaces-directory-old/st-peters-church/"},"type":"Feature"},
		{"geometry":{"coordinates":[-1.82107,53.92415],"type":"Point"},"properties":{"_source":"bradford_council","address":"LS29 8HB","title":"King&#8217;s Hall and Winter Garden","url":"https://costoflivingbradford.co.uk/warm-spaces-directory-old/kings-hall-and-winter-garden/"},"type":"Feature"},
		{"geometry":{"coordinates":[-1.91465,53.85647],"type":"Point"},"properties":{"_source":"bradford_council","address":"BD21 1BB","title":"St John&#8217;s Church, Ingrow","url":"https://costoflivingbradford.co.uk/warm-spaces-directory-old/st-johns-church-ingrow/"},"type":"Feature"},
		{"geometry":{"coordinates":[-1.93784,53.91254],"type":"Point"},"properties":{"_source":"bradford_council","address":"BD20 0AJ","title":"Silsden Town Hall/ Library","url":"https://costoflivingbradford.co.uk/warm-spaces-directory-old/silsden-community-library/"},"type":"Feature"},
		{"geometry":{"coordinates":[-1.90994,53.86723],"type":"Point"},"properties":{"_source":"bradford_council","address":"BD21 3RZ","title":"Keighley Town Council","url":"https://costoflivingbradford.co.uk/warm-spaces-directory-old/keighley-town-council/"},"type":"Feature"},
		{"geometry":{"coordinates":[-1.95377,53.89608],"type":"Point"},"properties":{"_source":"bradford_council","address":"BD20 6FE","title":"Steeton with Eastburn Parish Council in association with the Knit and Natter group","url":"https://costoflivingbradford.co.uk/warm-spaces-directory-old/knit-and-natter/"},"type":"Feature"},
		{"geometry":{"coordinates":[-1.89421,53.80246],"type":"Point"},"properties":{"_source":"bradford_council","address":"BD13 4BL","title":"Denholme Community Centre (Mechanics Institute)","url":"https://costoflivingbradford.co.uk/warm-spaces-directory-old/denholme-community-centre-mechanics-institute/"},"type":"Feature"},
		{"geometry":{"coordinates":[-1.82107,53.92415],"type":"Point"},"properties":{"_source":"bradford_council","address":"LS29 8HB","title":"Thursday Club","url":"https://costoflivingbradford.co.uk/warm-spaces-directory-old/thursday-club/"},"type":"Feature"},
		{"geometry":{"coordinates":[-1.78629,53.78087],"type":"Point"},"properties":{"_source":"bradford_council","address":"BD7 4AB","title":"Red Letter Project","url":"https://costoflivingbradford.co.uk/warm-spaces-directory-old/red-letter-project/"},"type":"Feature"},
		{"geometry":{"coordinates":[-1.89748,53.80803],"type":"Point"},"properties":{"_source":"bradford_council","address":"BD13 4JY","title":"Denholme Shared Church","url":"https://costoflivingbradford.co.uk/warm-spaces-directory-old/denholme-shared-church/"},"type":"Feature"},
		{"geometry":{"coordinates":[-1.82194,53.92435],"type":"Point"},"properties":{"_source":"bradford_council","address":"LS29 8HA","title":"Ilkley Library","url":"https://costoflivingbradford.co.uk/warm-spaces-directory-old/ilkley-library/"},"type":"Feature"},
		{"geometry":{"coordinates":[-1.77186,53.80571],"type":"Point"},"properties":{"_source":"bradford_council","address":"BD8 8BB","title":"Manningham Library","url":"https://costoflivingbradford.co.uk/warm-spaces-directory-old/manningham-library/"},"type":"Feature"},
		{"geometry":{"coordinates":[-1.77874,53.83284],"type":"Point"},"properties":{"_source":"bradford_council","address":"BD18 3QH","title":"Shipley Library","url":"https://costoflivingbradford.co.uk/warm-spaces-directory-old/shipley-library/"},"type":"Feature"},
		{"geometry":{"coordinates":[-1.83065,53.84239],"type":"Point"},"properties":{"_source":"bradford_council","address":"BD16 1AW","title":"Bingley Library","url":"https://costoflivingbradford.co.uk/warm-spaces-directory-old/bingley-library/"},"type":"Feature"},
		{"geometry":{"coordinates":[-1.77714,53.76618],"type":"Point"},"properties":{"_source":"bradford_council","address":"BD6 1TR","title":"Wibsey Library","url":"https://costoflivingbradford.co.uk/warm-spaces-directory-old/wibsey-library/"},"type":"Feature"},
		{"geometry":{"coordinates":[-1.90996,53.86820],"type":"Point"},"properties":{"_source":"bradford_council","address":"BD21 3SX","title":"Keighley Library","url":"https://costoflivingbradford.co.uk/warm-spaces-directory-old/keighley-library/"},"type":"Feature"}
	]
}
