{
	"type": "FeatureCollection",
	"features": [
		{"geometry":{"coordinates":[-1.78422,53.65811],"type":"Point"},"properties":{"_source":"warm_welcome","address":"Lee Street, Hillhouse, Huddersfield, West Yorkshire HD1 6HF","description":" All our libraries are heated, comfortable to stay in for long periods of time - they have a range of both comfy seating, and more functional furniture for study or computer use. A place to keep warm, meet friends, sit and read and take part in activities.","hours":"Tu 10:00-13:00; We 13:00-17:00; Fr 14:00-18:00; Sa 11:00-15:00","title":"Birkby Fartown Library"},"type":"Feature"},
		{"geometry":{"coordinates":[-1.91283,53.70882],"type":"Point"},"properties":{"_source":"warm_welcome","address":"Sowerby Bridge Library, Hollins Mill Lane , Sowerby Bridge HX6 2QG","description":" Calderdale Libraries will be closed for the Christmas period from 1pm on Sat24th Dec and reopen on Tues 3rd Jan. s","hours":"Mo 10:00-17:00; Tu 10:00-18:00; Th 10:00-17:00; Fr 10:00-17:00; Sa 10:00-16:00","title":"Calderdale MBC"},"type":"Feature"},
		{"geometry":{"coordinates":[-1.82993,53.74010],"type":"Point"},"properties":{"_source":"warm_welcome","address":"Northowram Library, Lydgate Northowram , Halifax HX3 7EJ","description":" Please note the library closes between 13:00 and 14:00 on Monday, Tuesday and Thursday. We are closed from 1pm on Christmas Eve, we will reopen at 10am on Tuesday 4th January","hours":"Mo 10:00-17:00; Tu 10:00-17:00; Th 10:00-17:00; Fr 14:00-17:00; Sa 10:00-13:00","title":"Calderdale MBC"},"type":"Feature"},
		{"geometry":{"coordinates":[-2.01201,53.74112],"type":"Point"},"properties":{"_source":"warm_welcome","address":"Hebden Bridge Library, Hebden Bridge, West Yorkshire HX7 8EP","description":" Closed for Christmas from 1pm 24th Dec & reopen Wed 4th Jan at 10am. We have free tea & coffee, board games, jigsaw puzzles, book clubs, storytots and Bounce & Rhymee","hours":"Mo 10:00-18:30; We 10:00-17:00; Th 10:00-18:30; Fr 10:00-17:00; Sa 10:00-16:00","title":"Calderdale MBC"},"type":"Feature"},
		{"geometry":{"coordinates":[-2.09783,53.71367],"type":"Point"},"properties":{"_source":"warm_welcome","address":"Todmorden Library, Todmorden, West Yorkshire OL14 7UD","description":" Hot drinks available daily with games & activities for all & family films every Saturday. Different groups & events through the week, for more information call in or see Calderdale Libraries on Facebook. We will be closed from 1pm on 24th Dec to 3rd Jan. ","hours":"Mo 10:00-18:30; Tu 10:00-17:00; We 10:00-17:00; Fr 10:00-18:30; Sa 10:00-16:00","title":"Calderdale MBC"},"type":"Feature"},
		{"geometry":{"coordinates":[-1.83783,53.68489],"type":"Point"},"properties":{"_source":"warm_welcome","address":"Elland Library, Coronation Street, Elland HX5 0DF","description":" Please note Elland Library will close at 1pm on Saturday 24th December and reopen on Tuesday 3rd January 2023","hours":"Mo 10:00-17:00; Tu 10:00-17:00; We 10:00-13:00; Th 10:00-18:00; Fr 10:00-17:00; Sa 10:00-16:00","title":"Calderdale MBC"},"type":"Feature"},
		{"geometry":{"coordinates":[-1.79361,53.68939],"type":"Point"},"properties":{"_source":"warm_welcome","address":"Rastrick Library, Crowtrees Lane Rastrick , Brighouse HD6 3NE","description":" We will be closed for Christmas from 1pm Christmas Eve until 10am Tuesday 3rd January. We are closed for lunch 1 - 2pm every day.","hours":"Mo 10:00-17:00; Tu 10:00-17:00; We 10:00-13:00; Th 10:00-17:00; Fr 10:00-17:00; Sa 10:00-13:00","title":"Calderdale MBC"},"type":"Feature"},
		{"geometry":{"coordinates":[-1.88415,53.74703],"type":"Point"},"properties":{"_source":"warm_welcome","address":"Beechwood Road Library, Beechwood Road, Illingworth., Halifax HX2 9BU","description":"Everyone is welcome. We have a local history display of North Halifax. We have a display of local events. We offer free children's crafts and a very warm welcome.","hours":"Mo 10:00-17:00; Th 10:00-17:00; Fr 10:00-17:00; Sa 10:00-13:00","title":"Calderdale MBC"},"type":"Feature"},
		{"geometry":{"coordinates":[-1.85542,53.72221],"type":"Point"},"properties":{"_source":"warm_welcome","address":"Halifax Central Library and Archives, Halifax HX1 1QG","description":"Board Games available","hours":"Mo 10:00-18:30; Tu 10:00-17:30; We 10:00-17:30; Th 10:00-18:30; Fr 10:00-17:30; Sa 10:00-16:00","title":"Calderdale MBC"},"type":"Feature"},
		{"geometry":{"coordinates":[-1.88045,53.71487],"type":"Point"},"properties":{"_source":"warm_welcome","address":"King Cross Library Library, 151 Haugh Shaw Road , Halifax HX1 3BG","hours":"Mo 10:00-17:00; Tu 10:00-18:30; Th 10:00-18:30; Fr 10:00-17:00; Sa 10:00-16:00","title":"Calderdale MBC"},"type":"Feature"},
		{"geometry":{"coordinates":[-1.78692,53.70371],"type":"Point"},"properties":{"_source":"warm_welcome","address":"Brighouse Library, Halifax Road, Brighouse HD6 2AF","description":" We are closed from 1pm on Christmas Eve until 10am 4th January 2023","hours":"Mo 10:00-18:30; Tu 10:00-17:00; Th 10:00-17:00; Fr 10:00-18:30; Sa 10:00-16:00","title":"Calderdale MBC"},"type":"Feature"},
		{"geometry":{"coordinates":[-1.85521,53.72189],"type":"Point"},"properties":{"_source":"warm_welcome","address":"Square Road , Halifax, West Yorkshire HX1 1QG","description":"","hours":"Mo 10:00-18:30; Tu 10:00-17:30; We 10:00-17:30; Th 10:00-18:30; Fr 10:00-17:30; Sa 10:00-16:00","title":"Central Library and Archives"},"type":"Feature"},
		{"geometry":{"coordinates":[-1.76876,53.66840],"type":"Point"},"properties":{"_source":"warm_welcome","address":"2a Chestnut Street, Sheepbridge, Huddersfield, West Yorkshire HD2 1HJ","description":" All our libraries are heated, comfortable to stay in for long periods of time - they have a range of both comfy seating, and more functional furniture for study or computer use. A place to keep warm, meet friends, sit and read and take part in activities.","hours":"Mo 09:00-17:00; Tu 09:00-17:00; We 09:00-17:00; Th 09:00-17:00; Fr 09:00-17:00","title":"Chestnut Centre"},"type":"Feature"},
		{"geometry":{"coordinates":[-2.09463,53.57633],"type":"Point"},"properties":{"_source":"warm_welcome","address":"Farrow Street East, Shaw, Oldham OL2 8QY","description":"Open from 03/10/2022.","hours":"Mo 09:00-19:00; Tu 09:00-19:00; We 09:00-19:00; Th 09:00-19:00; Fr 09:00-17:00; Sa 09:30-13:00","title":"Crompton Library"},"type":"Feature"},
		{"geometry":{"coordinates":[-1.85614,53.63925],"type":"Point"},"properties":{"_source":"warm_welcome","address":"Town End, Golcar, Huddersfield, West Yorkshire HD7 4QD","description":" All our libraries are heated, comfortable to stay in for long periods of time - they have a range of both comfy seating, and more functional furniture for study or computer use. A place to keep warm, meet friends, sit and read and take part in activities.","hours":"Mo 13:00-18:00; Tu 10:00-13:00; Th 13:00-17:00; Sa 10:00-13:00","title":"Golcar Library"},"type":"Feature"},
		{"geometry":{"coordinates":[-1.78503,53.57359],"type":"Point"},"properties":{"_source":"warm_welcome","address":"Huddersfield Road, Holmfirth, West Yorkshire HD9 3JH","description":" All our libraries are heated, comfortable to stay in for long periods of time - they have a range of both comfy seating, and more functional furniture for study or computer use. A place to keep warm, meet friends, sit and read and take part in activities.","hours":"Mo 09:30-19:00; Tu 09:30-13:30; We 01:00-17:30; Th 09:30-17:30; Fr 09:30-17:30; Sa 10:00-16:00","title":"Holmfirth Library"},"type":"Feature"},
		{"geometry":{"coordinates":[-1.79671,53.60205],"type":"Point"},"properties":{"_source":"warm_welcome","address":"West Avenue, Honley, Holmfirth, West Yorkshire HD9 6HF","description":" All our libraries are heated, comfortable to stay in for long periods of time - they have a range of both comfy seating, and more functional furniture for study or computer use. A place to keep warm, meet friends, sit and read and take part in activities.","hours":"Tu 13:00-18:00; We 10:00-13:00; Fr 13:00-17:00; Sa 10:00-13:00","title":"Honley Library "},"type":"Feature"},
		{"geometry":{"coordinates":[-2.01161,53.74057],"type":"Point"},"properties":{"_source":"warm_welcome","address":"New Road, Hebden Bridge, West Yorkshire HX7 8AD","description":"","hours":"Mo 13:30-15:00; We 17:00-19:00; Th 10:00-13:00","title":"Hope Baptist Church"},"type":"Feature"},
		{"geometry":{"coordinates":[-1.78164,53.64422],"type":"Point"},"properties":{"_source":"warm_welcome","address":"Princess Alexandra Walk,, Huddersfield, West Yorkshire HD1 2SU","description":" All our libraries are heated, comfortable to stay in for long periods of time - they have a range of both comfy seating, and more functional furniture for study or computer use. A place to keep warm, meet friends, sit and read and take part in activities.","hours":"Mo 09:30-19:00; Tu 09:00-17:00; We 09:00-17:00; Th 09:00-19:00; Fr 09:00-17:00; Sa 09:30-16:00","title":"Huddersfield Library"},"type":"Feature"},
		{"geometry":{"coordinates":[-1.82348,53.66051],"type":"Point"},"properties":{"_source":"warm_welcome","address":"Lidget Street, Lindley, Huddersfield , West Yorkshire HD3 3JP","description":" All our libraries are heated, comfortable to stay in for long periods of time - they have a range of both comfy seating, and more functional furniture for study or computer use. A place to keep warm, meet friends, sit and read and take part in activities.","hours":"Mo 10:00-13:00; Tu 10:00-13:00; Th 10:00-13:00; Fr 10:00-13:00; Sa 10:00-14:00","title":"Lindley Library"},"type":"Feature"},
		{"geometry":{"coordinates":[-1.82321,53.66275],"type":"Point"},"properties":{"_source":"warm_welcome","address":"Lindley Methodist Church, East Street, Lindley, Huddersfield, West Yorkshire HD3 3ND","description":"Open from 03/11/2022.","hours":"Th 10:00-17:00","title":"Lindley Methodist Church"},"type":"Feature"},
		{"geometry":{"coordinates":[-1.92635,53.60038],"type":"Point"},"properties":{"_source":"warm_welcome","address":"Mechanics Hall, Peel Street, Marsden, Huddersfield , West Yorkshire HD7 6BW","description":" All our libraries are heated, comfortable to stay in for long periods of time - they have a range of both comfy seating, and more functional furniture for study or computer use. A place to keep warm, meet friends, sit and read and take part in activities.","hours":"Tu 10:00-13:00; We 13:00-18:00; Th 10:00-13:00; Fr 13:00-17:00; Sa 10:00-15:00","title":"Marsden Library"},"type":"Feature"},
		{"geometry":{"coordinates":[-1.84825,53.59251],"type":"Point"},"properties":{"_source":"warm_welcome","address":"Carlisle Institute, 54 Huddersfield Road, Meltham, Holmfirth, West Yorkshire HD9 4AG","description":" All our libraries are heated, comfortable to stay in for long periods of time - they have a range of both comfy seating, and more functional furniture for study or computer use. A place to keep warm, meet friends, sit and read and take part in activities.","hours":"Mo 10:00-14:00; Tu 13:00-17:00; Th 13:30-17:30; Fr 10:00-14:00; Sa 10:00-14:00","title":"Meltham Library "},"type":"Feature"},
		{"geometry":{"coordinates":[-1.82408,53.65513],"type":"Point"},"properties":{"_source":"warm_welcome","address":"Oakes Road, Huddersfield, West Yorkshire HD3 3EW","description":"Thursday - open to all for Coffee and Chat Wednesday - open as a Renew Wellbeing quiet space with option of table activities","hours":"We 10:00-12:00; Th 10:00-12:00","title":"Oakes Baptist Church, Huddersfield"},"type":"Feature"},
		{"geometry":{"coordinates":[-1.78311,53.64699],"type":"Point"},"properties":{"_source":"warm_welcome","address":"Proper Job Theatre Company, Huddersfield, West Yorkshire HD1 1ND","description":"Anyone over 19 yrs We offer free courses for adults ","hours":"Mo 10:00-15:00; Tu 10:00-15:00; We 10:00-15:00; Th 10:00-15:00; Fr 10:00-15:00","title":"Proper Job"},"type":"Feature"},
		{"geometry":{"coordinates":[-2.08989,53.71469],"type":"Point"},"properties":{"_source":"warm_welcome","address":"Halifax Road, Todmorden, West Yorkshire OL14 5BE","description":"","hours":"Mo 14:00-17:00","title":"Roomfield Baptist Church"},"type":"Feature"},
		{"geometry":{"coordinates":[-1.87785,53.62460],"type":"Point"},"properties":{"_source":"warm_welcome","address":"Slaithwaite Town Hall, Cross Street, Slaithwaite, Huddersfield, West Yorkshire HD7 5AF","description":" All our libraries are heated, comfortable to stay in for long periods of time - they have a range of both comfy seating, and more functional furniture for study or computer use. A place to keep warm, meet friends, sit and read and take part in activities.","hours":"Mo 10:00-13:00; We 10:00-13:00; Th 10:00-12:00; Fr 10:00-13:00","title":"Slaithwaite Library"},"type":"Feature"},
		{"geometry":{"coordinates":[-1.85646,53.70734],"type":"Point"},"properties":{"_source":"warm_welcome","address":"Stafford Square, Halifax, West Yorkshire HX3 0AT","description":"Open from 15/11/2022. All welcome A friendly welcome awaits in the Moore Hall time for a chat over a cuppa, maybe a jigsaw, puzzles or sit quietly. It's up to you","hours":"Tu 13:00-17:00","title":"St Andrews Methodist Church"},"type":"Feature"},
		{"geometry":{"coordinates":[-1.80211,53.64206],"type":"Point"},"properties":{"_source":"warm_welcome","address":"Jubilee Centre, Market Street, Huddersfield, West Yorkshire HD1 4SH","description":"","hours":"Mo 10:30-12:00","title":"The Branch"},"type":"Feature"},
		{"geometry":{"coordinates":[-2.09746,53.71604],"type":"Point"},"properties":{"_source":"warm_welcome","address":"St Mary’s Church, Burnley Rd, Todmorden OL14 7BD","description":"Open from 8th November 2022. Over 60’s Soup and Social, come along and enjoy a warm space, homemade soup and roll, plus homemade cake.","hours":"Tu 12:00-14:00","title":"Todmorden United Benefice and St Joseph’s RC Church"},"type":"Feature"},
		{"geometry":{"coordinates":[-1.76960,53.74266],"type":"Point"},"properties":{"_source":"warm_welcome","address":"Appleton Academy School Grounds, Woodside Road, Bradford BD12 8AL","description":"","hours":"Mo 09:30-19:00; Tu 09:30-17:30; We 09:30-13:00; Th 09:30-19:00; Fr 09:30-17:30; Sa 09:30-16:00","title":"Wyke Library"},"type":"Feature"},
		{"geometry":{"coordinates":[-2.01826,53.74109],"type":"Point"},"properties":{"_source":"warm_spaces","address":"Hebden Royd Methodist Church, Market St, Hebden Bridge, England, HX7 6AA","title":"Cozy Cafe","url":"https://www.calderdalemethodistcircuit.org.uk/churches/hebden-royd.html"},"type":"Feature"},
		{"geometry":{"coordinates":[-1.83769,53.68443],"type":"Point"},"properties":{"_source":"warm_spaces","address":"Coronation Street, Elland, England, HX5 0DF","title":"Elland Library"},"type":"Feature"},
		{"geometry":{"coordinates":[-1.76840,53.73943],"type":"Point"},"properties":{"_source":"warm_spaces","address":"51 Town Gate, Bradford, England, BD12 9JD","title":"Frill and Flounce","url":"https://frillandflounce.co.uk/warm-space"},"type":"Feature"},
		{"geometry":{"coordinates":[-2.09833,53.71369],"type":"Point"},"properties":{"_source":"warm_spaces","address":"Burnley Road, Todmorden, England, OL14 7BD","title":"Over 60’s Soup and Social","url":"https://www.achurchnearyou.com/church/18018/"},"type":"Feature"},
		{"geometry":{"coordinates":[-1.82275,53.66278],"type":"Point"},"properties":{"_source":"warm_spaces","address":"45 East Street, Huddersfield, England, HD3 3ND","title":"Lindley Methodist Church","url":"https://www.lindleymethodist.org"},"type":"Feature"},
		{"geometry":{"coordinates":[-1.76863,53.73604],"type":"Point"},"properties":{"_source":"bradford_council","address":"BD12 9JP","title":"Wyke Christian Community Church","url":"https://costoflivingbradford.co.uk/warm-spaces-directory-old/wyke-christian-community-church/"},"type":"Feature"},
		{"geometry":{"coordinates":[-1.77139,53.74251],"type":"Point"},"properties":{"_source":"bradford_council","address":"BD12 8AL","title":"Wyke Library","url":"https://costoflivingbradford.co.uk/warm-spaces-directory-old/wyke-library/"},"type":"Feature"}
	]
}
