{
	"type": "FeatureCollection",
	"features": [
		{"geometry":{"coordinates":[-2.03156,53.35942],"type":"Point"},"properties":{"_source":"warm_welcome","address":"119 Buxton Road, Disley, Stockport SK12 2HH","description":"Open from 1 November 2022.","hours":"Tu 12:00-16:00, Su 10:30-12:30","title":"Disley Baptist Church"},"type":"Feature"},
		{"geometry":{"coordinates":[-2.03752,53.35772],"type":"Point"},"properties":{"_source":"warm_welcome","address":"Disley Library, Off Buxton Old Road, Disley SK12 2BB","description":"","hours":"Tu 09:00-13:00, We 09:00-13:00, Th 14:00-18:00, Fr 14:00-18:00, Sa 09:00-13:00","title":"Disley Library"},"type":"Feature"},
		{"geometry":{"coordinates":[-1.94789,53.44501],"type":"Point"},"properties":{"_source":"warm_welcome","address":"Ellison Street, Glossop, Glossop SK13 8BX","description":"Open from 1st November. Everyone is welcome! We run a coffee morning from 10:30-12:00. Followed by a soup lunch. We then are open all afternoon and serve a light bite in the evening such as hot dogs. We have places you can work from, facilities for children and families.","hours":"Tu 10:30-17:30","title":"Elim Christian Centre Glossop"},"type":"Feature"},
		{"geometry":{"coordinates":[-2.10065,53.52014],"type":"Point"},"properties":{"_source":"warm_welcome","address":"Fitton Hill Neighbourhood Centre, Fitton Hill, Oldham Ol8 2QD","description":"","hours":"Tu 14:00-17:00, We 14:00-19:00, Th 14:00-19:00, Fr 09:30-13:00, Sa 09:30-13:00","title":"Fitton Hill Library"},"type":"Feature"},
		{"geometry":{"coordinates":[-1.94873,53.44388],"type":"Point"},"properties":{"_source":"warm_welcome","address":"22 Henry Street, Glossop, Derbyshire SK13 8BW","description":"Open from 21/10/22. The Bureau can provide a warm space for people and there will be tea/coffee available. We can also provide warm packs for people to take away with them","hours":"Fr 14:00-16:30","title":"Glossop and District Volunteer Bureau"},"type":"Feature"},
		{"geometry":{"coordinates":[-1.96742,53.46250],"type":"Point"},"properties":{"_source":"warm_welcome","address":"99 Station Road, Hadfield , Glossop SK13 1AR","description":"Open from November 7th. We also have a free toddler group on Fridays, term times only 10:00 - 11:30","hours":"Mo 12:00-15:00, Th 10:15-15:00","title":"Hadfield Methodist Church"},"type":"Feature"},
		{"geometry":{"coordinates":[-2.09939,53.44495],"type":"Point"},"properties":{"_source":"warm_welcome","address":"Two Trees Lane, Haugthon Green, Denton M34 7AJ","description":"Open from 05-12-2022.","hours":"Mo 12:30-03:30, We 10:00-12:00","title":"Haughton Green Methodist Centre"},"type":"Feature"},
		{"geometry":{"coordinates":[-2.05571,53.48277],"type":"Point"},"properties":{"_source":"warm_welcome","address":"Corporation street, Stalybridge, Cheshire Sk152js","description":"","hours":"Tu 12:00-14:00, We 10:00-13:00, Su 09:00-12:00","title":"Holy Trinity Stalybridge"},"type":"Feature"},
		{"geometry":{"coordinates":[-2.01285,53.45901],"type":"Point"},"properties":{"_source":"warm_welcome","address":"Hope Christian Centre, Stalybridge Road, Mottram , Tameside SK14 6 NF","description":"We will try and cater for all needs where we can. Please let know if you have special requirements and we will try and accommodate you. We offer biscuits, toast and cuppa soups with the refreshments.","hours":"Th 09:30-11:30","title":"Hope Christian Centre Mottram"},"type":"Feature"},
		{"geometry":{"coordinates":[-2.07667,53.48609],"type":"Point"},"properties":{"_source":"warm_welcome","address":"St James Street, Tameside, Greater Manchester OL6 6SF","description":" Access to group activities on Wednesdays, hot breakfast served until 11.30am. Thursdays 2 course hot meal served.il","hours":"We 10:00-13:00, Th 16:00-18:00","title":"New Life Church Tameside"},"type":"Feature"},
		{"geometry":{"coordinates":[-2.09003,53.53612],"type":"Point"},"properties":{"_source":"warm_welcome","address":"203 Roundthorn Road, Oldham, Greater Manchester OL4 5LD","description":"","hours":"Tu 10:00-14:00, We 15:00-19:00, Fr 10:00-13:00","title":"Oldham Roundthorn Salvation Army"},"type":"Feature"},
		{"geometry":{"coordinates":[-1.99932,53.38072],"type":"Point"},"properties":{"_source":"warm_welcome","address":"Mellor Road, New Mills, High Peak SK22 4DP","description":"","hours":"We 12:00-16:00","title":"Providence URC"},"type":"Feature"},
		{"geometry":{"coordinates":[-2.07074,53.48945],"type":"Point"},"properties":{"_source":"warm_welcome","address":"Beaufort Road, Ashton Under Lyne, Manchester OL6 6RW","description":"We are an existing place of welcome. We have a seated exercise session, hand massage, bingo and other games","hours":"Mo 09:30-12:00","title":"St Gabriels Ashton"},"type":"Feature"},
		{"geometry":{"coordinates":[-2.08190,53.49905],"type":"Point"},"properties":{"_source":"warm_welcome","address":"Kings Road, Ashton-u-Lyne, Gtr Manchester OL6 8EZ","description":"Our focus is catering for the elderly people ","hours":"We 10:00-12:00","title":"St John the Evangelist Church"},"type":"Feature"},
		{"geometry":{"coordinates":[-2.04611,53.48517],"type":"Point"},"properties":{"_source":"warm_welcome","address":"Huddersfield Road, Stalybridge, Cheshire SK15 2PT","description":"Open from 03-11-2022. We are open to all ages. We will be providing a hot lunch of soup and a roll between 12:00-13:00 which will be free.","hours":"Th 09:00-17:00","title":"St Paul's Church, Stalybridge"},"type":"Feature"},
		{"geometry":{"coordinates":[-2.07617,53.44968],"type":"Point"},"properties":{"_source":"warm_welcome","address":"The United Church, Union Street, Hyde, Cheshire SK14 1ND","description":"Open from 02-11-2022.","hours":"Mo 10:30-12:30, We 10:30-13:30","title":"The United Church"},"type":"Feature"}
	]
}
