{
	"type": "FeatureCollection",
	"features": [
		{"geometry":{"coordinates":[-2.10805,52.82272],"type":"Point"},"properties":{"_source":"warm_welcome","address":"Sandon Rd Baptist Church , Stafford, Staffordshire ST16 3HW","description":"Open from 10/11/2022. Child friendly facilities with lots to do to entertain people of all ages ","hours":"Th 15:00-17:30","title":"Beacon Church at Sandon Rd Baptist Church "},"type":"Feature"},
		{"geometry":{"coordinates":[-2.00760,52.70712],"type":"Point"},"properties":{"_source":"warm_welcome","address":"Cannock Road, , Cannock, Staffordshire WS11 5DD","description":"","hours":"Fr 10:00-12:00","title":"Chadsmoor Methodist Church"},"type":"Feature"},
		{"geometry":{"coordinates":[-2.04014,52.70883],"type":"Point"},"properties":{"_source":"warm_welcome","address":"Stafford Road, (behind the co-op), Cannock , Staffordshire WS12 4PE","description":"","hours":"Mo 11:00-15:00, Fr 12:00-15:00","title":"Create Community Church & Hub"},"type":"Feature"},
		{"geometry":{"coordinates":[-1.86720,52.74066],"type":"Point"},"properties":{"_source":"warm_welcome","address":"Handsacre Methodist Church, Lichfield Road, Handsacre, Staffordshire WS15 4DE","hours":"Mo 09:00-17:00, Tu 09:00-17:00, We 09:00-17:00, Th 09:00-17:00, Fr 09:00-17:00, Su 09:00-11:30","title":"Handsacre Methodist Church"},"type":"Feature"},
		{"geometry":{"coordinates":[-1.86625,52.90202],"type":"Point"},"properties":{"_source":"warm_welcome","address":"67 High Street, Uttoxeter, Staffordshire ST147JQ","description":"Open from 07-11-2022.","hours":"Mo 11:00-14:00","title":"Renew Church"},"type":"Feature"},
		{"geometry":{"coordinates":[-1.92930,52.74682],"type":"Point"},"properties":{"_source":"warm_welcome","address":"Talbot Road, RUGELEY. WS15 1AU, Staffordshire WS15 4AR","description":"","hours":"Mo 14:00-17:00, Tu 08:45-13:00, Th 08:45-17:00, Fr 14:00-17:00, Sa 09:30-13:00","title":"Rotary Community Library Brereton"},"type":"Feature"},
		{"geometry":{"coordinates":[-1.93885,52.75696],"type":"Point"},"properties":{"_source":"warm_welcome","address":"Rugeley Community Church & Centre, Burnthill Lane, Rugeley, Staffordshire WS15 2HX","description":" We are open every weekday as a community hub, with a number of different regular activities, people to talk to, free drinks, local information and WiFi.","hours":"Mo 08:30-16:30, Tu 08:30-16:30, We 08:30-16:30, Th 08:30-16:30, Fr 08:30-16:30, Su 10:00-12:30","title":"Rugeley Community Church"},"type":"Feature"}
	]
}
