{
	"type": "FeatureCollection",
	"features": [
		{"geometry":{"coordinates":[-1.91570,52.60386],"type":"Point"},"properties":{"_source":"warm_welcome","address":"Rookery Lane, Aldridge, Walsall WS9 8NP","description":"","hours":"Tu 08:30-18:00, We 08:30-18:00, Th 08:30-18:00, Fr 08:30-18:00, Sa 09:00-17:00","title":"Aldridge Library"},"type":"Feature"},
		{"geometry":{"coordinates":[-1.91244,52.60450],"type":"Point"},"properties":{"_source":"warm_welcome","address":"The Green, next to Cooper and Jordan School, Aldridge, Walsall WS9 8NH","description":"Open from 18.10.2022. come and join us for time to sit and have a friendly chat, play a board game, get some helpful information","hours":"Tu 12:00-14:00","title":"Aldridge Parish Church Centre"},"type":"Feature"},
		{"geometry":{"coordinates":[-2.01139,52.50112],"type":"Point"},"properties":{"_source":"warm_welcome","address":"Stone Street, Oldbury, West Midlands B69 4JD","description":"Open from 19-10-2022.","hours":"Mo 10:00-12:00, We 16:00-20:30","title":"Bethel Church"},"type":"Feature"},
		{"geometry":{"coordinates":[-2.07790,52.57003],"type":"Point"},"properties":{"_source":"warm_welcome","address":"Prouds Lane, Bilston, West Midlands WV14 6PW","description":"Cafe, Games, Space for toddlers","hours":"We 11:00-14:00","title":"Bilston Baptist Church"},"type":"Feature"},
		{"geometry":{"coordinates":[-2.05628,52.58535],"type":"Point"},"properties":{"_source":"warm_welcome","address":"79a Stafford Street , Willenhall , West Midlands WV13 1 RT","description":" We have a Foodbank that runs on Thursdays 12 till 3","hours":"Th 10:00-12:00","title":"Bridging the Gap "},"type":"Feature"},
		{"geometry":{"coordinates":[-1.88756,52.50131],"type":"Point"},"properties":{"_source":"warm_welcome","address":"South Aston URC , Birmingham, West Midlands B6 5bn","description":"","hours":"Th 09:00-12:00","title":"Christ Church Birmingham"},"type":"Feature"},
		{"geometry":{"coordinates":[-1.80806,52.49985],"type":"Point"},"properties":{"_source":"warm_welcome","address":"The Old Rectory, 80 Hodge Hill Common, Birmingham B36 8AG","description":"Open from 10-12-2022. On Wednesdays a simple soup lunch will be available, or you can bring your own lunch to eat with others. There may be craft or baking activities you can join in with, or bring along your own craft projects. You can also just come to chat or sit quietly.","hours":"We 13:00-16:00, Sa 11:00-13:00","title":"Common Ground Community"},"type":"Feature"},
		{"geometry":{"coordinates":[-1.93303,52.54560],"type":"Point"},"properties":{"_source":"warm_welcome","address":"Scott Arms Shopping Centre, Great Barr, Birmingham B42 1TQ","description":" Our space is very small holding approximately 15 people. There are round tables, access to warm drinks. The toilet is upstairs, so mobility needed. There is no space for prams, buggies and small children","hours":"Mo 10:00-14:00, We 10:00-14:00, Fr 10:00-14:00","title":"Crosspoint Hub, Great Barr"},"type":"Feature"},
		{"geometry":{"coordinates":[-2.08437,52.54907],"type":"Point"},"properties":{"_source":"warm_welcome","address":"Darkhouse Baptist Church, Coseley, West Midlands WV14 8XH","description":"","hours":"Tu 14:00-16:00","title":"Darkhouse Baptist Church"},"type":"Feature"},
		{"geometry":{"coordinates":[-2.04332,52.61538],"type":"Point"},"properties":{"_source":"warm_welcome","address":"1 Milestone Way, Willenhall, UK Mainland WV12 5YA","description":"","hours":"Mo 10:00-12:30","title":"Friends of Willenhall Memorial Park"},"type":"Feature"},
		{"geometry":{"coordinates":[-2.10869,52.59082],"type":"Point"},"properties":{"_source":"warm_welcome","address":"40 Ling House, Wolverhampton, --Select-- WV10 0HH","description":"","hours":"Tu 10:00-15:00, Th 10:00-15:00","title":"Hope Community Project (Wolverhampton)"},"type":"Feature"},
		{"geometry":{"coordinates":[-1.82658,52.68234],"type":"Point"},"properties":{"_source":"warm_welcome","address":"Lichfield Garrick Theatre, Castle Dyke, Lichfield, Staffordshire WS13 6HR","description":"Open from 07/11/2022.","hours":"Mo 10:00-17:00, Tu 10:00-17:00, We 10:00-17:00, Th 10:00-17:00, Fr 10:00-17:00, Sa 10:00-17:00, Su 10:00-17:00","title":"Lichfield Garrick Theatre"},"type":"Feature"},
		{"geometry":{"coordinates":[-2.04171,52.68127],"type":"Point"},"properties":{"_source":"warm_welcome","address":"Avon Business and Leisure Centre, Avon Rd, Cannock, Staffordshire WS11 1LH","hours":"Mo 10:30-13:30","title":"Living Springs Community Church"},"type":"Feature"},
		{"geometry":{"coordinates":[-2.03625,52.51583],"type":"Point"},"properties":{"_source":"warm_welcome","address":"Temple Way, Oldbury, West Midlands B69 3LT","description":"We are open to all and hope to make the space more regular soon. We run a community lunch every 1st and 3rd week, warm welcome, warm space and hot food, we have board games, a play area for tots and opportunity to get to know neightbours.","hours":"Th 13:00-15:30","title":"Love Your Neighbour Lunch Club @ Oldbury Congregational Church"},"type":"Feature"},
		{"geometry":{"coordinates":[-1.94353,52.50480],"type":"Point"},"properties":{"_source":"warm_welcome","address":"Holyhead Road, Handsworth, Birmingham, New Life Wesleyan Holiness Church, Birmingham B21 0LA","description":"We cater for all age groups ","hours":"Tu 12:00-15:00","title":"New Life Wesleyan church "},"type":"Feature"},
		{"geometry":{"coordinates":[-1.90444,52.53949],"type":"Point"},"properties":{"_source":"warm_welcome","address":"Beeches Road, Great Barr, Birmingham B42 2HF","description":" Open from 05-12-2022","hours":"Tu 11:00-13:00, We 11:00-13:00, Th 11:00-13:00, Fr 11:00-13:00","title":"Perry Beeches Baptist"},"type":"Feature"},
		{"geometry":{"coordinates":[-1.84065,52.63925],"type":"Point"},"properties":{"_source":"warm_welcome","address":"Main Street, Shenstone, Lichfield WS14 0NF","description":"","hours":"Tu 09:00-17:00, We 09:00-12:00, Th 09:00-12:00, Fr 09:00-17:00, Sa 09:30-12:00","title":"Shenstone Community Library"},"type":"Feature"},
		{"geometry":{"coordinates":[-1.86682,52.53765],"type":"Point"},"properties":{"_source":"warm_welcome","address":"140 Witton Lodge Road, Perry Common, Birmingham B23 5AP","description":"Open from Open Now. We cater for the over 50's","hours":"Tu 10:00-13:00","title":"St Martins Church"},"type":"Feature"},
		{"geometry":{"coordinates":[-1.94263,52.57814],"type":"Point"},"properties":{"_source":"warm_welcome","address":"1 Daffodil Rd,, Walsall, West Midlands WS5 3DQ","description":" We have a Place of Welcome Community cafe every Thursday 10-12 . We welcome everyone for free refreshments , hot drinks , toast , fruit bread toast , biscuits. Everyone is welcome ‚Ä¶we are very friendly üòçüòçüòç","hours":"Th 10:00-12:00","title":"St Martins Community Place of Welcome Cafe "},"type":"Feature"},
		{"geometry":{"coordinates":[-2.09762,52.58161],"type":"Point"},"properties":{"_source":"warm_welcome","address":"St Matthew's Church, East Park Way, Wolverhampton, West Midlands WV1 2DN","description":"","hours":"Mo 09:00-11:00, Tu 10:00-11:30","title":"St Matthew's Church Wolverhampton"},"type":"Feature"},
		{"geometry":{"coordinates":[-1.82525,52.68110],"type":"Point"},"properties":{"_source":"warm_welcome","address":"Lichfield Community Fire Station, Birmingham Road, Lichfield WS136HU","description":"Open from 10-11-2022.","hours":"Th 13:30-15:30","title":"St Michael's Church @ Lichfield Fire Station"},"type":"Feature"},
		{"geometry":{"coordinates":[-1.98516,52.58737],"type":"Point"},"properties":{"_source":"warm_welcome","address":"Stafford Street , Walsall, West Midlands WS2 8DX","description":" We hope to be up and running in the very near future so please watch this space for our opening times ","title":"St Peter‚Äôs Church Stafford Street Walsall"},"type":"Feature"},
		{"geometry":{"coordinates":[-2.05854,52.58415],"type":"Point"},"properties":{"_source":"warm_welcome","address":"Wolverhampton Street, Willenhall, West Midlands WV13 2PS","description":"Open from 09-11-2022.","hours":"We 11:00-13:00","title":"St Stephen's Church Willenhall"},"type":"Feature"},
		{"geometry":{"coordinates":[-1.84020,52.54477],"type":"Point"},"properties":{"_source":"warm_welcome","address":"St.Michael's Church Hall, 192 Boldmere Road,, Boldmere,, Birmingham, B73 5UE","hours":"Fr 09:00-11:30","title":"St. Michael's Boldmere, Place of Welcome"},"type":"Feature"},
		{"geometry":{"coordinates":[-1.82187,52.56365],"type":"Point"},"properties":{"_source":"warm_welcome","address":"Trinity Hill, Sutton Coldfield, West Midlands B72 1TA","description":"","hours":"Tu 10:00-12:00, Fr 10:00-12:00","title":"Sutton Coldfield Baptist Church"},"type":"Feature"},
		{"geometry":{"coordinates":[-1.97387,52.48662],"type":"Point"},"properties":{"_source":"warm_welcome","address":"Dorothy Parkes Centre, Church Road, Smethwick, West Midlands B67 6EH","hours":"Mo 08:30-20:30, Tu 08:30-20:30, We 08:30-20:30, Th 08:30-20:30, Fr 08:30-20:30, Sa 09:00-13:00, Su 09:00-13:00","title":"The Dorothy Parkes Centre"},"type":"Feature"},
		{"geometry":{"coordinates":[-2.05910,52.58562],"type":"Point"},"properties":{"_source":"warm_welcome","address":"Field Street, Willenhall, West Midlands WV13 2PD","description":"We are open to all There are volunteers available to chat too ","hours":"Tu 01:00-04:00, Th 09:30-12:30","title":"The Salvation Army "},"type":"Feature"},
		{"geometry":{"coordinates":[-2.03358,52.68850],"type":"Point"},"properties":{"_source":"warm_welcome","address":"7 Anglesey Street, Hednesford, Staffordshire WS11 1AB","hours":"Mo 14:00-17:00, Tu 14:00-17:00, We 14:00-17:00, Th 14:00-17:00","title":"The Salvation Army Cannock Chase"},"type":"Feature"},
		{"geometry":{"coordinates":[-2.03818,52.56926],"type":"Point"},"properties":{"_source":"warm_welcome","address":"The Leys, Darlaston, West Midlands WS10 8DP","description":"","hours":"We 11:30-14:30","title":"The Salvation Army Darlaston"},"type":"Feature"},
		{"geometry":{"coordinates":[-1.89154,52.57990],"type":"Point"},"properties":{"_source":"warm_welcome","address":"Streetly Community Library, Blackwood Road, Streetly, Walsall, West Midlands B74 3PL","description":"","hours":"Tu 08:30-18:00, We 08:30-18:00, Fr 08:30-18:00, Sa 09:00-17:00","title":"Walsall Community Libraries"},"type":"Feature"},
		{"geometry":{"coordinates":[-1.93490,52.64974],"type":"Point"},"properties":{"_source":"warm_welcome","address":"Brownhills Community Library, Parkview Centre, Brownhills, Walsall, West Midlands WS8 7JB","description":"","hours":"Tu 08:00-18:00, We 08:30-18:00, Th 08:30-18:00, Fr 08:30-18:00, Sa 09:00-17:00","title":"Walsall Libraries"},"type":"Feature"},
		{"geometry":{"coordinates":[-1.88719,52.50086],"type":"Point"},"properties":{"_source":"warm_spaces","address":"Upper Sutton Street, Birmingham, England, B6 5BN","title":"Christ Church Birmingham","url":"https://www.Christchurchbirmingham.org"},"type":"Feature"},
		{"geometry":{"coordinates":[-2.01682,52.55359],"type":"Point"},"properties":{"_source":"warm_spaces","address":"Walsall Street, Wednesbury, England, WS10 9EH","title":"Wednesbury Library","url":"https://www.sandwell.gov.uk/libraries"},"type":"Feature"},
		{"geometry":{"coordinates":[-2.06742,52.52900],"type":"Point"},"properties":{"_source":"warm_spaces","address":"Owen House, 17 Unity Walk , Tipton, England, DY4 8QL","title":"Tipton Library","url":"https://www.sandwell.gov.uk/libraries"},"type":"Feature"},
		{"geometry":{"coordinates":[-1.98615,52.54457],"type":"Point"},"properties":{"_source":"warm_spaces","address":"Beverley Road, West Bromwich, England, B71 2LH","title":"Stone Cross Library","url":"https://www.sandwell.gov.uk/libraries"},"type":"Feature"},
		{"geometry":{"coordinates":[-1.97264,52.49643],"type":"Point"},"properties":{"_source":"warm_spaces","address":"High Street, Smethwick, England, B66 1AA","title":"Smethwick Library","url":"https://www.sandwell.gov.uk/libraries"},"type":"Feature"},
		{"geometry":{"coordinates":[-2.03406,52.49386],"type":"Point"},"properties":{"_source":"warm_spaces","address":"Martley Road, Oldbury, England, B69 1DZ","title":"Rounds Green Library","url":"https://www.sandwell.gov.uk/libraries"},"type":"Feature"},
		{"geometry":{"coordinates":[-2.01713,52.50512],"type":"Point"},"properties":{"_source":"warm_spaces","address":"Freeth Street, Oldbury, England, B69 3DB","title":"Oldbury Library","url":"https://www.sandwell.gov.uk/libraries"},"type":"Feature"},
		{"geometry":{"coordinates":[-1.84263,52.52045],"type":"Point"},"properties":{"_source":"warm_spaces","address":"Wood End Road, Birmingham, England, B24 8AD","title":"Six Ways Baptist Church","url":"https://sixwayserdington.org"},"type":"Feature"},
		{"geometry":{"coordinates":[-2.04472,52.50681],"type":"Point"},"properties":{"_source":"warm_spaces","address":"Poplar Rise, Oldbury, England, B69 1RD","title":"Oakham Library","url":"https://www.sandwell.gov.uk/libraries"},"type":"Feature"},
		{"geometry":{"coordinates":[-2.00930,52.48743],"type":"Point"},"properties":{"_source":"warm_spaces","address":"Barrs Street, Oldbury, England, B68 8QT","title":"Langley Library","url":"https://www.sandwell.gov.uk/libraries"},"type":"Feature"},
		{"geometry":{"coordinates":[-2.01133,52.53912],"type":"Point"},"properties":{"_source":"warm_spaces","address":"Hill Top, West Bromwich, England, B70 0RZ","title":"Hill Top Library","url":"https://www.sandwell.gov.uk/libraries"},"type":"Feature"},
		{"geometry":{"coordinates":[-1.94143,52.53561],"type":"Point"},"properties":{"_source":"warm_spaces","address":"Tanhouse Centre, 239 Hamstead Road, Birmingham, England, B43 5EL","title":"Hamstead Library","url":"https://www.sandwell.gov.uk/libraries"},"type":"Feature"},
		{"geometry":{"coordinates":[-2.03195,52.52763],"type":"Point"},"properties":{"_source":"warm_spaces","address":"Sheepwash Lane, Tipton, England, DY4 7JF","title":"Great Bridge Library","url":"https://www.sandwell.gov.uk/libraries"},"type":"Feature"},
		{"geometry":{"coordinates":[-1.94972,52.56638],"type":"Point"},"properties":{"_source":"warm_spaces","address":"Birmingham Road, Walsall, England, B43 6PF","title":"Great Barr Library","url":"https://www.sandwell.gov.uk/libraries"},"type":"Feature"},
		{"geometry":{"coordinates":[-2.05713,52.54074],"type":"Point"},"properties":{"_source":"warm_spaces","address":"Saint Mark&#39;s Road, Tipton, England, DY4 0SZ","title":"Glebefields Library","url":"https://www.sandwell.gov.uk/libraries"},"type":"Feature"},
		{"geometry":{"coordinates":[-1.99717,52.52037],"type":"Point"},"properties":{"_source":"warm_spaces","address":"Central Library, High Street, West Bromwich, England, B70","title":"Central Library (West Bromwich)","url":"https://www.sandwell.gov.uk/libraries"},"type":"Feature"},
		{"geometry":{"coordinates":[-1.83989,52.63874],"type":"Point"},"properties":{"_source":"warm_spaces","address":"Main Street, Lichfield, England, WS14 0NF","title":"Shenstone Community Library","url":"https://www.shenstonecommunitylibrary.org"},"type":"Feature"},
		{"geometry":{"coordinates":[-2.01661,52.65694],"type":"Point"},"properties":{"_source":"warm_spaces","address":"St Andrews Church, Hilton Lane, Great Wyrley, England, WS6 6DS","title":"Great Wyrley Parish Churches","url":"https://www.achurchnearyou.com"},"type":"Feature"},
		{"geometry":{"coordinates":[-1.99348,52.52516],"type":"Point"},"properties":{"_source":"warm_spaces","address":"The Gap Christian Family Centre, Hargate Lane, West Bromwich, England, B71 1PH","title":"The Gap Christian Family Centre","url":"http//www.thegaponline.org"},"type":"Feature"},
		{"geometry":{"coordinates":[-1.82633,52.68238],"type":"Point"},"properties":{"_source":"warm_spaces","address":"Lichfield Garrick Theatre, Castle Dyke, Lichfield, England, WS13 6HR","title":"Lichfield Garrick Theatre","url":"https://www.lichfieldgarrick.com"},"type":"Feature"},
		{"geometry":{"coordinates":[-1.88535,52.54730],"type":"Point"},"properties":{"_source":"warm_spaces","address":"610 Community Centre, 610 Kingstanding Road, Birmingham, England, B44 9SH","title":"Birmingham Settlement","url":"https://www.birminghamsettlement.org.uk"},"type":"Feature"},
		{"geometry":{"coordinates":[-1.91836,52.60498],"type":"Point"},"properties":{"_source":"warm_spaces","address":"Aldridge Methodist Church, 51 Anchor Road, Walsall, England, WS9 8PT","title":"Aldridge Methodist Church","url":"https://www.walsallmethodist.org/aldridge"},"type":"Feature"},
		{"geometry":{"coordinates":[-1.84176,52.68143],"type":"Point"},"properties":{"_source":"warm_spaces","address":"Christ Church, Christchurch Lane, Lichfield, England, WS13 8AY","title":"Christ Church, Lichfield","url":"http://www.christchurch-lichfield.org.uk"},"type":"Feature"},
		{"geometry":{"coordinates":[-2.01262,52.50191],"type":"Point"},"properties":{"_source":"warm_spaces","address":"Bethel Church, Stone Street, Oldbury, England, B69 4JQ","title":"Bethel Church"},"type":"Feature"},
		{"geometry":{"coordinates":[-2.05783,52.61367],"type":"Point"},"properties":{"_source":"wolverhampton_council","address":"Griffiths Drive, Ashmore Park WV11 2LH","hours":"Mo-Tu 09:00-13:00,14:00-17:00; Th 09:00-13:00; Fr 14:00-17:00; Sa 10:00-13:00","title":"Ashmore Park Community Hub and Library"},"type":"Feature"},
		{"geometry":{"coordinates":[-2.07148,52.56813],"type":"Point"},"properties":{"_source":"wolverhampton_council","address":"Mount Pleasant WV14 7LU","hours":"Tu 10:00-17:00; We 10:00-19:00; Th 10:00-17:00; Fr 10:00-17:00; Sa 10:00-15:00","title":"Bilston Library"},"type":"Feature"},
		{"geometry":{"coordinates":[-2.10664,52.58484],"type":"Point"},"properties":{"_source":"wolverhampton_council","address":"Colliery Road, Eastfield, WV1 2QY","title":"Eastfield Community Centre"},"type":"Feature"},
		{"geometry":{"coordinates":[-2.09493,52.58128],"type":"Point"},"properties":{"_source":"wolverhampton_council","address":"Hurstbourne Cres, WV1 2EE","hours":"Mo 09:00-13:00; Tu 09:00-13:00; Th 02:00-17:00; Sa 09:00-13:00","title":"East Park Library"},"type":"Feature"},
		{"geometry":{"coordinates":[-2.10868,52.59053],"type":"Point"},"properties":{"_source":"wolverhampton_council","address":"40 Ling House, Long Ley, Wolverhampton, WV10 0HH","hours":"Tu-Th 10:00-15:00; Fr 10:00-13:00","title":"Hope Community Project"},"type":"Feature"},
		{"geometry":{"coordinates":[-2.08438,52.61204],"type":"Point"},"properties":{"_source":"wolverhampton_council","address":"Wood End Road,√Ç¬†WV11 1YG","hours":"Mo 10:00-14:00; Tu 13:00-17:00; Fr 13:00-17:00; Sa 10:00-13:00","title":"Long Knowle Community Hub and Library"},"type":"Feature"},
		{"geometry":{"coordinates":[-2.06202,52.56877],"type":"Point"},"properties":{"_source":"wolverhampton_council","address":"Lunt Road, Bilston, WV14 7HF","title":"Lunt Community Centre"},"type":"Feature"},
		{"geometry":{"coordinates":[-2.08343,52.59764],"type":"Point"},"properties":{"_source":"wolverhampton_council","address":"Well Lane, Wednesfield, WV11 1XT","hours":"Mo 12:00-19:00; Tu 10:00-17:00; We 10:00-17:00; Th 10:00-17:00; Fr 10:00-13:00; Sa 10:00-14:00","title":"Wednesfield Community Hub and Library"},"type":"Feature"}
	]
}
