{
	"type": "FeatureCollection",
	"features": [
		{"geometry":{"coordinates":[-1.96366,52.35593],"type":"Point"},"properties":{"_source":"warm_welcome","address":"Birmingham Road, Alvechurch, Birmingham B48 7TA","description":"","hours":"Mo 09:00-13:00; Tu 09:00-13:00; Th 14:00-17:00; Fr 09:00-13:00; Sa 10:00-13:00","title":"Alvechurch Library"},"type":"Feature"},
		{"geometry":{"coordinates":[-1.89256,52.47019],"type":"Point"},"properties":{"_source":"warm_welcome","address":"BIRMINGHAM VINEYARD, 174-178 BARFORD ST, BIRMINGHAM, West Midlands B5 7EP","description":"We are a Christian church, seeking to bless the community and show Jesus' heart for people. Our Sundays are open to anyone, just expect a Christian presence! On Friday mornings we run a Stay-and-Play group for families to bring their children to, and on Friday evenings we run a youth club for 11-18yr olds. More details available on our website.","hours":"Fr 10:00-11:15; Su 10:30-12:00","title":"Birmingham Vineyard Church "},"type":"Feature"},
		{"geometry":{"coordinates":[-2.05167,52.32886],"type":"Point"},"properties":{"_source":"warm_welcome","address":"New Road, Bromsgrove, Worcestershire B60 2JD","description":"All welcome. Free sit down hot dinner. Gluten free and vegan options available.","hours":"Th 19:30-20:30","title":"Bromsgrove Baptist Church"},"type":"Feature"},
		{"geometry":{"coordinates":[-2.05983,52.33682],"type":"Point"},"properties":{"_source":"warm_welcome","address":"Parkside, Market Street, Bromsgrove, Worcestershire B61 8DA","description":"","hours":"Mo 09:00-19:00; Tu 09:00-17:00; We 09:00-17:00; Th 09:00-17:00; Fr 09:00-17:00; Sa 10:00-16:00","title":"Bromsgrove Library"},"type":"Feature"},
		{"geometry":{"coordinates":[-1.91690,52.43753],"type":"Point"},"properties":{"_source":"warm_welcome","address":"953 Pershore Road, Selly Park, Birmingham B29 7PS","description":"Open from 01-11-2022. We also have side rooms that can be booked for Zoom meetings.","hours":"Tu 08:30-17:30; We 11:30-14:00; Fr 10:30-12:00","title":"Christ Church Selly Park"},"type":"Feature"},
		{"geometry":{"coordinates":[-1.77091,52.44150],"type":"Point"},"properties":{"_source":"warm_welcome","address":"Elmdon Park, Solihull, West Midlands B92 9EJ","description":"","hours":"Su 14:00-16:00","title":"Elmdon Church"},"type":"Feature"},
		{"geometry":{"coordinates":[-1.96670,52.43756],"type":"Point"},"properties":{"_source":"warm_welcome","address":"119 Weoley Castle Road, B29 5QD, Birmingham, West Midlands B29 5QD","description":"Open from 03-11-2022. Games, arts and crafts","hours":"Th 10:30-14:30","title":"Encounter Church Weoley Castle"},"type":"Feature"},
		{"geometry":{"coordinates":[-1.84853,52.44065],"type":"Point"},"properties":{"_source":"warm_welcome","address":"609 Reddings Lane , Hall Green, Birmingham B28 8TE","hours":"Tu 10:00-04:00","title":"Hall Green United Community Church "},"type":"Feature"},
		{"geometry":{"coordinates":[-1.95558,52.45710],"type":"Point"},"properties":{"_source":"warm_welcome","address":"Harborne Baptist Church, Harborne, Birmingham B17 0DH","description":"","hours":"We 12:00-13:30; Th 10:30-12:30; Fr 10:30-12:30; Su 11:00-13:00","title":"Harborne Baptist Church"},"type":"Feature"},
		{"geometry":{"coordinates":[-1.87040,52.45830],"type":"Point"},"properties":{"_source":"warm_welcome","address":"354/356 Stratford Rd, Birmingham, West Midlands B114aa","description":"Women and children We provide creative activities on Coffee Morning Tuesday and Cooking club on Thursday","hours":"Tu 10:00-13:00; Th 10:00-13:00","title":"ISRA-UK CHARITY"},"type":"Feature"},
		{"geometry":{"coordinates":[-2.04832,52.44808],"type":"Point"},"properties":{"_source":"warm_welcome","address":"Lifecentral Church, Halesowen, West Midlands b63 3aj","description":"Open from 16th November 2022. All are welcome Board Games are provided as well as a selection of hot hot and cold drinks","hours":"We 11:00-14:00; Th 11:00-14:00","title":"Lifecentral Church "},"type":"Feature"},
		{"geometry":{"coordinates":[-2.02817,52.47863],"type":"Point"},"properties":{"_source":"warm_welcome","address":"Lifecentral Church Rowley, Rowley Regis, Westmidlands b65 4hs","description":"Open from 22nd November 2022. everyone is welcome Foodbank Facilities available ","hours":"Tu 11:00-14:00; Fr 11:00-14:00","title":"Lifecentral Rowley "},"type":"Feature"},
		{"geometry":{"coordinates":[-1.90308,52.47116],"type":"Point"},"properties":{"_source":"warm_welcome","address":"Gas Street St Luke's, Great Colmore Street, Birmingham B15 2AT","description":"","hours":"Mo 08:30-16:30; Tu 08:30-16:30; We 08:30-16:30; Th 08:30-16:30; Fr 08:30-16:30","title":"Love Your Neighbour Birmingham"},"type":"Feature"},
		{"geometry":{"coordinates":[-1.97110,52.41494],"type":"Point"},"properties":{"_source":"warm_welcome","address":"Northfield Baptist Church , 789 Bristol Road South , Northfield B31 2NQ","hours":"Th 16:00-19:00","title":"Northfield Arts Forum - NAF CAF Community Cafe"},"type":"Feature"},
		{"geometry":{"coordinates":[-2.00565,52.48008],"type":"Point"},"properties":{"_source":"warm_welcome","address":"298 pound rd, Oldbury, West Midlands B688NG","description":"ALL WELCOME. CHILDREN MUST BE ACCOMPANIED BY A RESPONSIBLE ADULT AT ALL TIMES Free hot drinks all day craft and games available ","hours":"Tu 09:30-18:30","title":"Oldbury Salvation Army"},"type":"Feature"},
		{"geometry":{"coordinates":[-1.93986,52.30638],"type":"Point"},"properties":{"_source":"warm_welcome","address":"15 Market Place, Redditch, Worcestershire B98 8AR","description":"","hours":"Mo 09:00-17:00; Tu 09:00-19:00; We 09:00-17:00; Th 09:00-19:00; Fr 09:00-17:00; Sa 09:00-17:00","title":"Redditch Library"},"type":"Feature"},
		{"geometry":{"coordinates":[-2.02225,52.39275],"type":"Point"},"properties":{"_source":"warm_welcome","address":"7 Library Way, Rubery, Birmingham B45 9JS","description":"","hours":"Mo 09:30-17:00; Tu 09:30-17:00; Th 09:30-18:00; Fr 09:30-17:00; Sa 10:00-14:00","title":"Rubery Library"},"type":"Feature"},
		{"geometry":{"coordinates":[-1.94114,52.43621],"type":"Point"},"properties":{"_source":"warm_welcome","address":"Langleys Road, Birmingham, West Midlands B29 6HT","description":"Open from 21-11-2022.","hours":"Mo 09:30-12:00","title":"Selly Oak Methodist Church"},"type":"Feature"},
		{"geometry":{"coordinates":[-1.82659,52.41104],"type":"Point"},"properties":{"_source":"warm_welcome","address":"The Bridge, 234 Stratford Road, Solihull, West Midlands B90 3AG","description":"Open from 1st November 2022. Tuesdays 1-4 pm - Tuesday Club Café, open to all. Wednesdays 12-2 pm - Community Lunch, open to all. 1.30-2.45 pm - Babies at the Bridge - for babies up to walking and 1 parent/guardian. Fridays 10 am-12 pm, drop in free café open to all ** Starting from November. ","hours":"Tu 13:00-16:00; We 12:00-14:00; Fr 10:00-12:00; Su 10:30-12:30","title":"Solihull Christian Fellowship"},"type":"Feature"},
		{"geometry":{"coordinates":[-1.84711,52.44773],"type":"Point"},"properties":{"_source":"warm_welcome","address":"St Edmund’s Church Reddings Lane , Tyseley , Birmingham B11 3DD","description":"","hours":"Mo 11:00-14:30","title":"Springfield Food Pantry"},"type":"Feature"},
		{"geometry":{"coordinates":[-2.01724,52.39382],"type":"Point"},"properties":{"_source":"warm_welcome","address":"New Road, Rubery, Birmingham B459JA","description":" Open from 31/10/22.Free soup and rolls available on Wednesdays and Fridays, free hot drinks available on Tuesdays, Wednesdays and Fridays.","hours":"Tu 13:00-15:00; We 12:00-16:00; Fr 10:00-14:00","title":"St Chad's, Rubery"},"type":"Feature"},
		{"geometry":{"coordinates":[-1.80126,52.47541],"type":"Point"},"properties":{"_source":"warm_welcome","address":"Parish Office, Church Road, Yardley, Birmingham B33 8PD","description":" Level access. Tea/coffee, toast and biscuits provided. Conversation and sign-posting for further sources of support. ","hours":"Fr 09:30-11:30","title":"St Edburgha's Place of Welcome"},"type":"Feature"},
		{"geometry":{"coordinates":[-1.97619,52.43508],"type":"Point"},"properties":{"_source":"warm_welcome","address":"83a Marston Road, Birmingham , West Midlands B29 5LS","description":"Open from Tuesdays already open, Fridays 4th November . Tuesdays all age groups, Fridays families with children only. Tuesdays free community meal with Foodcycle, Fridays Come and Play warm space for families","hours":"Tu 16:00-17:00; Fr 15:30-17:00","title":"St Gabriel’s Centre"},"type":"Feature"},
		{"geometry":{"coordinates":[-1.77812,52.46043],"type":"Point"},"properties":{"_source":"warm_welcome","address":"149 Church Road, Sheldon, Birmingham B26 3TT","description":"Open from 11th November 2022. Everyone is welcome. Hot drinks and toast are served free of charge. ","hours":"Fr 09:00-11:00","title":"St Giles Church"},"type":"Feature"},
		{"geometry":{"coordinates":[-2.04622,52.32419],"type":"Point"},"properties":{"_source":"warm_welcome","address":"15 Finstall Road, Bromsgrove B60 2EA, Worcestershire B60 2EA","description":"","hours":"We 12:00-15:00; Fr 10:00-12:00","title":"St Godwald's Community Outreach"},"type":"Feature"},
		{"geometry":{"coordinates":[-1.82585,52.42902],"type":"Point"},"properties":{"_source":"warm_welcome","address":"17 Redstone Farm Rd, Hall Green, Birmingham B28 9NU","description":" Open from 01-11-2022.","title":"St Michael's Church Hall Green"},"type":"Feature"},
		{"geometry":{"coordinates":[-1.85755,52.42109],"type":"Point"},"properties":{"_source":"warm_welcome","address":"Highfield Road, Hall Green, Birmingham B28 0BT","description":"","hours":"We 10:30-12:00","title":"St Peters Hall Green "},"type":"Feature"},
		{"geometry":{"coordinates":[-1.92201,52.42947],"type":"Point"},"properties":{"_source":"warm_welcome","address":"67 Hazelwell Street, Stirchley Community Church, Birmingham B30 2JX","description":"Open from 17-11-2022.","hours":"Th 14:00-18:00","title":"Stirchley Community Church"},"type":"Feature"},
		{"geometry":{"coordinates":[-1.93091,52.41531],"type":"Point"},"properties":{"_source":"warm_welcome","address":"The Cotteridge Church 24 Pershore Road South Birmingham, Kings Norton, West Midlands B30 3EJ","description":"Open from 01.11.2022. We have a library for readers and a selection of board games available to use. We will show a family film at 3:30pm each day and have a children's play area.","hours":"Mo 09:00-17:00; Tu 09:00-17:00; We 09:00-17:00; Th 09:00-17:00; Fr 09:00-17:00; Sa 10:00-12:00","title":"The Cotteridge Church"},"type":"Feature"},
		{"geometry":{"coordinates":[-1.99924,52.47736],"type":"Point"},"properties":{"_source":"warm_welcome","address":"George Road, Oldbury, West Midlands B68 9 LN","description":" We are a pub that is happy to provide a warm free space for those that need it. Ask our bar team and they will be happy to do a hot drink and some toast on us .","hours":"Mo 10:00-23:00; Tu 10:00-23:00; We 10:00-23:00; Th 10:00-23:00; Fr 10:00-00:00; Sa 10:00-00:00; Su 10:00-23:00","title":"The George"},"type":"Feature"},
		{"geometry":{"coordinates":[-2.00755,52.46927],"type":"Point"},"properties":{"_source":"warm_welcome","address":"Tame Road, Oldbury, West Midlands B68 0JP","description":"Everyone is Welcome A hot meal for £5 can be provided on Thursday but must be prebooked ","hours":"We 10:00-13:00; Th 09:30-16:30","title":"The Oak Tree Centre"},"type":"Feature"},
		{"geometry":{"coordinates":[-1.97204,52.43682],"type":"Point"},"properties":{"_source":"warm_welcome","address":"115, Quarry Road, Weoley Castle, Birmingham B29 5LE","description":"Open from 04-11-2022. We have 'Incredible Surplus' food and also clothes and school uniform exchange in the morning","hours":"Fr 10:00-15:00","title":"Weoley Castle Community Church U.R.C"},"type":"Feature"},
		{"geometry":{"coordinates":[-1.91532,52.28719],"type":"Point"},"properties":{"_source":"warm_welcome","address":"25 Local Centre ,Studley Road, Redditch, Worcestershire B98 7RY","description":"","hours":"Mo 09:00-17:00; Tu 09:00-14:30; Th 09:00-17:00; Fr 11:30-17:00; Sa 09:00-13:00","title":"Woodrow Library"},"type":"Feature"},
		{"geometry":{"coordinates":[-1.88010,52.38745],"type":"Point"},"properties":{"_source":"warm_welcome","address":"Woodrush Community Hub, Shawhurst Lane, Hollywood, Birmingham B47 5JW","description":"","hours":"Mo 09:30-13:00; Tu 09:30-13:00; We 09:30-13:00; Fr 09:30-13:00; Sa 09:30-13:00","title":"Wythall Library"},"type":"Feature"},
		{"geometry":{"coordinates":[-1.97600,52.48109],"type":"Point"},"properties":{"_source":"warm_spaces","address":"Thimblemill Road, Smethwick, England, B67 5RJ","title":"Thimblemill Library","url":"https://www.sandwell.gov.uk/libraries"},"type":"Feature"},
		{"geometry":{"coordinates":[-2.07781,52.47444],"type":"Point"},"properties":{"_source":"warm_spaces","address":"Upper High Street, Cradley Heath, England, B64 5HX","title":"Cradley Heath Library","url":"https://www.sandwell.gov.uk/libraries"},"type":"Feature"},
		{"geometry":{"coordinates":[-2.00523,52.46820],"type":"Point"},"properties":{"_source":"warm_spaces","address":"Tame Road, Oldbury, England, B68 0JT","title":"Brandhall Library","url":"https://www.sandwell.gov.uk/libraries"},"type":"Feature"},
		{"geometry":{"coordinates":[-1.99832,52.47507],"type":"Point"},"properties":{"_source":"warm_spaces","address":"Bleakhouse Road, Oldbury, England, B68 9DS","title":"Bleakhouse Library","url":"https://www.sandwell.gov.uk/libraries"},"type":"Feature"},
		{"geometry":{"coordinates":[-2.04229,52.47581],"type":"Point"},"properties":{"_source":"warm_spaces","address":"145 High Street, Rowley Regis, England, B65 0EA","title":"Blackheath Library","url":"https://www.sandwell.gov.uk/libraries"},"type":"Feature"},
		{"geometry":{"coordinates":[-1.88589,52.44090],"type":"Point"},"properties":{"_source":"warm_spaces","address":"School Road, Birmingham, England","title":"Camrbidge Road Methodist Church","url":"https://www.cambridgeroadmethodist.org.uk"},"type":"Feature"},
		{"geometry":{"coordinates":[-2.00695,52.46924],"type":"Point"},"properties":{"_source":"warm_spaces","address":"The Oak Tree Centre/King’s Community Church, Tame Road, Oldbury, England, B68 0JP","title":"The Oak Tree Centre","url":"https://www.oaktreecentre.co.uk"},"type":"Feature"},
		{"geometry":{"coordinates":[-2.05979,52.33288],"type":"Point"},"properties":{"_source":"warm_spaces","address":"Bromsgrove Baptist Church, New Road, Bromsgrove, England, B60 2JD","title":"Bromsgrove Baptist Church","url":"https://www.bromsgrove-baptists.org.uk"},"type":"Feature"}
	]
}
