{
	"type": "FeatureCollection",
	"features": [
		{"geometry":{"coordinates":[-2.08125,51.89071],"type":"Point"},"properties":{"_source":"warm_welcome","address":"Great Norwood Street, Cheltenham, Gloucestershire GL50 2AP","description":"Open from 9/11/22.","hours":"We 10:00-16:00","title":"Bethesda Church Cheltenham"},"type":"Feature"},
		{"geometry":{"coordinates":[-2.05910,51.94597],"type":"Point"},"properties":{"_source":"warm_welcome","address":"Bishops Cleeve Library, Tobyfield Road, Cheltenham GL52 8NN","description":"","hours":"Mo 13:00-17:00, Tu 13:00-17:00, We 10:00-17:00, Th 09:00-17:00, Fr 09:00-17:00, Sa 09:00-15:00","title":"Bishops Cleeve Library"},"type":"Feature"},
		{"geometry":{"coordinates":[-1.85666,52.04270],"type":"Point"},"properties":{"_source":"warm_welcome","address":"Leamington Road, Broadway, Worcestershire WR12 7DZ","description":"","hours":"Mo 09:30-16:30, We 09:30-16:30, Sa 09:30-13:00","title":"Broadway Library"},"type":"Feature"},
		{"geometry":{"coordinates":[-2.07356,51.89932],"type":"Point"},"properties":{"_source":"warm_welcome","address":"Cambray Baptist Church, Cheltenham, Glocuestershire GL50 1JS","description":"","hours":"Fr 12:00-14:00","title":"Cambray Baptist Church"},"type":"Feature"},
		{"geometry":{"coordinates":[-2.05593,51.88868],"type":"Point"},"properties":{"_source":"warm_welcome","address":"Holy Apostles Church, London Road, Cheltenham, Gloucestershire GL52 6HW","description":"","hours":"Tu 09:00-15:00","title":"Holy Apostles Church"},"type":"Feature"},
		{"geometry":{"coordinates":[-2.07356,51.89708],"type":"Point"},"properties":{"_source":"warm_welcome","address":"39 Bath Road, Cheltenham, Glos GL53 7HG","description":"Open from 2-11-2022.","hours":"Tu 13:00-16:00, Th 13:00-16:00","title":"Salvation Army Community Church Cheltenham"},"type":"Feature"},
		{"geometry":{"coordinates":[-2.07955,51.90713],"type":"Point"},"properties":{"_source":"warm_welcome","address":"St Paul's Rd, Cheltenham, Gloucestershire GL50 4EZ","description":"Open from Monday-Saturday. We are Dog friendly ","hours":"Mo 09:00-16:00, Tu 09:00-16:00, We 09:00-16:00, Th 09:00-16:00, Fr 09:00-16:00, Sa 10:00-16:00","title":"School House Cafe"},"type":"Feature"},
		{"geometry":{"coordinates":[-2.10625,51.90809],"type":"Point"},"properties":{"_source":"warm_welcome","address":"Orchard Way, Cheltenham, Glos GL51 7JY","description":" \"Tea & Toast\" is open during term time. Hot drinks, cold drinks and toast available to all. For free.","hours":"Fr 08:30-10:00","title":"St Barnabas Church"},"type":"Feature"},
		{"geometry":{"coordinates":[-2.07850,51.90119],"type":"Point"},"properties":{"_source":"warm_welcome","address":"St Matthew's Church, Clarence Street, Cheltenham, Gloucestershire GL50 3PL","description":"","hours":"Sa 11:00-12:30","title":"St Matthew's Saturday Kitchen"},"type":"Feature"},
		{"geometry":{"coordinates":[-2.09874,51.90430],"type":"Point"},"properties":{"_source":"warm_spaces","address":"Unit 3, St Georgeâ€™s Business Park, Alstone Lane, Cheltenham, England, GL51","title":"Cheltenham Open Door","url":"https://Www.Cheltenhamopendoor.org.uk"},"type":"Feature"},
		{"geometry":{"coordinates":[-1.75894,51.88606],"type":"Point"},"properties":{"_source":"warm_spaces","address":"St Lawrence&#39;s Church, The Rectory, School Hill, Bourton-on-the-Water, Cheltenham, England, GL54 2AW","title":"St Lawrence Church","url":"https://www.bourtonparishchurch.co.uk"},"type":"Feature"}
	]
}
