{
	"type": "FeatureCollection",
	"features": [
		{"geometry":{"coordinates":[-1.87724,50.74943],"type":"Point"},"properties":{"_source":"warm_welcome","address":"Life Centre, 711-715 Wimborne Road,, Bournemouth, Dorset BH9 2AU","description":" Our warm welcome hub is called 'Lifehouse' and has been in operation for around 14years now. We are also a foodbank and signposting agency and offer Community Money Advice help. We are a warm friendly space where you can just drop in for a drink and chat","hours":"Mo 10:00-12:30; Tu 10:00-12:30; We 10:00-12:30; Th 10:00-12:30; Fr 10:00-12:30","title":"Bournemouth Community Church"},"type":"Feature"},
		{"geometry":{"coordinates":[-1.95408,50.78644],"type":"Point"},"properties":{"_source":"warm_welcome","address":"Canford Magna Church Centre, Canford Magna, Dorset BH21 3AF","description":"Our focus is providing a warm spaces for families with children but all are welcome. Chilli Tuesday - warm space, hot food and time together. Free meal of either meat or vegan chilli and warm, welcoming space afterschool to play games as a family or get homework and reading done. ","hours":"Tu 16:00-18:00","title":"Canford Magna Parish Church"},"type":"Feature"},
		{"geometry":{"coordinates":[-1.78038,50.73709],"type":"Point"},"properties":{"_source":"warm_welcome","address":"Bargates, Christchurch, Dorset BH23 1QT","hours":"Th 10:00-12:00","title":"Christchurch Baptist Church"},"type":"Feature"},
		{"geometry":{"coordinates":[-1.86938,50.73896],"type":"Point"},"properties":{"_source":"warm_welcome","address":"Heron Court Road, Bournemouth, Dorset BH9 1DE","description":"","hours":"We 09:30-12:00","title":"Faithworks Wessex"},"type":"Feature"},
		{"geometry":{"coordinates":[-1.79034,50.92767],"type":"Point"},"properties":{"_source":"warm_welcome","address":"Fordingbridge Library, Roundhill, Fordingbridge SP6 1AQ","description":" Warm event every Tuesday 2pm-4pm. Come along to the library for a warm welcome to play games, do puzzles and enjoy a warm drink.","hours":"Tu 09:30-17:00; We 09:30-17:00; Fr 09:30-17:00; Sa 09:30-13:30","title":"Fordingbridge Library- Hampshire Libraries"},"type":"Feature"},
		{"geometry":{"coordinates":[-1.87948,50.74529],"type":"Point"},"properties":{"_source":"warm_welcome","address":"Hawthorn Road, Winton, Bournemouth , Dorset BH9 2QL","description":"Open from The Hope Hub is already open. We cater for all ages and have a small play area for children The Hope Hub cafe offers subsidised food and hot drinks ","hours":"We 10:30-14:00; Th 10:30-14:00","title":"Hope Community Church "},"type":"Feature"},
		{"geometry":{"coordinates":[-1.87701,50.81928],"type":"Point"},"properties":{"_source":"warm_welcome","address":"90 Pinehurst Road, West Moors, Dorset BH22 0AR","description":" Open from 03-11-2022.","hours":"Th 13:00-17:00","title":"Pinehurst Community Church"},"type":"Feature"},
		{"geometry":{"coordinates":[-1.78878,50.84459],"type":"Point"},"properties":{"_source":"warm_welcome","address":"Ringwood Library, Christchurch Road, Ringwood BH24 1DW","description":" Warm event every Thursday 10am-1pm. Come along to the library for a warm welcome to play games, do puzzles and enjoy a warm drink.","hours":"Tu 09:30-17:00; We 09:30-17:00; Th 09:30-17:00; Sa 09:30-13:30","title":"Ringwood Library- Hampshire Libraries"},"type":"Feature"},
		{"geometry":{"coordinates":[-1.89656,50.80294],"type":"Point"},"properties":{"_source":"warm_welcome","address":"Church Road, Ferndown, Dorset BH22 9EU","description":"Open to everyone in particular young families and the elderly.","hours":"Mo 09:30-16:00; Tu 09:30-16:00; We 09:30-16:00; Th 09:30-16:00; Fr 09:30-16:00","title":"St Mary's Church, BH22 9EU"},"type":"Feature"},
		{"geometry":{"coordinates":[-1.88818,50.75551],"type":"Point"},"properties":{"_source":"warm_welcome","address":"2 Western Avenue, Ensbury Park, Bournemouth BH10 5BN","description":"Open from 02-11-2022.","hours":"We 09:00-16:00; Fr 07:45-11:00","title":"St. Thomas' Church, Ensbury Park"},"type":"Feature"},
		{"geometry":{"coordinates":[-1.98572,50.80081],"type":"Point"},"properties":{"_source":"warm_welcome","address":"Allendale Community Centre, Wimborne, Dorset BH211AS","description":"","hours":"Mo 08:30-18:00; Tu 08:30-18:00; We 08:30-18:00; Th 08:30-18:00; Fr 08:30-18:00; Sa 09:00-17:00; Su 09:00-17:00","title":"The allendale community centre"},"type":"Feature"},
		{"geometry":{"coordinates":[-1.78986,50.92742],"type":"Point"},"properties":{"_source":"warm_welcome","address":"1 High Street, Fordingbridge , Hampshire Sp6 1AS","description":"","hours":"Tu 01:30-15:00; We 10:00-12:00","title":"The Branch (NLCC)"},"type":"Feature"},
		{"geometry":{"coordinates":[-2.00512,50.74183],"type":"Point"},"properties":{"_source":"warm_welcome","address":"The Hub Cafe @ Christ Church Creekmoor, Creekmoor, Poole BH17 7XZ","description":"Open from 22/11/2022. We're a safe, warm space for anyone who might need it, for any reason at all. The cafe is open for purchasing food and drink if you'd like, but there is no obligation whatsosever to do so! Indoor childrens play equipment is available, and all are welcome. ","hours":"Mo 09:30-14:00; Tu 09:30-14:00; We 09:30-14:00; Th 09:30-14:00; Fr 09:30-14:00","title":"The Hub @ Christ Church Creekmoor"},"type":"Feature"},
		{"geometry":{"coordinates":[-1.88029,50.74601],"type":"Point"},"properties":{"_source":"warm_welcome","address":"Edgehill Road, Bournemouth, Dorset BH9 2QG","description":"We are an intergenerational cafe where all are welcomeWe have a children's corner with toys, books and crafts","hours":"Tu 09:00-16:00; We 09:00-16:00; Th 09:00-16:00; Fr 09:00-16:00","title":"The Welcome Inn Cafe - Bournemouth Methodist Church"},"type":"Feature"},
		{"geometry":{"coordinates":[-1.97982,50.79618],"type":"Point"},"properties":{"_source":"warm_welcome","address":"Wimborne Baptist Church Grove rd , Wimborne , DORSET BH21 1BW","description":"Open from 16th November . We have a quite place for students to do homework with wifi","hours":"We 15:00-19:00","title":"WIMBORNE BAPTIST CHURCH "},"type":"Feature"},
		{"geometry":{"coordinates":[-1.98743,50.79888],"type":"Point"},"properties":{"_source":"warm_welcome","address":"Church House, High Street, Wimborne, Dorset BH21 1HT","description":"","hours":"Mo 10:00-16:00; Tu 10:00-16:00; We 10:00-16:00; Th 10:00-16:00; Fr 10:00-16:00; Sa 10:00-16:00","title":"Wimborne Minster"},"type":"Feature"},
		{"geometry":{"coordinates":[-1.87828,50.74554],"type":"Point"},"properties":{"_source":"warm_welcome","address":"574 Wimborne Road, Bournemouth, Dorset BH9 2ER","description":"","hours":"Sa 10:00-12:00","title":"Winton Christadelphian Church"},"type":"Feature"}
	]
}
