{
	"type": "FeatureCollection",
	"features": [
		{"geometry":{"coordinates":[-1.96011,50.62200],"type":"Point"},"properties":{"_source":"warm_welcome","address":"ulwell road, Swanage, Dorset bh19 1lg","description":"generally visitors are more elderly but all are welcome Coffee Pot is open to public offering refreshments (you can make a donation) and ofter some gentle activity but usually a chance to chat & relax. There is lunch (soup & Bread, sausage roll type) and in afternoon a chance to spread out and relax. ","hours":"Th 10:30-15:00","title":"All Saints Church Coffee Pot"},"type":"Feature"},
		{"geometry":{"coordinates":[-1.77586,50.73467],"type":"Point"},"properties":{"_source":"warm_welcome","address":"Millhams Street, Christchurch, Dorset BH23 1DN","description":"Open from 06-12-2022.","hours":"Tu 11:00-02:00","title":"Christchurch Christian Centre"},"type":"Feature"},
		{"geometry":{"coordinates":[-1.94399,50.72919],"type":"Point"},"properties":{"_source":"warm_welcome","address":"Gateway Church, 502 Ashley Road, Poole, Dorset BH14 0AD","description":" Term Time only. We also have cake! We can also signpost people to further help and support","hours":"Th 10:00-13:00, Fr 10:00-13:00","title":"Gatehouse"},"type":"Feature"},
		{"geometry":{"coordinates":[-1.80875,50.72507],"type":"Point"},"properties":{"_source":"warm_welcome","address":"120 Southbourne Road , Southbourne , Bournemouth BH63QJ","description":"We cater for all ages , but we have a growing focus on elderly groups and those people struggling with dementia We have a lovely soft play area for under 5's","hours":"Mo 09:00-15:00, Tu 09:00-14:30, We 09:00-15:00, Th 09:00-15:00, Fr 09:00-15:00","title":"Jubilatte cafe "},"type":"Feature"},
		{"geometry":{"coordinates":[-1.94399,50.72924],"type":"Point"},"properties":{"_source":"warm_spaces","address":"502 Ashley Road, Poole, England, BH12 3BL","title":"Gatehouse","url":"https://www.gatewaychurch.me/gatehouse"},"type":"Feature"}
	]
}
