{
	"type": "FeatureCollection",
	"features": [
		{"geometry":{"coordinates":[-5.89883,54.40369],"type":"Point"},"properties":{"_source":"warm_welcome","address":"Lisburn Road, Ballynahinch, Down BT24 8BD","description":"This is a warm and friendly atmosphere where people can join in the crafts and conversation or simply sit and do a crossword. ALL ARE WELCOME. Enter through the side doors at the car park.","hours":{"_text":"Thursday: 14:00 - 17:00","opening":"Th 14:00-17:00"},"title":"Ballynahinch Methodist Church"},"type":"Feature"},
		{"geometry":{"coordinates":[-5.94708,54.53639],"type":"Point"},"properties":{"_source":"warm_welcome","address":"107 Ballylesson Road, Ballylesson , Belfast BT8 8JT","hours":{"_text":"Monday: 10:30 - 11:30, Tuesday: 11:00 - 12:00, Sunday: 11:00 - 12:00","opening":"Mo 10:30-11:30; Tu 11:00-12:00; Su 11:00-12:00"},"title":"Holy Trinity Ballylesson, Church of Ireland"},"type":"Feature"},
		{"geometry":{"coordinates":[-5.90410,54.57167],"type":"Point"},"properties":{"_source":"warm_welcome","address":"60-66 Rosetta Road, Belfast BT60LU","hours":{"_text":"Thursday: 14:00 - 17:00","opening":"Th 14:00-17:00"},"title":"Knockbreda Methodist Church"},"type":"Feature"},
		{"geometry":{"coordinates":[-5.90114,54.57081],"type":"Point"},"properties":{"_source":"warm_spaces","address":"60 Rosetta Road, Belfast, Northern Ireland, BT6, United Kingdom","description":"Free Food/Drink, Free Wi-Fi, Device Charging, People to chat to, Wheelchair Accessible, Toilets, Accessible Toilet, Parking, Child Friendly, Computer Access","hours":{"_text":"Thursday 2pm-5 pm","opening":"Th 14:00-05:00"},"title":"Knockbreda Methodist Church","url":"https://www.knockbredamethodist.org"},"type":"Feature"},
		{"geometry":{"coordinates":[-5.89831,54.40229],"type":"Point"},"properties":{"_source":"warm_spaces","address":"Lisburn Street, Ballynahinch, Northern Ireland, BT24 8BD, United Kingdom","description":"Free Food/Drink, Free Wi-Fi, Device Charging, Advice, People to chat to, Space to work, Wheelchair Accessible, Toilets, Accessible Toilet, Parking, Child Friendly","hours":{"_text":"Thursday 2pm-4 pm","opening":"Th 14:00-04:00"},"title":"Ballynahinch Methodist Church","url":"https://www.ballynahinchmethodist.org/page.php?id=1"},"type":"Feature"}
	]
}
