{
	"type": "FeatureCollection",
	"features": [
		{"geometry":{"coordinates":[-4.75938,55.94608],"type":"Point"},"properties":{"_source":"warm_welcome","address":"Roxbourgh Street, Greenock, Inverclyde PA15 4NP","description":"A place to enjoy a hot drink, breakfast rolls and later soup and toasties. We have newspapers, games and activities. Donations welcome","hours":{"_text":"Tuesday: 10:00 - 12:30","opening":"Tu 10:00-12:30"},"title":"Greenock Salvation Army Community Cafe"},"type":"Feature"},
		{"geometry":{"coordinates":[-4.69079,55.93455],"type":"Point"},"properties":{"_source":"warm_welcome","address":"New Parish Church Port Glasgow, Port Glasgow, Inverclyde PA14 5JD","description":"This is a social enterprise project which offers hot food and a warm, safe environment to all members of the community. It is a pay what you can and offers home made soup, toasties, cake and tea for a minimal cost","hours":{"_text":"Friday: 10:30 - 01:30","opening":"Fr 10:30-01:30"},"title":"New Parish Church Port Glasgow Chatty Cafe"},"type":"Feature"},
		{"geometry":{"coordinates":[-4.57259,55.94483],"type":"Point"},"properties":{"_source":"west_dunbartonshire_council","address":"2 Risk St, , Dumbarton , G82 1SE","description":"Providing a warm hub and a free bowl of soup.","hours":{"_text":"<p>Tuesday Soup Spot<br />midday - 1.30pm</p>"},"loc_pcd":true,"title":"Lennox Evangelical Church"},"type":"Feature"},
		{"geometry":{"coordinates":[-4.58730,55.95107],"type":"Point"},"properties":{"_source":"west_dunbartonshire_council","address":"17a Quarry Knowe, Dumbarton , G82 5AF","description":"Donation café – pay what you can.","hours":{"_text":"<p>Tuesday Morning Breakfast Club</p><p>Wednesday and Thursday Lunch Club<br />midday - 1.30pm</p>"},"loc_pcd":true,"title":"Phoenix"},"type":"Feature"},
		{"geometry":{"coordinates":[-4.58542,55.94792],"type":"Point"},"properties":{"_source":"west_dunbartonshire_council","address":"7 Cardross Road Dumbarton G82 4JE","description":"Tea &amp; cakes","hours":{"_text":"Wednesdays 1.30pm - 2.30pm","opening":"We 13:30-14:30"},"loc_pcd":true,"title":"St Michael&apos;s RC Church hall"},"type":"Feature"}
	]
}
