{
	"type": "FeatureCollection",
	"features": [
		{"geometry":{"coordinates":[-3.37552,55.98160],"type":"Point"},"properties":{"_source":"warm_welcome","address":"22 Main Street , Dalmeny, Edinburgh Eh30 9TT","description":"All welcome Cafe on tues and Friday . Lunch club on Thursdays . Kids activities under 5 tues am ","hours":"Tu 09:15-14:15, Th 09:15-14:15, Fr 09:15-12:15, Su 10:30-13:00","title":"Dalmeny Kirk "},"type":"Feature"},
		{"geometry":{"coordinates":[-3.22406,55.97598],"type":"Point"},"properties":{"_source":"warm_welcome","address":"55 Boswall Parkway, Edinburgh, Scotland EH5 2DA","description":"Open from 01/11/2022.","hours":"Th 10:00-11:00, Fr 12:00-13:00, Su 11:30-12:30","title":"Granton Parish Church"},"type":"Feature"},
		{"geometry":{"coordinates":[-3.39710,55.98851],"type":"Point"},"properties":{"_source":"warm_welcome","address":"26 The Loan, South Queensferry, Edinburgh EH30 9NS","description":"Open from 31 October 2022. We cater for everyone","hours":"Mo 10:00-14:00, We 10:00-14:00, Su 09:30-11:30","title":"Queensferry Parish Church"},"type":"Feature"},
		{"geometry":{"coordinates":[-3.22404,55.97814],"type":"Point"},"properties":{"_source":"warm_welcome","address":"36, Wardieburn Drive , Edinburgh EH5 1BZ","description":"Disability Confident Free Community Cafe and Digital Skills Centre ","hours":"Mo 10:00-14:00, We 10:00-14:00, Fr 11:00-13:00","title":"The Salvation Army - East Scotland Division"},"type":"Feature"},
		{"geometry":{"coordinates":[-3.31037,56.12564],"type":"Point"},"properties":{"_source":"warm_spaces","address":"82 Main Street, Lochgelly, Scotland, KY5 9AA","title":"Warm Place @ St Serf's"},"type":"Feature"}
	]
}
