{
	"type": "FeatureCollection",
	"features": [
		{"geometry":{"coordinates":[-3.50251,55.89345],"type":"Point"},"properties":{"_source":"warm_welcome","address":"44 Etive Walk , Craigshill , Livingston, West Lothian EH54 5AB","description":"We cater for Almond Housing Association tenants and the wider Craigshill community. ","hours":"Tu 10:00-15:00; We 10:00-15:00; Th 10:00-15:00; Fr 13:00-15:00","title":"Almond Housing Association "},"type":"Feature"},
		{"geometry":{"coordinates":[-3.21468,55.95336],"type":"Point"},"properties":{"_source":"warm_welcome","address":"1 Queensferry Road, Edinburgh EH4 3DJ","description":"Open from 21-11-2022.","hours":"Mo 13:15-14:30; Th 13:15-14:30","title":"Bristo Baptist Church"},"type":"Feature"},
		{"geometry":{"coordinates":[-3.20409,55.94379],"type":"Point"},"properties":{"_source":"warm_welcome","address":"2 West Tollcross, Edinburgh EH3 9BP","description":" We are a church cafe to which everyone is welcome. Drinks are on a free/pay what you can basis, and we also offer affordable cakes and soup.","hours":"Mo 10:00-16:00; Tu 10:00-16:00","title":"Central Church cafe Edinburgh"},"type":"Feature"},
		{"geometry":{"coordinates":[-3.18258,55.94736],"type":"Point"},"properties":{"_source":"warm_welcome","address":"The Salvation Army, 1 East Adam Street, Edinburgh EH8 9TF","description":"Open from 03-11-2022. Our 'Toasty' cafe is open from 10am-2.30pm serving simple hot food and drinks. Debt Advice Service and Digital Skills Training Service also running at the same time.","hours":"Th 10:00-14:30","title":"Edinburgh City Salvation Army"},"type":"Feature"},
		{"geometry":{"coordinates":[-3.22228,55.82746],"type":"Point"},"properties":{"_source":"warm_welcome","address":"42 John St., , Penicuik, Scotland / Midlothian Eh268ab","description":"","hours":"Mo 10:30-15:00; Tu 10:00-15:00; We 10:00-15:00; Th 10:00-15:00; Fr 10:30-15:00; Sa 11:00-13:00","title":"Food Facts friends Community Hub "},"type":"Feature"},
		{"geometry":{"coordinates":[-3.40288,55.95364],"type":"Point"},"properties":{"_source":"warm_welcome","address":"Kirkliston Community Church, Kirkliston, Edinburgh EH29 9AB","description":"","hours":"Th 09:30-11:15; Su 10:30-12:30","title":"Kirkliston Community Church"},"type":"Feature"},
		{"geometry":{"coordinates":[-3.46373,55.89495],"type":"Point"},"properties":{"_source":"warm_welcome","address":"East Calder Church Hall, , Manse Court,, East Calder, EH53 0EN","description":"We cater for any age. Trained listeners are available to arrange formal listening sessions if someone has anything that is worrying them that they would like to talk about. In our warm space you will find company and games. Pop in for as little or as long as suits. There’s plenty Hot soup, rolls and hot drinks! Children's corner set up. Quiet room available.","hours":"Mo 11:00-15:00; Th 11:00-15:00","title":"KNEC Community Listening Project "},"type":"Feature"},
		{"geometry":{"coordinates":[-3.22339,55.91191],"type":"Point"},"properties":{"_source":"warm_welcome","address":"71 Firrhill Drive, Edinburgh, Edinburgh EH13 1EU","description":"Open from 07/11/2022. We thrive on our motto 'We are a Centre for All' We are a very welcoming Community Centre in Edinburgh. Oxgangs is often described as a deprived area but that doesn't stop it from being a vibrant community. We have many activities taking place and a well used cafe. ","hours":"Mo 09:00-17:00; Tu 09:00-17:00; We 09:00-17:00; Th 09:00-17:00; Fr 09:00-17:00","title":"Oxgangs Neighbourhood Centre SCIO"},"type":"Feature"},
		{"geometry":{"coordinates":[-3.30335,55.96055],"type":"Point"},"properties":{"_source":"warm_welcome","address":"565 queensferry road , Edinburgh EH48DU","description":"As a business out focus is on catering for the elderly, however all are welcome. Queens Manor is a residential care home in Edinburgh - our doors are open to help the local community and provide a safe, warm and welcome environment.","hours":"Mo 14:00-17:00; Tu 14:00-17:00; We 14:00-17:00; Th 14:00-17:00; Fr 14:00-17:00","title":"Queens Manor Care Home - Barchester health care "},"type":"Feature"},
		{"geometry":{"coordinates":[-3.17866,55.95828],"type":"Point"},"properties":{"_source":"warm_welcome","address":"12 Hillside Crescent, Edinburgh, Edinburgh EH7 5EA","description":"","hours":"Mo 10:30-04:30; Tu 10:30-04:30; We 10:30-04:30; Th 10:30-04:30; Fr 10:30-04:30","title":"RNIB"},"type":"Feature"},
		{"geometry":{"coordinates":[-3.25248,55.90642],"type":"Point"},"properties":{"_source":"warm_welcome","address":"Westgarth Avenue, Edinburgh, Edinburgh Eh13 0bb","description":" Coffee and cake, third Thursday of the month","title":"St Cuthbert’s Episcopal Church"},"type":"Feature"},
		{"geometry":{"coordinates":[-3.22826,55.93655],"type":"Point"},"properties":{"_source":"warm_welcome","address":"1 Slateford Road, Edinburgh EH11 1NX","description":"","hours":"Tu 09:00-17:00","title":"St Michael's Parish Church"},"type":"Feature"},
		{"geometry":{"coordinates":[-3.30179,55.94145],"type":"Point"},"properties":{"_source":"warm_welcome","address":"75-79 Glasgow Road, Edinburgh, Midlothian EH12 8LJ","hours":"Th 10:00-12:00","title":"ST THOMAS' CHURCH, EDINBURGH"},"type":"Feature"},
		{"geometry":{"coordinates":[-3.28510,55.94302],"type":"Point"},"properties":{"_source":"warm_welcome","address":"144 St. John's Road, Corstorphine, Edinburgh EH12 8RZ","description":"Open from 01/11/22. All are welcome Cosy Corner is accessible from St. John's Road. A warm room, a warm welcome, and a warm drink awaits you.","hours":"Mo 10:00-13:00; Tu 10:00-13:00; Th 10:00-13:00; Su 10:00-13:00","title":"St. Ninian's Parish Church, Corstorphine, Edinburgh"},"type":"Feature"},
		{"geometry":{"coordinates":[-3.23689,55.94689],"type":"Point"},"properties":{"_source":"warm_welcome","address":"13a Murrayfield Avenue, Edinburgh, City of Edinburgh EH12 6AU","description":"","hours":"We 12:00-18:00","title":"The Church of the Good Shepherd"},"type":"Feature"},
		{"geometry":{"coordinates":[-3.21296,55.95834],"type":"Point"},"properties":{"_source":"warm_spaces","address":"2 Cheyne Street, Edinburgh, Scotland, EH4 1JB","title":"LifeCare - Edinburgh","url":"https://www.lifecare-edinburgh.org.uk"},"type":"Feature"}
	]
}
