{
	"type": "FeatureCollection",
	"features": [
		{"geometry":{"coordinates":[-3.18079,54.15635],"type":"Point"},"properties":{"_source":"warm_welcome","address":"Market Street , Dalton-in-Furness, Cumbria LA15 8RQ","description":"Open from 26/10/2022.","hours":"We 14:00-15:30","title":"Dalton Community Church, Dalton-in-Furness, Cumbria"},"type":"Feature"},
		{"geometry":{"coordinates":[-3.22609,54.10971],"type":"Point"},"properties":{"_source":"warm_welcome","address":"2 Dalton Road, Barrow-in-furness, Cumbria LA14 2HD","description":" We have a dedicated space for babies/small children with toys","hours":"Fr 13:00-16:00","title":"Emmanuel Community Church"},"type":"Feature"},
		{"geometry":{"coordinates":[-3.21960,54.11109],"type":"Point"},"properties":{"_source":"warm_welcome","address":"100 Ramsden St , Barrow, Cumbria La14 2bt","description":"","hours":"Mo 09:00-17:00; Tu 09:00-17:00; We 10:00-17:00; Th 10:00-17:00; Fr 09:00-17:00; Sa 09:30-16:00; Su 10:00-16:30","title":"One Place "},"type":"Feature"},
		{"geometry":{"coordinates":[-3.21754,54.12109],"type":"Point"},"properties":{"_source":"warm_welcome","address":"19 Carlton Avenue , Barrow in Furness , Cumbria LA13 9AT","description":" There are a number of Methodist and URC churches across Barrow and Furness. All are welcome. See local website for opening times during the week","hours":"Su 10:00-12:00","title":"South West Cumbria United Area"},"type":"Feature"},
		{"geometry":{"coordinates":[-3.23544,54.11760],"type":"Point"},"properties":{"_source":"warm_welcome","address":"Blake Street, Barrow-in-Furness, Cumbria LA14 1NY","description":"We offer a friendly space for everyone. We offer some activities, or the chance to sit and and chat with others","hours":"Th 13:00-16:00","title":"St James Church "},"type":"Feature"},
		{"geometry":{"coordinates":[-3.22454,54.11527],"type":"Point"},"properties":{"_source":"warm_welcome","address":"St Marks Church, Buccleuch Street , Barrow-in-Furness, Cumbria LA141BZ","description":"","hours":"Mo 09:30-12:00; Tu 09:30-12:00; We 09:30-12:00; Th 09:30-12:00; Su 10:00-12:00","title":"St Marks church"},"type":"Feature"},
		{"geometry":{"coordinates":[-3.22816,54.11589],"type":"Point"},"properties":{"_source":"warm_welcome","address":"The Salvation Army, Abbey Road, , Barrow-in-Furness, Cumbria LA14 5UD","description":"Pasties and peas served on Wednesdays from 12-1pm.Free cuppa Soup, fruit, hot and cold drinks available. ","hours":"Tu 10:00-02:00; We 10:00-02:00; Th 10:00-02:00","title":"The Salvation Army in Barrow"},"type":"Feature"},
		{"geometry":{"coordinates":[-3.22681,54.11379],"type":"Point"},"properties":{"_source":"warm_welcome","address":"67-69 Cavendish Street, Barrow-in-Furness , Cumbria LA14 1QD","description":"We welcome everyone, but anyone struggling with a visual impairment will be able to learn more information about their condition and receive specialist advice from our support team ","hours":"Mo 09:30-13:00; We 09:30-13:00","title":"Vision Support Barrow & District "},"type":"Feature"},
		{"geometry":{"coordinates":[-3.25130,54.10401],"type":"Point"},"properties":{"_source":"warm_welcome","address":"Spring Mount Walney Community Hall, Amphitrite street, Walney, Barrow-in-Furness, , Cumbria LA14 3AR","description":"All ages welcome to sessions (other than toddler sessions). Monday and Saturday community meal and activities for children.We also have toddler groups Tuesday and Thursday morning 10-11.30","hours":"Mo 16:00-18:00; We 09:00-12:00; Sa 16:30-19:30","title":"Walney Community Trust"},"type":"Feature"},
		{"geometry":{"coordinates":[-3.18194,54.15796],"type":"Point"},"properties":{"_source":"warm_spaces","address":"Chapel Street, Dalton-in-Furness, England, LA15 8DA","title":"Dalton Leisure Centre","url":"https://www.daltonleisurecentre.co.uk"},"type":"Feature"},
		{"geometry":{"coordinates":[-3.23259,54.13773],"type":"Point"},"properties":{"_source":"warm_spaces","address":"Millstone Avenue, Barrow-in-Furness, England, LA14 4BP","title":"Ormsgill Community Centre","url":"https://m.facebook.com/Ormsgill-Stronger-Together-348227929844949/"},"type":"Feature"}
	]
}
