{
	"type": "FeatureCollection",
	"features": [
		{"geometry":{"coordinates":[-3.22376,51.69430],"type":"Point"},"properties":{"_source":"warm_welcome","address":"Pant Street, Aberbargoed, Caerphilly CF81 9BB","description":"Open from The Library closes for lunch between 13:00 and 14:00 hours.","hours":"Tu 09:30-18:00, We 09:30-17:00, Th 09:30-17:00","title":"Aberbargoed Library"},"type":"Feature"},
		{"geometry":{"coordinates":[-3.43217,51.64722],"type":"Point"},"properties":{"_source":"warm_welcome","address":"236-237 East Road, Tylorstown, Rhondda Cynon Taff CF43 3DA","description":" All welcome. Free food and drinks. Child friendly play area. Our building is fully insulated and warm.","hours":"Mo 09:30-13:30, Tu 09:30-13:30","title":"Acts Community Church/Rhondda Foodbank"},"type":"Feature"},
		{"geometry":{"coordinates":[-3.24559,51.77145],"type":"Point"},"properties":{"_source":"warm_welcome","address":"Tredegar Library, The Circle, Tredegar, Blaenau Gwent NP22 3PS","description":" The Library is closed for lunch between 1:00-2:00pm","hours":"Mo 09:00-17:30, Tu 09:00-17:30, We 09:00-17:30, Fr 09:00-17:30, Sa 09:00-01:00","title":"Aneurin Leisure Trust/ Blaenau Gwent Libraries"},"type":"Feature"},
		{"geometry":{"coordinates":[-3.18390,51.74125],"type":"Point"},"properties":{"_source":"warm_welcome","address":"Cwm Library Canning Street, Cwm, Ebbw Vale NP23 7RW","description":" Please note our library is closed between 1pm and 2pm for lunch","hours":"Tu 09:30-17:30, Th 09:30-17:30, Fr 09:30-17:30","title":"Aneurin Leisure Trust/Blaenau Gwent Libraries"},"type":"Feature"},
		{"geometry":{"coordinates":[-3.22874,51.69011],"type":"Point"},"properties":{"_source":"warm_welcome","address":"Bargoed Library, Hanbury Chapel, Bargoed, Caerphilly CF81 8QR","description":" Croeso i Bawb | All Welcome CADW 2* Safle Treftadaeth | CADW 2* Heritage Site","hours":"Mo 09:30-17:00, Tu 09:30-18:00, We 09:30-17:00, Th 09:30-17:00, Fr 09:30-18:00, Sa 09:30-16:00","title":"Bargoed Library (Caerphilly Libraries)"},"type":"Feature"},
		{"geometry":{"coordinates":[-3.19368,51.66420],"type":"Point"},"properties":{"_source":"warm_welcome","address":"192 High Street, Blackwood, Gwent NP12 1AJ","description":" Everyone welcome. We close between 13:00-14:00 for lunch Monday to Friday, open until 16:00 on Saturday, no lunch closure. You will need a Smartcard (library card) in order to use our public computers. It is free to join the library. ","hours":"Mo 09:30-17:00, Tu 09:30-18:00, We 09:30-17:00, Th 09:30-17:00, Fr 09:30-18:00, Sa 09:30-16:00","title":"Blackwood Library"},"type":"Feature"},
		{"geometry":{"coordinates":[-3.17433,51.79785],"type":"Point"},"properties":{"_source":"warm_welcome","address":"Brynmawr Learning Action Centre/Library, Market Square,, Brynmawr, Blaenau Gwent NP23 4AJ","description":" We are a friendly space where everyone is welcome. We have lots of resources from books, free computers, free WIFI, printing and photocopying, free refreshments and both areas for quiet reflection or areas where you can have a chat. Closed 1-2pm for lunch.","hours":"Mo 09:00-17:30, Tu 09:00-17:30, Th 09:00-17:30, Fr 09:00-17:30","title":"Blaenau Gwent Libraries - Brynmawr Library"},"type":"Feature"},
		{"geometry":{"coordinates":[-3.39928,51.68402],"type":"Point"},"properties":{"_source":"warm_welcome","address":"Community Link Building, Fernhill, Mountain Ash, Rhondda Cynon Taf CF45 3EW","description":"Open from 17/11/22. Our focus is over 16s We have a coffee morning where we have free tea, coffee, and toasties (donation basis), music playing, sofas, and toys available for kids. Come along, enjoy the warm, meet someone new or simply relax.","hours":"Th 10:30-12:00","title":"Cynon Valley Church"},"type":"Feature"},
		{"geometry":{"coordinates":[-3.41440,51.70382],"type":"Point"},"properties":{"_source":"warm_welcome","address":"2 Sion Terrace, Cwmbach, Aberdare CF44 0AS","description":"Over 16s There is a Coffee Morning that runs serving free refreshments, alongside a Clothes bank. SO come along, warm up, have a drink and why not grab a few items off the rail - all free!","hours":"Mo 10:00-12:00","title":"Cynon Valley Church Cornerstone"},"type":"Feature"},
		{"geometry":{"coordinates":[-3.20841,51.77848],"type":"Point"},"properties":{"_source":"warm_welcome","address":"Ebbw Vale Library, 21 Bethcar St, Ebbw Vale, Blaenau Gwent NP23 6HH","description":"","hours":"Mo 09:00-17:30, Tu 09:00-17:30, Th 09:00-17:30, Fr 09:00-17:30, Sa 09:00-13:00","title":"Ebbw Vale Library"},"type":"Feature"},
		{"geometry":{"coordinates":[-3.18091,51.65666],"type":"Point"},"properties":{"_source":"warm_welcome","address":"Newbridge Road , Pontllanfraith , Caerphilly NP12 2LB","description":"All ages welcome We have play equipment suitable for babies and toddlers","hours":"We 12:00-16:00","title":"Elim Baptist Church "},"type":"Feature"},
		{"geometry":{"coordinates":[-3.37763,51.74826],"type":"Point"},"properties":{"_source":"warm_welcome","address":"Hope Church, High Street, Merthyr Tydfil CF47 8UG","description":"Our focus is anyone over the age of 18. We have a selection of arts, crafts, board games, crochet, knitting felting. We have street level access & a lift to the basement area. ","hours":"Mo 10:00-11:30","title":"Hope Church Merthyr"},"type":"Feature"},
		{"geometry":{"coordinates":[-3.45610,51.62357],"type":"Point"},"properties":{"_source":"warm_welcome","address":"Units 1-2 Dunraven Street, Tonypandy, Rhondda Cynon Taf CF40 1AN","description":"Open from 07/11/22. We have a free Toddler session on Mondays 10-11.30am Relaxed space for people to enjoy a hot cuppa, simple snack and good conversation . ","hours":"Mo 12:30-15:30, We 12:30-15:30","title":"Hope Church Rhondda"},"type":"Feature"},
		{"geometry":{"coordinates":[-3.28202,51.65087],"type":"Point"},"properties":{"_source":"warm_welcome","address":"Commercial Street, Nelson, Caerphilly CF46 6NF","description":"We are closed for lunch between 13:00 and 14:00","hours":"Mo 09:30-18:00, We 09:30-18:00, Fr 09:30-17:00, Sa 09:30-13:00","title":"Nelson Library"},"type":"Feature"},
		{"geometry":{"coordinates":[-3.23559,51.71747],"type":"Point"},"properties":{"_source":"warm_welcome","address":"White Rose Resource Centre, Elliotstown, New Tredegar, Caerphilly NP24 6EF","description":"","hours":"Mo 09:30-13:00, We 09:30-13:00, Th 09:30-13:00, Fr 09:30-13:00","title":"New Tredegar Library - Caerphilly Library Service"},"type":"Feature"},
		{"geometry":{"coordinates":[-3.17903,51.67886],"type":"Point"},"properties":{"_source":"warm_welcome","address":"Cwrt Cwmderwen, Oakdale, Blackwood NP12 0HN","description":" Closed at lunchtime 13:00-14:00","hours":"Tu 09:30-18:00, We 09:30-17:00, Fr 09:30-17:00","title":"Oakdale Library"},"type":"Feature"},
		{"geometry":{"coordinates":[-3.28357,51.75963],"type":"Point"},"properties":{"_source":"warm_welcome","address":"Rhymney Library, Victoria Road, Rhymney, CCBC NP22 5NU","description":" The library is closed for lunch 1pm-2pm Monday-Friday.","hours":"Mo 09:30-18:00, Tu 09:30-17:00, We 09:30-18:00, Th 09:30-17:00, Fr 09:30-17:00","title":"Rhymney Library"},"type":"Feature"},
		{"geometry":{"coordinates":[-3.24558,51.77730],"type":"Point"},"properties":{"_source":"warm_welcome","address":"St George’s Church, Tredegar, Blaenau Gwent NP22 3DU","description":"Open for all. Children under 16 would need to be accompanied by an adult. Soup and dessert available on a Wednesday. Thursdays are crochet kindness cafe with hot drinks available and a biscuit. ","hours":"We 18:00-20:00, Th 19:30-21:30, Su 09:30-12:00","title":"St George’s Church "},"type":"Feature"},
		{"geometry":{"coordinates":[-3.28724,51.65138],"type":"Point"},"properties":{"_source":"warm_welcome","address":"St John's Church Hall, Nelson, Treharris CF46 6HA","hours":"Mo 09:30-12:00, Tu 09:30-12:00, We 09:30-12:00, Th 09:30-12:00, Fr 09:30-12:00, Su 09:00-11:00","title":"Taff Bargoed Foodbank | Nelson"},"type":"Feature"},
		{"geometry":{"coordinates":[-3.30514,51.66487],"type":"Point"},"properties":{"_source":"warm_welcome","address":"St Matthias Church Hall, Bargoed Terrace, Treharris CF46 5RB","hours":"Tu 10:00-12:00, Th 10:00-12:00, Su 10:30-12:00","title":"Taff Bargoed Foodbank | Treharris"},"type":"Feature"},
		{"geometry":{"coordinates":[-3.17459,51.79891],"type":"Point"},"properties":{"_source":"warm_spaces","address":"Tabor Centre, Davies Street, Ebbw Vale, Wales, NP23 4AD","title":"Valleys Family Church","url":"https://en-gb.facebook.com/valleysfamilychurch/"},"type":"Feature"},
		{"geometry":{"coordinates":[-3.17661,51.67965],"type":"Point"},"properties":{"_source":"warm_spaces","address":"Markham Crescent, Blackwood, Wales, NP12","title":"Oakdale Baptist Chapel","url":"https://www.facebook.com/oakdalebaptistchurch100/"},"type":"Feature"},
		{"geometry":{"coordinates":[-3.39910,51.68416],"type":"Point"},"properties":{"_source":"warm_spaces","address":"Community Link Building, Fernhill, Mountain Ash, Wales, CF45 3EW","title":"Cynon Valley Church","url":"https://www.instagram.com/cvcelim/?hl=en"},"type":"Feature"},
		{"geometry":{"coordinates":[-3.45615,51.62356],"type":"Point"},"properties":{"_source":"warm_spaces","address":"2 Dunraven Street, Tonypandy, Wales, CF40 1QE","title":"Hope Church Rhondda","url":"https://www.hopechurchrhondda.org.uk"},"type":"Feature"}
	]
}
