{
	"type": "FeatureCollection",
	"features": [
		{"geometry":{"coordinates":[-3.26745,51.39243],"type":"Point"},"properties":{"_source":"warm_welcome","address":"Friars Road, Barry, Vale of Glamorgan CF62 5TR","description":"Open from 03112022.","hours":"Th 13:00-15:00","title":"Barry Island Community Centre/New Life Church Barry"},"type":"Feature"},
		{"geometry":{"coordinates":[-3.48271,51.20639],"type":"Point"},"properties":{"_source":"warm_welcome","address":"Parks Lane, Minehead, Somerset TA24 8BS","description":" Open on Sundays for our Sunday Worship Service, Open Wednesday and Thursday for Oasis Cafe","hours":"We 09:00-13:00; Th 09:00-13:00; Su 09:30-12:30","title":"Minehead Baptist Church"},"type":"Feature"},
		{"geometry":{"coordinates":[-3.47760,51.20499],"type":"Point"},"properties":{"_source":"warm_welcome","address":"Bancks Street, Minehead, Somerset TA24 5DG","description":"Wherever you are on lifeâ€™s journey you are welcome. We have hot drinks, biscuits and sometimes cake after our Sunday morning service. Sometimes our services are held in the church hall. ","hours":"We 10:30-12:00; Th 14:30-16:00; Sa 10:30-12:00; Su 10:30-12:00","title":"Minehead United Reformed Church"},"type":"Feature"},
		{"geometry":{"coordinates":[-3.47305,51.19856],"type":"Point"},"properties":{"_source":"warm_welcome","address":"The Hub, Hopcott Road , Minehead, Somerset TA24 6DJ","description":"","hours":"Mo 10:30-13:00; Tu 12:30-15:00; Th 12:30-15:00","title":"The Hub, part of Minehead Baptist Church"},"type":"Feature"},
		{"geometry":{"coordinates":[-3.33010,51.18065],"type":"Point"},"properties":{"_source":"warm_welcome","address":"38 Swain Street, Watchet, Somerset TA23 0AE","description":"","hours":"We 14:00-17:00; Fr 14:00-19:00","title":"Watchet Baptist Church"},"type":"Feature"},
		{"geometry":{"coordinates":[-3.32939,51.18202],"type":"Point"},"properties":{"_source":"warm_welcome","address":"1 The Esplanade, Watchet, Somerset Ta23 0AJ","description":"","hours":"Mo 14:00-16:30; Tu 10:30-13:00; Th 10:30-13:00; Fr 14:00-16:30; Sa 10:30-13:00","title":"Watchet Library"},"type":"Feature"}
	]
}
