{
	"type": "FeatureCollection",
	"features": [
		{"geometry":{"coordinates":[-0.41530,53.84968],"type":"Point"},"properties":{"_source":"warm_welcome","address":"Adult Learning Centre, Burden Rd, Beverley, East Yorkshire HU17 9LW","description":"We're an Adult only space. We're open as a welcoming space once a week bringing a morning of coffee, tea, biscuits and the opportunity to socialise with other like-minded people. We're also offering an afternoon of activities you're welcome to stay for too.","hours":"Tu 09:00-13:00","title":"Beverley Adult Learning Centre"},"type":"Feature"},
		{"geometry":{"coordinates":[-0.42009,53.84155],"type":"Point"},"properties":{"_source":"warm_welcome","address":"The Armstrong Centre, Grovehill Road, Beverley HU17 0ED","description":" On Mondays, we have a Warm Welcome Space in our Main Hall. The additional times, our Cafe is open which offers a Pay It Forward option to provide funded meals.","hours":"Mo 11:00-13:00; Tu 09:30-14:00; We 09:30-14:00; Th 09:30-14:00; Fr 09:30-14:00; Sa 09:30-16:00","title":"Beverley Baptist Church"},"type":"Feature"},
		{"geometry":{"coordinates":[-0.43380,53.83954],"type":"Point"},"properties":{"_source":"warm_welcome","address":"Champney Road, Beverley, East Riding of Yorkshire HU17 8HE","description":" East Riding libraries offer warm welcoming places, with comfy seating, books, games and jigsaws.","hours":"Mo 09:30-17:00; Tu 09:30-20:00; We 09:30-17:00; Th 09:30-20:00; Fr 09:30-17:00; Sa 09:00-16:00","title":"Beverley Library"},"type":"Feature"},
		{"geometry":{"coordinates":[-0.41424,53.78212],"type":"Point"},"properties":{"_source":"warm_welcome","address":"Hallgate, Cottingham, East Yorkshire HU16 4DD","description":"Open from 23/11/2022. We’re an adult only welcoming space. You can join us once a week for a morning of staying warm with coffee, tea, biscuits and socialising. Do you want to stay around for the full day? Then you’re welcome to join us for an optional afternoon of activities.","hours":"We 09:15-17:00","title":"Cottingham Adult Learning Centre"},"type":"Feature"},
		{"geometry":{"coordinates":[-0.41417,53.78135],"type":"Point"},"properties":{"_source":"warm_welcome","address":"Market Green, Cottingham, East Riding of Yorkshire HU16 5QG","description":"Open from 01/11/2022. East Riding libraries offer warm welcoming places, with comfy seating, books, games and jigsaws. Please check our website for service updates and any changes to our usual opening hours.","hours":"Mo 09:30-16:30; Tu 09:30-16:30; Th 09:30-18:30; Fr 09:30-13:00; Sa 09:30-12:30","title":"Cottingham Centre"},"type":"Feature"},
		{"geometry":{"coordinates":[-0.37930,53.77846],"type":"Point"},"properties":{"_source":"warm_welcome","address":"322-328 Endike Lane, Hull, East Yorkshire HU6 8AE","description":"All ages are welcome Hot drinks & toast; under 5's play area with comfy seating; access to Parish Nurse for BP checks, a listening ear & general health advice ","hours":"We 10:30-12:30","title":"Mosaic Church"},"type":"Feature"},
		{"geometry":{"coordinates":[-0.35944,53.75531],"type":"Point"},"properties":{"_source":"warm_welcome","address":"91 Princes Avenue, Hull, East Yorkshire HU5 3QP","description":"We offer a warm welcome to everyone.We are a local church offering a community space for everyone to keep warm and connect with each other.","hours":"We 12:00-15:00","title":"Princes Avenue Methodist Church"},"type":"Feature"},
		{"geometry":{"coordinates":[-0.60794,53.76657],"type":"Point"},"properties":{"_source":"warm_welcome","address":"97 Church Street, South Cave, East Riding of Yorkshire HU15 2EP","description":" East Riding libraries offer warm welcoming places, with comfy seating, books, games and jigsaws. Please check our website for service updates and any changes to our usual opening hours.","hours":"Tu 14:00-17:00; Th 14:00-19:00; Sa 10:00-12:00","title":"South Cave Library"},"type":"Feature"},
		{"geometry":{"coordinates":[-0.66171,53.86341],"type":"Point"},"properties":{"_source":"warm_welcome","address":"14 Beverley Road, Market Weighton, East Riding of Yorkshire YO43 3JP","description":"Open from 01/11/2022. East Riding libraries offer warm welcoming places, with comfy seating, books, games and jigsaws. Please check our website for service updates and any changes to our usual opening hours.","hours":"Mo 09:30-16:30; We 09:30-18:30; Fr 09:30-16:30; Sa 09:30-12:30","title":"Wicstun Centre"},"type":"Feature"},
		{"geometry":{"coordinates":[-0.44701,53.75956],"type":"Point"},"properties":{"_source":"warm_welcome","address":"The Institute, 58 Main Street, Willerby, East Riding of Yorkshire HU10 6BZ","description":" East Riding libraries offer warm welcoming places, with comfy seating, books, games and jigsaws. Please check our website for service updates and any changes to our usual opening hours.","hours":"Tu 09:30-17:00; Th 14:00-18:30; Sa 09:30-12:30","title":"Willerby Library"},"type":"Feature"},
		{"geometry":{"coordinates":[-0.44595,53.75770],"type":"Point"},"properties":{"_source":"warm_welcome","address":"Willerby Methodist church , 9 Carr lane , Willerby HU10 6JP","description":" We also open for our community groups during the week including a lunch club and toddler groups. We toys for children and board game available at the warm","hours":"Fr 09:30-14:30","title":"Willerby methodist church "},"type":"Feature"},
		{"geometry":{"coordinates":[-0.43115,53.75453],"type":"Point"},"properties":{"_source":"warm_spaces","address":"Chestnut Avenue, Hull, England, HU10 6PA","title":"St Luke's Willerby"},"type":"Feature"}
	]
}
