{
	"type": "FeatureCollection",
	"features": [
		{"geometry":{"coordinates":[-0.64308,53.56579],"type":"Point"},"properties":{"_source":"warm_welcome","address":"Vicarage, Scunthorpe, North Lincolnshire DN16 3DL","description":"Open from 2/11/22.","hours":"We 13:30-15:30, Th 15:30-19:00","title":"Church of the Holy Spirit, Willoughby Road, Scunthorpe"},"type":"Feature"},
		{"geometry":{"coordinates":[-0.64677,53.59191],"type":"Point"},"properties":{"_source":"warm_welcome","address":"Connect Church, Scunthorpe, Lincolnshire DN16 1NR","description":"Open from 18 November 2022. Monday 9:00-12pm is open for 'Performing Arts Group' for over 50's, Fridays 12-3pm is a free community meal for everyone.","hours":"Mo 09:00-12:00, Fr 12:00-15:00, Su 10:00-12:30","title":"Connect Church"},"type":"Feature"},
		{"geometry":{"coordinates":[-0.65805,53.59601],"type":"Point"},"properties":{"_source":"warm_welcome","address":"CrosbyONE Centre, Scunthorpe, North Lincolnshire DN15 7LU","description":"We are a safe space that caters for the whole community. We have our space open as part of our warm welcome Mondays, Wednesdays and Fridays. There is other actives and groups that meet at other times in the week with more info on our website under events and groups.","hours":"Mo 10:00-14:00, Tu 09:00-17:00, We 10:00-14:00, Th 09:00-17:00, Fr 10:00-14:00, Su 09:00-17:00","title":"CrosbyONE Centre"},"type":"Feature"},
		{"geometry":{"coordinates":[-0.43366,53.74830],"type":"Point"},"properties":{"_source":"warm_welcome","address":"120 Springfield Way, Anlaby, East Riding of Yorkshire HU10 6QJ","description":" East Riding libraries offer warm welcoming places, with comfy seating, books, games and jigsaws. Please check our website for service updates and any changes to our usual opening hours.","hours":"Mo 09:30-18:30, Tu 09:30-17:30, We 09:30-17:30, Th 09:30-17:30, Fr 09:30-14:30, Sa 09:30-12:30","title":"Haltemprice Library and Customer Service Centre"},"type":"Feature"},
		{"geometry":{"coordinates":[-0.43505,53.72392],"type":"Point"},"properties":{"_source":"warm_welcome","address":"Southgate, Hessle, East Riding of Yorkshire HU13 0RB","description":"Open from 01/11/2022. East Riding libraries offer warm welcoming places, with comfy seating, books, games and jigsaws. Please check our website for service updates and any changes to our usual opening hours.","hours":"Mo 09:30-16:30, Tu 09:30-18:30, Th 09:30-16:30, Fr 09:30-16:30, Sa 09:30-12:30","title":"Hessle Centre"},"type":"Feature"},
		{"geometry":{"coordinates":[-0.65272,53.59027],"type":"Point"},"properties":{"_source":"warm_welcome","address":"23 Dunstall Street, Scunthorpe, North Lincolnshire DN15 6LD","description":" Coffee Shop serving hot food","hours":"Mo 10:00-16:00, Tu 10:00-16:00, Th 10:00-16:00, Fr 10:00-16:00, Sa 10:00-16:00","title":"Moon Coffee House"},"type":"Feature"},
		{"geometry":{"coordinates":[-0.65272,53.58205],"type":"Point"},"properties":{"_source":"warm_welcome","address":"Brumby Wood Lane, Scunthorpe DN161LY","description":" Free toddler group on Monday mornings. 2 course hot meal Wednesday evenings Â£1. Family Activity Breakfast on the 1st Saturday morning of each month. ","hours":"Mo 10:00-12:00, We 18:00-19:00, Sa 09:00-12:00, Su 09:30-12:00","title":"New Life Church"},"type":"Feature"},
		{"geometry":{"coordinates":[-0.50262,53.71965],"type":"Point"},"properties":{"_source":"warm_welcome","address":"11 Church Road, North Ferriby, East Riding of Yorkshire HU14 3DA","description":"Open from 01/11/2022. East Riding libraries offer warm welcoming places, with comfy seating, books, games and jigsaws. Please check our website for service updates and any changes to our usual opening hours.","hours":"Tu 10:00-17:00, Th 14:00-18:00, Sa 10:00-12:00","title":"North Ferriby Library"},"type":"Feature"},
		{"geometry":{"coordinates":[-0.56818,53.72888],"type":"Point"},"properties":{"_source":"warm_welcome","address":"Centurion Way, Brough, East Riding of Yorkshire HU15 1AY","description":"Open from 1st November 2022. East Riding libraries offer warm welcoming places, with comfy seating, books, games and jigsaws. Please check our website for service updates and any changes to our usual opening hours.","hours":"Mo 09:30-16:30, We 09:30-16:30, Th 09:30-18:30, Sa 09:30-12:30","title":"Petuaria Centre"},"type":"Feature"},
		{"geometry":{"coordinates":[-0.40173,53.57285],"type":"Point"},"properties":{"_source":"warm_welcome","address":"St Barnabas Road, Barnetby, North lincolnshire DN38 6JE","description":"Open from 01-11-2022. Community Cafe in the church hall every Tuesday morning from 9am. Come for a welcoming free drink, snack and chat. ","hours":"Tu 09:00-12:00","title":"St Barnabas Church"},"type":"Feature"},
		{"geometry":{"coordinates":[-0.64478,53.56667],"type":"Point"},"properties":{"_source":"warm_welcome","address":"180 Ashby High Street, Scunthorpe, North Lincs DN16 2JR","description":"Open from 10/11/2022.","hours":"Th 14:00-17:00","title":"St. Pauls Church Hall, Ashby, Scunthorpe"},"type":"Feature"},
		{"geometry":{"coordinates":[-0.48713,53.74031],"type":"Point"},"properties":{"_source":"warm_welcome","address":"Village Hall, Main Street, Swanland, East Riding of Yorkshire HU14 3QR","description":" East Riding libraries offer warm welcoming places, with comfy seating, books, games and jigsaws. Please check our website for service updates and any changes to our usual opening hours.","hours":"We 09:00-12:00, Fr 14:00-18:00, Sa 09:00-12:00","title":"Swanland Library"},"type":"Feature"},
		{"geometry":{"coordinates":[-0.67681,53.57123],"type":"Point"},"properties":{"_source":"warm_spaces","address":"2 Lichfield Avenue, Scunthorpe, England, DN17 1QX","title":"The Arc","url":"https://www.arcwestcliff.co.uk"},"type":"Feature"},
		{"geometry":{"coordinates":[-0.66361,53.55950],"type":"Point"},"properties":{"_source":"warm_spaces","address":"Willoughby Road, Scunthorpe, England, DN17 2NN","title":"Church of the Holy Spirit, Riddings, Scunthorpe","url":"https://churcharmy.org/mission/scunthorpe/"},"type":"Feature"},
		{"geometry":{"coordinates":[-0.64497,53.56668],"type":"Point"},"properties":{"_source":"warm_spaces","address":"180 Ashby High Street, Scunthorpe, England, DN16 2JR","title":"St. Paul's Church Hall"},"type":"Feature"},
		{"geometry":{"coordinates":[-0.43817,53.72489],"type":"Point"},"properties":{"_source":"warm_spaces","address":"Tower Hill, Hessle, England, HU13","title":"Tower Hill Methodist Church"},"type":"Feature"},
		{"geometry":{"coordinates":[-0.38724,53.73258],"type":"Point"},"properties":{"_source":"warm_spaces","address":"728 Hessle Road, Hull, England, HU4 6PJ","title":"Gipsyville Library Warm Space"},"type":"Feature"},
		{"geometry":{"coordinates":[-0.63041,53.55058],"type":"Point"},"properties":{"_source":"warm_spaces","address":"The Pink Pig Farm, Holme Lane, Scunthorpe, England, DN16 3RE","title":"The Pink Pig Farm","url":"https://www.pinkpigfarm.co.uk"},"type":"Feature"}
	]
}
