{
	"type": "FeatureCollection",
	"features": [
		{"geometry":{"coordinates":[-0.53815,53.23584],"type":"Point"},"properties":{"_source":"warm_welcome","address":"Bailgate methodist church , Lincoln , Lincolnshire LN1 3AR","description":" People often bring craft with them on a friday ","hours":"Th 09:30-12:00; Fr 10:30-13:00; Su 10:00-12:00","title":"Bailgate methodist church "},"type":"Feature"},
		{"geometry":{"coordinates":[-0.64147,53.17976],"type":"Point"},"properties":{"_source":"warm_welcome","address":"One NK, Lincoln, Lincolnshire LN6 9AX","description":"","hours":"Mo 13:00-15:00; We 13:00-15:00; Fr 13:00-15:00","title":"Better"},"type":"Feature"},
		{"geometry":{"coordinates":[-0.54880,53.20962],"type":"Point"},"properties":{"_source":"warm_welcome","address":"72a Newark Road, Lincoln , Lincoln LN5 8PY","description":"","hours":"Mo 10:00-14:00; Tu 10:00-14:00; We 10:00-14:00; Th 10:00-14:00","title":"Bridge church Lincoln "},"type":"Feature"},
		{"geometry":{"coordinates":[-0.53614,53.22328],"type":"Point"},"properties":{"_source":"warm_welcome","address":"Bridge Central, Portland Street, Lincoln LN5 7NN","description":"","hours":"Mo 10:00-14:00; Tu 10:00-14:00; We 10:00-14:00; Th 10:00-14:00","title":"Bridge Church Lincoln"},"type":"Feature"},
		{"geometry":{"coordinates":[-0.54910,53.20945],"type":"Point"},"properties":{"_source":"warm_welcome","address":"Bridge Community Hub, 107-115 Newark Road, Lincoln LN5 8NQ","description":" Library, food bank, CAB advisor","hours":"Mo 10:00-12:00; Tu 15:30-17:30; We 10:00-12:00; Fr 10:00-12:00","title":"Bridge Community Hub"},"type":"Feature"},
		{"geometry":{"coordinates":[-0.53554,53.19407],"type":"Point"},"properties":{"_source":"warm_welcome","address":"Bracebridge Heath Methodist Church, Grantham Road, Bracebridge Heath, Lincoln LN4 2LE","description":" We are a friendly Community Drop-in that has been running since Feb. 2022. We started because we wanted to bring the community together and the opportunity to offer a warm welcome to those in need this Winter is exactly what we are here for.","hours":"We 09:00-11:30","title":"Community Drop-in (The Heath Christian Partnership)"},"type":"Feature"},
		{"geometry":{"coordinates":[-0.53113,53.24723],"type":"Point"},"properties":{"_source":"warm_welcome","address":"19 Ravendale Drive, Lincoln, Lincolnshire LN2 2BT","description":"","hours":"Tu 09:00-16:00; We 09:00-13:00","title":"Ermine Library and Community Hub"},"type":"Feature"},
		{"geometry":{"coordinates":[-0.51132,53.23255],"type":"Point"},"properties":{"_source":"warm_welcome","address":"49 Roman Pavement , Lincoln , Lincolnshire LN2 5RD","description":"","hours":"We 10:00-12:00","title":"Green Synergy "},"type":"Feature"},
		{"geometry":{"coordinates":[-0.53767,53.22942],"type":"Point"},"properties":{"_source":"warm_welcome","address":"Lincoln Central Library, Free School Lane, Lincoln LN2 1EZ","description":"It is free to join and use the library and everyone is welcome. Alongside free access to books, computers, casual and study seating, the Library runs a host of free activities for adults and children including Connect Over A Cuppa community coffee morning every Thursday 10.30-11.30, there is no charge for refreshments.","hours":"Mo 09:00-17:00; Tu 09:00-17:00; We 09:00-17:00; Th 09:00-18:00; Fr 09:00-17:00; Sa 09:00-16:00","title":"Lincoln Central Library"},"type":"Feature"},
		{"geometry":{"coordinates":[-0.54460,53.22170],"type":"Point"},"properties":{"_source":"warm_welcome","address":"106 HIGH STREET, LINCOLN, LINCOLNSHIRE LN5 7PY","description":"Open from 02/11/2022. We provide breakfast, hot meal and hot drinks","hours":"We 10:00-12:30; Fr 10:00-12:30","title":"LINCOLN SALVATION ARMY"},"type":"Feature"},
		{"geometry":{"coordinates":[-0.41840,53.16425],"type":"Point"},"properties":{"_source":"warm_welcome","address":"Main Street, Nocton, Lincs LN4 2BH","description":" We have a warm, friendly, tranquil space where folk can enjoy a variety of refreshments, various craft activities, board games, jigsaws, and a quiet space to reflect and/or pray","hours":"Th 09:30-12:00","title":"Renew @ The Hub"},"type":"Feature"},
		{"geometry":{"coordinates":[-0.66056,53.26743],"type":"Point"},"properties":{"_source":"warm_welcome","address":"Library, Community Centre, Saxilby , Lincoln LN1 2LP","description":"","hours":"Tu 10:30-15:30; We 10:30-16:00; Fr 10:30-13:00","title":"Saxilby with Ingleby Parish Council"},"type":"Feature"},
		{"geometry":{"coordinates":[-0.51860,53.24276],"type":"Point"},"properties":{"_source":"warm_welcome","address":"Jubilee Halls, Lamb Gardens, Lincoln LN2 4EH","description":"","hours":"Mo 14:00-16:00","title":"St Giles Parish Church, Lincoln"},"type":"Feature"},
		{"geometry":{"coordinates":[-0.47482,53.22379],"type":"Point"},"properties":{"_source":"warm_welcome","address":"St John's Church, Washingborough, Lincoln LN4 1AZ","description":"","hours":"We 09:00-12:00; Fr 09:00-12:00; Sa 14:00-16:00; Su 10:00-12:00","title":"St John's Church"},"type":"Feature"},
		{"geometry":{"coordinates":[-0.54171,53.16469],"type":"Point"},"properties":{"_source":"warm_welcome","address":"High Street, Waddington, Lincoln LN5 9RF","description":"","title":"St Michael's Church, Waddington"},"type":"Feature"},
		{"geometry":{"coordinates":[-0.53767,53.22955],"type":"Point"},"properties":{"_source":"warm_welcome","address":"The Salthouse, Free School Lane, Lincoln LN2 1EY","description":"We cater for parents and toddlers on Monday mornings and we are open to all on Thursday mornings and Sunday mornings for our church service. On Monday mornings we open for a parent and toddler playgroup, and on Thursday mornings we hold our Love Your Neighbour community cafe with free cakes, drinks, games & activities.","hours":"Mo 10:15-12:00; Th 10:30-12:00; Su 09:45-12:00","title":"St. Swithin's Church"},"type":"Feature"},
		{"geometry":{"coordinates":[-0.53699,53.23208],"type":"Point"},"properties":{"_source":"warm_welcome","address":"THE COLLECTION MUSEUM, Lincoln, Lincolnshire LN2 1LP","description":"The musuem and gallery welcomes all visitors Visiting the museum and Usher Gallery is free* and there is no need to pre-book. The museum is a safe and welcoming space and we look forward to welcoming you soon. The museum is open five days per week (closed on Tuesdays and Wednesdays) from 10am to 4pm","hours":"Mo 10:00-16:00; Th 10:00-16:00; Fr 10:00-16:00; Sa 10:00-16:00; Su 10:00-16:00","title":"The Collection museum and Usher Gallery"},"type":"Feature"},
		{"geometry":{"coordinates":[-0.45515,53.24188],"type":"Point"},"properties":{"_source":"warm_welcome","address":"The Vine Centre, (library), The Parade, Cherry Willingham Lincoln LN3 4JL","description":"","hours":"We 13:00-15:00; Th 09:30-16:30; Sa 10:00-12:00","title":"Vine Community Church"},"type":"Feature"},
		{"geometry":{"coordinates":[-0.54812,53.22684],"type":"Point"},"properties":{"_source":"warm_spaces","address":"Isaac Newton Building, University of Lincoln, Brayford Pool, Lincoln, England, LN6 7TS","title":"Faith and Diversity Embroidery Project","url":"https://www.tcf-reconciliation.org"},"type":"Feature"},
		{"geometry":{"coordinates":[-0.54351,53.22283],"type":"Point"},"properties":{"_source":"warm_spaces","address":"377 High Street, Lincoln, England, LN5 7RY","title":"Cosy Crafters","url":"https://www.tcf-reconciliation.org/ https://www.tcf-reconciliation.org/"},"type":"Feature"},
		{"geometry":{"coordinates":[-0.54937,53.23318],"type":"Point"},"properties":{"_source":"warm_spaces","address":"73 West Parade, Lincoln, England, LN1 1QL","title":"Chat Cafe","url":"https://www.tcf-reconciliation.org"},"type":"Feature"},
		{"geometry":{"coordinates":[-0.62313,53.19927],"type":"Point"},"properties":{"_source":"warm_spaces","address":"Whisby Garden Centre, Whisby Road, Lincoln, England, LN6 9BY","title":"Whisby Garden Centre","url":"https://www.whisbygardencentre.com"},"type":"Feature"}
	]
}
