{
	"type": "FeatureCollection",
	"features": [
		{"geometry":{"coordinates":[-0.61679,52.92165],"type":"Point"},"properties":{"_source":"warm_welcome","address":"Church of the Ascension, Edinburgh Road, Grantham, Lincolnshire NG31 9QZ","description":"Wellbeing Cafe is for anyone. Baby & Toddler Group is for parents, carers and children under 5 Monday morning Wellbeing Cafe with tea, coffee, cake, crafts and table games. Tuesday morning Baby & Toddler Group with refreshments and healthy snacks for children ","hours":"Mo 10:00-12:00, Tu 10:00-12:00","title":"Church of the Ascension Grantham"},"type":"Feature"},
		{"geometry":{"coordinates":[-0.64255,52.91040],"type":"Point"},"properties":{"_source":"warm_welcome","address":"Issac Newton Shopping Centre, Grantham, Lincolnshire NG31 6EE","description":"It is free to join and use the library and everyone is welcome. Alongside free access to books, computers, casual and study seating, the Library runs a host of free activities for adults and children including Connect Over A Cuppa community coffee morning every Thursday 9.30 - 11am, there is no charge for refreshments.","hours":"Mo 09:00-17:00, Tu 09:00-17:00, We 09:00-17:00, Th 09:00-18:00, Fr 09:00-17:00, Sa 09:00-16:00","title":"Grantham Library"},"type":"Feature"},
		{"geometry":{"coordinates":[-0.64057,52.91270],"type":"Point"},"properties":{"_source":"warm_welcome","address":"Finkin Street, Grantham, Lincolnshire NG31 6QZ","description":"","title":"Methodist and URC Church - ChristChurch L.E.P."},"type":"Feature"},
		{"geometry":{"coordinates":[-0.38802,53.04532],"type":"Point"},"properties":{"_source":"warm_welcome","address":"Chapel Street, Ruskington, Lincolnshire NG34 9DX","description":"Open from 25-11-2022. Term time only. Sockets for charging phones, laptops and tablets; Activities - knitting, newspapers, jigsaws; Toys suitable for pre-schoolers; Hot food will include soup and baked beans on toast.","hours":"Fr 11:00-15:00","title":"Ruskington Methodist Church"},"type":"Feature"},
		{"geometry":{"coordinates":[-0.41223,52.99732],"type":"Point"},"properties":{"_source":"warm_welcome","address":"17/18 Riverside Centre, Sleaford, Lincolnshire NG34 7PD","description":"Open from 03/01/2023. Our focus is supporting all those who want to stay warm this winter. You are guaranteed a warm welcome each day at the Sleaford Community Grocers. Take a seat, have a cuppa & biscuit and relax. No need to rush away. Stay and chat with one of our volunteers and keep warm. We can even supply warm clothing and blankets for you","hours":"Mo 09:30-16:30, Tu 09:30-16:30, We 09:30-16:30, Th 09:30-16:30, Fr 09:30-16:30, Sa 09:30-15:00","title":"Sleaford Community Grocers Store"},"type":"Feature"},
		{"geometry":{"coordinates":[-0.40939,52.99936],"type":"Point"},"properties":{"_source":"warm_welcome","address":"Sleaford Library, Market Place, Sleaford NG34 7SR","description":"It is free to join and use the library and everyone is welcome. Alongside free access to books, computers, casual and study seating, the Library runs a host of free activities for adults and children including Connect Over A Cuppa community coffee morning every Friday 10am-12noon, there is no charge for refreshments.","hours":"Mo 09:00-17:00, Tu 09:00-17:00, We 09:00-17:00, Th 09:00-18:00, Fr 09:00-17:00, Sa 09:00-13:00","title":"Sleaford Library"},"type":"Feature"},
		{"geometry":{"coordinates":[-0.38815,53.04727],"type":"Point"},"properties":{"_source":"warm_welcome","address":"19 Westgate,, Ruskington, Lincolnshire NG34 9ES","description":"Open from 29-11-2022. Term-time only. Free drinks and biscuits. Toys for pre-school children. Free Wi-fi and charging points available.","hours":"Tu 09:00-12:00","title":"South Lincs Church"},"type":"Feature"},
		{"geometry":{"coordinates":[-0.38670,53.04549],"type":"Point"},"properties":{"_source":"warm_spaces","address":"Chapel Street, Sleaford, England, NG34 9DX","title":"Ruskington Methodist Church Warm Space","url":"https://www.sleafordmethodistcircuit.uk/Ruskington.php"},"type":"Feature"},
		{"geometry":{"coordinates":[-0.38873,53.04732],"type":"Point"},"properties":{"_source":"warm_spaces","address":"19 West Gate, Sleaford, England, NG34 9ES","title":"South Lincs Church","url":"https://southlincschurch.co.uk"},"type":"Feature"}
	]
}
