{
	"type": "FeatureCollection",
	"features": [
		{"geometry":{"coordinates":[-0.51547,52.56198],"type":"Point"},"properties":{"_source":"warm_welcome","address":"All Saints and St James Church, Kings Cliffe, Peterborough PE8 6XQ","description":"Open from 19/11/22.","hours":"Fr 09:00-18:00; Su 09:00-18:00","title":"All Saints and St James Church "},"type":"Feature"},
		{"geometry":{"coordinates":[-0.47070,52.48418],"type":"Point"},"properties":{"_source":"warm_welcome","address":"Oundle Library, Glapthorn Road, Oundle PE8 4JA","description":"","hours":"Mo 09:00-17:00; Tu 09:00-17:00; We 09:00-17:00; Th 09:00-17:00; Fr 09:00-17:00; Sa 10:00-14:00","title":"Oundle Library"},"type":"Feature"},
		{"geometry":{"coordinates":[-0.47142,52.48509],"type":"Point"},"properties":{"_source":"warm_welcome","address":"Oundle Town Council, Fletton House, Fletton Way, Glapthorn Road, Oundle, Peterborough PE8 4JA","description":" We have a warm space in The Hub at Fletton House. Mondays to Fridays 9.00am to 2.00pm. Hot drinks can be purchased from our machine Â£1 per cup. Card Payment only. We are closed on Bank Holidays & over Christmas (22 Dec to 2 Jan) Everyone welcome.","hours":"Mo 09:00-14:00; Tu 09:00-14:00; We 09:00-14:00; Th 09:00-14:00; Fr 09:00-14:00","title":"Oundle Town Council "},"type":"Feature"},
		{"geometry":{"coordinates":[-0.47668,52.65291],"type":"Point"},"properties":{"_source":"warm_welcome","address":"Stamford LIbrary, High Street, Stamford PE9 2BB","description":"It is free to join and use the library and everyone is welcome. Alongside free access to books, computers, casual and study seating, the Library runs a host of free activities for adults and children including a Connect Over A Cuppa Coffee Morning every Monday 2.30pm-3.30pm, there is no charge for refreshments ","hours":"Mo 09:00-17:00; Tu 09:00-17:00; We 09:00-17:00; Th 09:00-18:00; Fr 09:00-17:00; Sa 09:00-16:00","title":"Stamford Library"},"type":"Feature"},
		{"geometry":{"coordinates":[-0.47041,52.68306],"type":"Point"},"properties":{"_source":"warm_welcome","address":"Ryhall Library, Coppice Road , Ryhall PE9 4HY","description":"Open from 09-11-2022.","hours":"We 10:00-16:00","title":"Warm Welcome Ryhall"},"type":"Feature"}
	]
}
