{
	"type": "FeatureCollection",
	"features": [
		{"geometry":{"coordinates":[-0.67933,52.36165],"type":"Point"},"properties":{"_source":"warm_welcome","address":"Burton Latimer Community Manged Library, High street, Burton Latimer, Northamptonshire NN15 5RH","description":"","hours":"Tu 09:30-17:00; We 09:30-17:00; Th 10:00-19:00; Fr 09:30-17:00; Sa 10:00-12:00","title":"Burton Latimer Community Managed Library"},"type":"Feature"},
		{"geometry":{"coordinates":[-0.67865,52.36311],"type":"Point"},"properties":{"_source":"warm_welcome","address":"High Street, Burton Latimer, Northamptonshire NN15 5RH","description":"We welcome all crafters, or just people wanting a chat The library is open most days - please check website - the craft group runs on Wednesday afternoons","title":"Burton Latimer craft group"},"type":"Feature"},
		{"geometry":{"coordinates":[-0.53715,52.34128],"type":"Point"},"properties":{"_source":"warm_welcome","address":"Saxon Hall, Thorpe Street, Raunds, Northants NN9 6LT","description":"Open from 22-11-22.","hours":"Tu 14:00-16:00","title":"Raunds Town Council"},"type":"Feature"},
		{"geometry":{"coordinates":[-0.59984,52.28675],"type":"Point"},"properties":{"_source":"warm_welcome","address":"Hall Hall Avenue, Rushden, northamptonshire nn10 9ng","description":"Open from 04/11/2022.","hours":"Fr 13:30-15:30","title":"Rushden Town Council"},"type":"Feature"},
		{"geometry":{"coordinates":[-0.46831,52.48141],"type":"Point"},"properties":{"_source":"warm_spaces","address":"Church Street, Peterborough, England, PE8 4EE","title":"St Peter's Church, Oundle","url":"https://www.oundlestpeters.org.uk"},"type":"Feature"},
		{"geometry":{"coordinates":[-0.46831,52.48141],"type":"Point"},"properties":{"_source":"warm_spaces","address":"St.Peter’s Church, Church Street, Peterborough, England, PE8 4EE","title":"St.Peter’s Church","url":"https://Www.oundlestpeters.org.uk"},"type":"Feature"}
	]
}
