{
	"type": "FeatureCollection",
	"features": [
		{"geometry":{"coordinates":[-0.48486,52.14736],"type":"Point"},"properties":{"_source":"warm_welcome","address":"A Different Brew, 106 Clapham Road, Bedford, bedford, Bedfordshire MK41 7PJ","description":"Open from 01-12-2022. This space will be 28th November 2022 to Friday 31st March 2023Free tea & coffee, hot food available to buy, board games, reading material available, limited facilities for babies and children, ","hours":"Mo 10:00-15:00; Th 10:00-15:00; Fr 10:00-15:00","title":"Bedfordshire Opportunities for Learning Disabilities"},"type":"Feature"},
		{"geometry":{"coordinates":[-0.44842,52.12503],"type":"Point"},"properties":{"_source":"warm_welcome","address":"Jubilation Centre, Bedford, Bedfordshire MK420JD","description":"We cater for everyone","hours":"Mo 09:00-17:00","title":"Big Local Community Hub"},"type":"Feature"},
		{"geometry":{"coordinates":[-0.53337,52.09768],"type":"Point"},"properties":{"_source":"warm_welcome","address":"Keeley House Bakery Cafe at The Hub, The Hub, New life Methodist Church, Beds MK43 9DE","description":"Open from always. We cater for everyone - children and adults Keeley house bakery is a family run bakery based in Wootton - the cafe is in partnership with Wootton New Life Church and is a friendly space to come and relax","hours":"Mo 10:00-15:00; Tu 10:00-15:00; We 10:00-15:00; Th 10:00-15:00; Fr 10:00-15:00","title":"Keeley House Bakery"},"type":"Feature"},
		{"geometry":{"coordinates":[-0.66006,52.17268],"type":"Point"},"properties":{"_source":"warm_welcome","address":"High Street, Lavendon, Buckinghamshire MK46 4HA","description":"Open from 02-11-2022.","hours":"We 09:30-13:30; Th 12:30-16:30","title":"Lavendon Baptist Church"},"type":"Feature"},
		{"geometry":{"coordinates":[-0.45692,52.16271],"type":"Point"},"properties":{"_source":"warm_welcome","address":"St Mark's Church Community Centre, Calder Rise, Bedford MK41 7UY","description":" Dog Friendly, books and magazines, period products ","hours":"Mo 09:00-17:00; Tu 09:00-17:00; We 09:00-17:00; Th 09:00-17:00; Fr 09:00-17:00; Sa 09:00-17:00; Su 11:00-17:00","title":"St Marks Church Community Centre"},"type":"Feature"},
		{"geometry":{"coordinates":[-0.47313,52.13426],"type":"Point"},"properties":{"_source":"warm_welcome","address":"1, Commercial Road , Bedford, Bedfordshire MK40 1QS","description":"Wednesday - Our focus is on catering for adults One Support present for housing support","hours":"We 13:00-14:00; Fr 17:30-19:30","title":"The Salvation Army"},"type":"Feature"},
		{"geometry":{"coordinates":[-0.66851,52.25512],"type":"Point"},"properties":{"_source":"warm_welcome","address":"The Salvation Army, Wollaston, Wellingborough NN29 7SB","description":"","hours":"Fr 09:45-11:00; Sa 09:30-11:30","title":"The Salvation Army"},"type":"Feature"},
		{"geometry":{"coordinates":[-0.43313,52.15599],"type":"Point"},"properties":{"_source":"warm_welcome","address":"Dover Crescent, Bedford, Bedfordshire MK41 8QH","description":"Open from 19-10-2022. On Thursday mornings we also run Centre41. A drop in where people can get support with budgeting, benefits and sign posting to other appropriate services. Every Thursday in term time from 10am - Noon.","hours":"Tu 01:00-04:30; We 01:00-04:30","title":"Woodside Church"},"type":"Feature"},
		{"geometry":{"coordinates":[-0.46488,52.15424],"type":"Point"},"properties":{"_source":"bedford_council","address":"All Nations Church,Â 79 Brickhill Drive Bedford MK41 7QF ","contact":"01234 273773 /Â <a href=\"mailto:office@allnationsbedford.org\">office@allnationsbedford.org</a>","hours":"Mo 09:30-16:00"},"type":"Feature"},
		{"geometry":{"coordinates":[-0.47704,52.13716],"type":"Point"},"properties":{"_source":"bedford_council","address":"Bedford Beacon, Bedford Wellbeing Centre, 3A Woburn Road, Bedford MK40 1EG","contact":"<a href=\"mailto:elft.recoverycollege@nhs.net\">elft.recoverycollege@nhs.net</a>","hours":"Th 17:30-21:00"},"type":"Feature"},
		{"geometry":{"coordinates":[-0.47413,52.13667],"type":"Point"},"properties":{"_source":"bedford_council","address":"Bedford Central Masjid and Islamic Cultural Centre, 34 Brereton Rd, Bedford MK40 1HU","hours":"Mo-Fr 13:00-17:00"},"type":"Feature"},
		{"geometry":{"coordinates":[-0.45787,52.14600],"type":"Point"},"properties":{"_source":"bedford_council","address":"Bunyan Meeting, Mill Street, Bedford MK40 2NB","contact":" Chris Bamforth Damp / 07702 270086 /Â <a href=\"mailto:chrisdamp@mac.com\">chrisdamp@mac.com</a><br /> Â ","hours":"Tu-Sa 10:00-13:00"},"type":"Feature"},
		{"geometry":{"coordinates":[-0.45096,52.13930],"type":"Point"},"properties":{"_source":"bedford_council","address":"Christ Church Bedford, 140 Dudley Street, Bedford, MK40 3SXÂ Christ Church Office (Pauline Grimley)","contact":"01234 327150 /Â <a href=\"mailto:office@ccbedford.org\">office@ccbedford.org</a>","hours":"Fr 12:00-14:00"},"type":"Feature"},
		{"geometry":{"coordinates":[-0.49028,52.12052],"type":"Point"},"properties":{"_source":"bedford_council","address":"Church of the Transfiguration,132 Bedford Rd, Kempston, Bedford MK42 8BQ","contact":"Â 01234 635721","hours":"Mo 11:00-17:00; Tu 09:30-17:00; Th 09:30-17:00; Su 09:00-17:00"},"type":"Feature"},
		{"geometry":{"coordinates":[-0.42741,52.15264],"type":"Point"},"properties":{"_source":"bedford_council","address":"Church Lane Community Centre,Â 147 Church Lane,Â Bedford MK41 0PW","contact":"07816 044007 /Â <a href=\"mailto:info@churchlanecentre.com\">info@churchlanecentre.com</a>","hours":"Fr 13:00-17:30"},"type":"Feature"},
		{"geometry":{"coordinates":[-0.50858,52.12914],"type":"Point"},"properties":{"_source":"bedford_council","address":"Great Denham Community Hall 86-88 Saxon Way,Â Great Denham, Bedfordshire, MK40 4GP","contact":"<a href=\"mailto:bookings@greatdenhamcommunityhall.co.uk\">bookings@greatdenhamcommunityhall.co.uk</a>","hours":"Th 10:00-12:00"},"type":"Feature"},
		{"geometry":{"coordinates":[-0.46370,52.13616],"type":"Point"},"properties":{"_source":"bedford_council","address":"Higgins Bedford, Castle Lane, Bedford, MK40 3XD ","contact":"<a href=\"mailto:thehiggins@bedford.org.uk\">thehiggins@bedford.org.uk</a> /Â 01234718618","hours":"Tu-Sa 11:00-17:00; Fr 11:00-16:00; Su 14:00-17:00"},"type":"Feature"},
		{"geometry":{"coordinates":[-0.53346,52.09767],"type":"Point"},"properties":{"_source":"bedford_council","address":"Keeley House Bakery at The Hub New Life Methodist Church, Cause End Road, Wootton BedfordÂ MK43 9DE","hours":"Mo-Fr 10:00-15:00"},"type":"Feature"},
		{"geometry":{"coordinates":[-0.49387,52.11954],"type":"Point"},"properties":{"_source":"bedford_council","address":"Kempston East Methodist Church Hall, off Foster<br /> Road, Kempston MK42 8DA","contact":"01234 930882<br /> Â ","hours":"We 10:00-14:00"},"type":"Feature"},
		{"geometry":{"coordinates":[-0.50769,52.11462],"type":"Point"},"properties":{"_source":"bedford_council","address":"Kempston Hammers Sports and social Club, 123 High Street Kempston, Bedford, MK42 7BNÂ ","contact":"01234 853262 /Â <a href=\"mailto:khsscoffice@gmail.com\">khsscoffice@gmail.com</a>"},"type":"Feature"},
		{"geometry":{"coordinates":[-0.48845,52.12622],"type":"Point"},"properties":{"_source":"bedford_council","address":"Kempston Swimming Pool Hillgrounds Road, Kempston, MK42 8SZ","contact":"01234 843777","hours":"Mo-Fr 06:30-21:00; Sa 08:00-17:00"},"type":"Feature"},
		{"geometry":{"coordinates":[-0.45010,52.12316],"type":"Point"},"properties":{"_source":"bedford_council","address":"Kingsbrook and Cauldwell Community Hub<br /> Jubilation Centre Moulton Avenue MK42 0HL","contact":"Stacy Dennis / 07956 023659 /Â <a href=\"mailto:stacy@yourfundyoursay.info\">stacy@yourfundyoursay.info</a><br /> Â ","hours":"Mo 09:00-17:00"},"type":"Feature"},
		{"geometry":{"coordinates":[-0.47771,52.11930],"type":"Point"},"properties":{"_source":"bedford_council","address":"King&apos;s House, 245, Ampthill Road, Bedford MK42 9AZ","contact":"01234 306500","hours":"Tu 15:00-18:00; Th 15:00-18:00"},"type":"Feature"},
		{"geometry":{"coordinates":[-0.47532,52.13708],"type":"Point"},"properties":{"_source":"bedford_council","address":"Miracle Church of God in Christ, 36-38 Alexandra Road, Bedford MK40 1JB","contact":"01234 215081 / <a href=\"mailto:bedford@miraclecogic.org.uk\" target=\"_blank\">bedford@miraclecogic.org.uk</a>","hours":"Tu 11:00-14:00"},"type":"Feature"},
		{"geometry":{"coordinates":[-0.44406,52.13725],"type":"Point"},"properties":{"_source":"bedford_council","address":"Priory Methodist Church, 63 Newnham Ave, Bedford MK41 9QJ","contact":"01234 353523 /Â <a href=\"mailto:leslie.noon@northbedsmethodist.org.uk\">leslie.noon@northbedsmethodist.org.uk</a>Â ","hours":"Su 12:00-16:00"},"type":"Feature"},
		{"geometry":{"coordinates":[-0.46997,52.25725],"type":"Point"},"properties":{"_source":"bedford_council","address":"Riseley Community,Â 3 Hunters Yard, Riseley MK44 1EN","contact":"<a href=\"mailto:riseleycommunitykindness@outlook.com\">riseleycommunitykindness@outlook.com</a>","hours":"We 14:00-16:00"},"type":"Feature"},
		{"geometry":{"coordinates":[-0.47888,52.25495],"type":"Point"},"properties":{"_source":"bedford_council","address":"Riseley Community,Â All Saints Church, Church Lane, Riseley MK44 1ER","contact":"<a href=\"mailto:riseleycommunitykindness@outlook.com\">riseleycommunitykindness@outlook.com</a>","hours":"Tu 10:00-12:00"},"type":"Feature"},
		{"geometry":{"coordinates":[-0.46852,52.25753],"type":"Point"},"properties":{"_source":"bedford_council","address":"Riseley Community, The Giddy Goat Coffee Shop, High Street, Riseley MK44 1DR","contact":"<a href=\"mailto:riseleycommunitykindness@outlook.com\">riseleycommunitykindness@outlook.com</a>","hours":"Mo 10:00-12:00"},"type":"Feature"},
		{"geometry":{"coordinates":[-0.45606,52.14703],"type":"Point"},"properties":{"_source":"bedford_council","address":"St Andrews Church, Kimbolton Road, MK40 2PF","contact":"01234 216881 /Â <a href=\"mailto:info@standrewsbedford.org\">info@standrewsbedford.org</a>","hours":"Mo-Fr 09:00-17:00"},"type":"Feature"},
		{"geometry":{"coordinates":[-0.45682,52.16288],"type":"Point"},"properties":{"_source":"bedford_council","address":"St Mark&apos;s Church Community Centre, Calder Rise, Brickhill, Bedford MK41 7UY","contact":"01234 342613 /Â <a href=\"mailto:office@stmarkschurch.com\">office@stmarkschurch.com</a> / <a href=\"https://www.stmarkschurch.com/\" target=\"_blank\">www.stmarkschurch.com</a><strong>Â Â Â Â Â Â Â Â Â Â  </strong><strong>Â Â Â Â Â Â Â Â Â Â Â Â Â Â Â Â Â Â Â Â Â Â Â  </strong>","hours":"Mo-Su 09:00-17:00"},"type":"Feature"},
		{"geometry":{"coordinates":[-0.42769,52.14832],"type":"Point"},"properties":{"_source":"bedford_council","address":"St Marys Church, Church Lane, Goldington, MK41 0AP (for satÂ navÂ use MK41 0HN)","contact":" 01234 351920 /Â <a href=\"mailto:office@stmarygoldington.org.uk\" target=\"_blank\">office@stmarygoldington.org.uk</a>","hours":"Mo 13:00-16:00"},"type":"Feature"},
		{"geometry":{"coordinates":[-0.54510,52.22551],"type":"Point"},"properties":{"_source":"bedford_council","address":"StÂ Peterâs Church, Church Lane,Â Sharnbrook, Bedford MK44 1HR","contact":"Roland Carpenter /Â 07801 750963 /Â <a href=\"mailto:roland.carpenter@tiscali.co.uk\">roland.carpenter@tiscali.co.uk</a>","hours":"We 09:00-18:00"},"type":"Feature"},
		{"geometry":{"coordinates":[-0.43325,52.15576],"type":"Point"},"properties":{"_source":"bedford_council","address":"Woodside Church Dover Cres, Bedford MK41 8QH","contact":"01234 272022 /Â <a href=\"mailto:getintouch@woodsidechurch.com\">getintouch@woodsidechurch.com</a>","hours":"Tu 13:00-16:30; We 13:00-16:30"},"type":"Feature"},
		{"geometry":{"coordinates":[-0.67106,52.25761],"type":"Point"},"properties":{"_source":"north_northamptonshire_council","address":"Wollaston, NN29 7RJ","hours":"We 10:30-12:00; Fr 10:00-12:00","title":"St Mary&apos;s Church High Street"},"type":"Feature"},
		{"geometry":{"coordinates":[-0.67074,52.25470],"type":"Point"},"properties":{"_source":"north_northamptonshire_council","address":"21 Newton Road, Wollaston, NN29 7QN","hours":"Tu 13:00-17:00; We 10:00-14:00; Sa 10:00-12:30","title":"Wollaston Community Library"},"type":"Feature"}
	]
}
