{
	"type": "FeatureCollection",
	"features": [
		{"geometry":{"coordinates":[-0.64825,51.61266],"type":"Point"},"properties":{"_source":"warm_welcome","address":"Reynolds Road, Beaconsfield, Buckinghamshire HP92NJ","description":" Computer access","hours":"Tu 09:30-19:00; We 09:30-13:00; Th 09:30-17:00; Fr 09:30-17:00; Sa 10:00-16:00","title":"Beaconsfield Library - Buckinghamshire Council"},"type":"Feature"},
		{"geometry":{"coordinates":[-0.63019,51.49686],"type":"Point"},"properties":{"_source":"warm_welcome","address":"St John's Church , Eton Wick , Berkshire SL4 6JA","description":"","hours":"Mo 12:00-14:00; We 10:00-12:00; Th 10:30-12:00; Fr 09:00-15:00","title":"Benefice of Eton with Eton Wick and Boveney and Dorney "},"type":"Feature"},
		{"geometry":{"coordinates":[-0.41714,51.44980],"type":"Point"},"properties":{"_source":"warm_welcome","address":"166 Bedfont Lane, Feltham, London TW14 8AQ","hours":"Mo 11:00-13:00; Tu 18:00-19:00; We 10:00-12:00; Th 10:00-12:00; Su 10:30-12:00","title":"Feltham Salvation Army"},"type":"Feature"},
		{"geometry":{"coordinates":[-0.35597,51.42667],"type":"Point"},"properties":{"_source":"warm_welcome","address":"68 High Street, Hampton Hill, London Borough of Richmond upon Thames TW12 1NY","description":" Computer access must be booked in advance","hours":"Mo 09:30-18:00; We 10:00-19:00; Th 09:30-18:00; Fr 09:30-18:00; Sa 09:30-16:00","title":"Hampton Hill Library"},"type":"Feature"},
		{"geometry":{"coordinates":[-0.37039,51.41446],"type":"Point"},"properties":{"_source":"warm_welcome","address":"Rosehill, Hampton, London Borough of Richmond Upon Thames TW12 2AB","description":" Computer access must be booked in advance","hours":"Mo 09:30-18:00; Tu 09:30-18:00; We 10:00-19:00; Fr 09:30-18:00; Sa 09:30-16:00","title":"Hampton Library"},"type":"Feature"},
		{"geometry":{"coordinates":[-0.38047,51.47116],"type":"Point"},"properties":{"_source":"warm_welcome","address":"Hope Church Hounslow, St Paul's Church Location , Bath Road, Hounslow West, Middlesex TW3 3DA","description":"Over 50's on Mondays Over 50's Lunch Club on Monday / Foodbank Cafe on Wedensdays","hours":"Mo 12:00-13:30; We 09:30-11:30","title":"Hope Church Hounslow - St Paul's Location"},"type":"Feature"},
		{"geometry":{"coordinates":[-0.40662,51.44350],"type":"Point"},"properties":{"_source":"warm_welcome","address":"The Vineyard Centre, Air Park Way, Feltham , London, Hounslow TW13 7LX","description":"Open from 07/11/2022.","hours":"Mo 09:30-14:00; Tu 09:30-14:00; We 09:30-14:00; Th 09:30-14:00; Fr 09:30-14:00; Sa 09:30-14:00; Su 09:30-14:00","title":"Riverside Vineyard Church,"},"type":"Feature"},
		{"geometry":{"coordinates":[-0.35534,51.56346],"type":"Point"},"properties":{"_source":"warm_welcome","address":"270 Northolt Road , Harrow, Middlesex HA2 8EB","description":"Open from 29-11-2022.","hours":"Tu 18:00-20:00; Fr 11:00-13:00","title":"South Harrow Baptist Church"},"type":"Feature"},
		{"geometry":{"coordinates":[-0.37479,51.55795],"type":"Point"},"properties":{"_source":"warm_welcome","address":"Walton Avenue, Harrow, Middlesex HA2 8QU","description":"Open from 14/11/2022.","hours":"Mo 18:00-22:00; We 10:00-14:00","title":"South Harrow Methodist Church"},"type":"Feature"},
		{"geometry":{"coordinates":[-0.38393,51.51388],"type":"Point"},"properties":{"_source":"warm_welcome","address":"Lancaster Road , Southall, Middx UB1 1NP","description":"Adults only. Term-time only ","hours":"Tu 10:30-13:30; We 12:00-14:30; Su 10:30-12:30","title":"St George's Church, Southall"},"type":"Feature"},
		{"geometry":{"coordinates":[-0.36284,51.42929],"type":"Point"},"properties":{"_source":"warm_welcome","address":"St James's Road, Hampton Hill, Hampton TW12 1DQ","description":"Open from 09/01/2023.","hours":"Mo 12:30-15:30; We 12:30-15:30; Th 12:30-15:30","title":"St James's Church Hampton Hill"},"type":"Feature"},
		{"geometry":{"coordinates":[-0.68371,51.59617],"type":"Point"},"properties":{"_source":"warm_welcome","address":"Glory Mill Lane, Wooburn Green, High Wycombe, Bucks HP10 0LU","description":"Open from 2.12.2022.","hours":"Fr 13:00-17:00","title":"St. Mary's Church Wooburn Green"},"type":"Feature"},
		{"geometry":{"coordinates":[-0.47635,51.43399],"type":"Point"},"properties":{"_source":"warm_welcome","address":"The Salvation Army, Woodthorpe Rd, Ashford, Surrey TW15 3JY","description":"Open from 01-12-22. Our Warmbank will run alongside our existing programme including parent/carer/toddler activities (Mon,Wed,Thur and Friday) and our older people groups on a Tuesday","hours":"Mo 13:00-16:00; Tu 13:00-16:00; We 13:00-16:00; Th 13:00-16:00; Su 09:30-11:30","title":"Staines Salvation Army"},"type":"Feature"},
		{"geometry":{"coordinates":[-0.35872,51.45303],"type":"Point"},"properties":{"_source":"warm_welcome","address":"141 Nelson Road, Whitton, London Borough of Richmond upon Thames TW2 7BB","description":" Computer access must be booked in advance","hours":"Mo 09:30-18:00; Tu 09:30-18:00; We 10:00-19:00; Th 09:30-18:00; Fr 09:30-18:00; Sa 09:30-16:00","title":"Whitton Library"},"type":"Feature"},
		{"geometry":{"coordinates":[-0.37427,51.55904],"type":"Point"},"properties":{"_source":"warm_spaces","address":"Walton Avenue, Harrow, England","title":"South Harrow Methodist Church","url":"https://www.southharrowmethodist.org.uk"},"type":"Feature"},
		{"geometry":{"coordinates":[-0.35929,51.56983],"type":"Point"},"properties":{"_source":"warm_spaces","address":"Coles Crescent, Harrow, England, HA2 0TN","title":"Roxeth Community Church Warm Hub","url":"https://www.roxeth.com"},"type":"Feature"},
		{"geometry":{"coordinates":[-0.63053,51.39936],"type":"Point"},"properties":{"_source":"warm_spaces","address":"High Street, Ascot, England, SL5 0NG","title":"SHARE @ Hope Church Suningdale","url":"https://hopechurchsunningdale.org.uk"},"type":"Feature"},
		{"geometry":{"coordinates":[-0.52192,51.42901],"type":"Point"},"properties":{"_source":"surrey_county_council_warm_hubs","address":"Thorpe Rd, Staines-upon-Thames, Staines TW18 3HJ","hours":"Th 09:30-11:00","title":"St Paul's Egham Hythe"},"type":"Feature"},
		{"geometry":{"coordinates":[-0.46411,51.43373],"type":"Point"},"properties":{"_source":"surrey_county_council_warm_hubs","address":"Church Rd, Ashford TW15 2XB","hours":"Th 09:30-17:00; Fr 09:30-17:00; Sa 09:30-17:00; Tu 09:30-17:00; We 09:30-17:00","title":"Ashford Library"},"type":"Feature"},
		{"geometry":{"coordinates":[-0.51117,51.43221],"type":"Point"},"properties":{"_source":"surrey_county_council_warm_hubs","address":"Friends Walk, Staines TW18 4PG","hours":"Th 09:30-17:30; Fr 09:30-17:30; Sa 09:30-17:00; Mo 09:30-17:30; Tu 09:30-19:00; We 09:30-17:30","title":"Staines Library "},"type":"Feature"},
		{"geometry":{"coordinates":[-0.51019,51.43426],"type":"Point"},"properties":{"_source":"surrey_county_council_warm_hubs","address":"91 High St, Staines TW18 4PQ","hours":"Tu 13:00-16:00; Th 12:30-15:30","title":"Talking Tree"},"type":"Feature"},
		{"geometry":{"coordinates":[-0.37927,51.40230],"type":"Point"},"properties":{"_source":"surrey_county_council_warm_hubs","address":"Molesey Centre for the Community, Bishop Fox Way, West Molesey, KT8 2AS","hours":"Mo-Fr 09:00-16:30","title":"Molesey Centre for the Community"},"type":"Feature"}
	]
}
