{
	"type": "FeatureCollection",
	"features": [
		{"geometry":{"coordinates":[-0.45330,51.02318],"type":"Point"},"properties":{"_source":"warm_welcome","address":"Billingshurst Library, Mill Lane, Billingshurst RH14 9JZ","hours":"Mo 10:00-17:00; Tu 10:00-17:00; We 10:00-17:00; Th 10:00-17:00; Fr 10:00-17:00; Sa 10:00-14:00","title":"Billingshurst Library"},"type":"Feature"},
		{"geometry":{"coordinates":[-0.60081,51.17630],"type":"Point"},"properties":{"_source":"warm_welcome","address":"The Old Rectory, Godalming, Surrey GU7 1XB","description":"Open from 19 Nov 2022.","hours":"Sa 14:00-17:00","title":"Busbridge&Hambledon Church"},"type":"Feature"},
		{"geometry":{"coordinates":[-0.49623,51.14312],"type":"Point"},"properties":{"_source":"warm_welcome","address":"188:High Street, Cranleigh, Surrey GU6 8RS","description":"Open from 01/11/2022. Fully accessible","hours":"Tu 10:00-16:00","title":"Cranleigh Methodist Church"},"type":"Feature"},
		{"geometry":{"coordinates":[-0.60981,50.98577],"type":"Point"},"properties":{"_source":"warm_welcome","address":"High Street, Petworth, West Sussex GU28 0AU","description":"","hours":"Mo 13:00-17:00; Tu 13:00-17:00; We 13:00-17:00; Th 09:00-13:00; Fr 09:00-13:00; Sa 09:00-13:00","title":"Petworth Library"},"type":"Feature"},
		{"geometry":{"coordinates":[-0.64627,51.17415],"type":"Point"},"properties":{"_source":"surrey_county_council_warm_hubs","address":"Chapel Ln, Milford, Godalming GU8 5EZ","hours":"Mo-Fr 10:00-15:00","title":"Clockhouse Centre Chapel (Age UK Surrey)"},"type":"Feature"}
	]
}
