{
	"type": "FeatureCollection",
	"features": [
		{"geometry":{"coordinates":[-0.48555,50.83344],"type":"Point"},"properties":{"_source":"warm_welcome","address":"Arundel Road, Angmering, West Sussex BN16 4JS","description":" Toddler Time Thursdays 10.15-10.45am, Knit and Natter Wednesdays 2.30-4pm,days ","hours":"Mo 13:00-17:00; Tu 13:00-17:00; We 13:00-17:00; Th 09:00-13:00; Fr 09:00-13:00; Sa 09:00-13:00","title":"Angmering Library"},"type":"Feature"},
		{"geometry":{"coordinates":[-0.61420,50.84215],"type":"Point"},"properties":{"_source":"warm_welcome","address":"Yapton Lane, Walberton, Arundel BN18 0LS","description":"","hours":"Mo 12:00-14:00; Tu 12:00-14:00; We 12:00-14:00; Th 12:00-14:00; Fr 12:00-14:00; Sa 12:00-14:00; Su 12:00-14:00","title":"Avisford Park Hotel"},"type":"Feature"},
		{"geometry":{"coordinates":[-0.67284,50.78801],"type":"Point"},"properties":{"_source":"warm_welcome","address":"69 London Road, Bognor Regis, West Sussex PO21 1DE","description":"","hours":"Mo 09:30-18:00; Tu 09:30-18:00; We 09:30-18:00; Th 09:30-18:00; Fr 09:30-18:00; Sa 09:30-17:00","title":"Bognor Regis Library"},"type":"Feature"},
		{"geometry":{"coordinates":[-0.67702,50.78211],"type":"Point"},"properties":{"_source":"warm_welcome","address":"Waterloo Square, , BOGNOR REGIS , West Sussex PO21 1ST","description":"Open from 02/12/22.","hours":"Fr 10:00-14:00","title":"Bognor Regis Methodist Church"},"type":"Feature"},
		{"geometry":{"coordinates":[-0.48496,50.81175],"type":"Point"},"properties":{"_source":"warm_welcome","address":"The Street, East Preston, West Sussex BN16 1JJ","description":"Toddler Time Friday 11:00-11:30 Knit and Natter Thursday 10:30-12:00","hours":"Mo 13:00-17:00; Tu 13:00-17:00; We 13:00-17:00; Th 10:00-14:00; Fr 10:00-14:00; Sa 10:00-14:00","title":"East Preston Library"},"type":"Feature"},
		{"geometry":{"coordinates":[-0.37272,50.82044],"type":"Point"},"properties":{"_source":"warm_welcome","address":"elim centre, 24 Broadwater Road. Worthing, West Sussex BN14 8AE","description":"Open from 08/11/2022. Hot drinks available throughout with soup and a roll lunch.","hours":"Tu 10:00-12:30","title":"elimworthing "},"type":"Feature"},
		{"geometry":{"coordinates":[-0.44755,50.81396],"type":"Point"},"properties":{"_source":"warm_welcome","address":"Ferring Library, The Street, Ferring BN12 5HL","description":"Toddler Times Tuesdays 10:30am-11:00am Board Games Mondays 10:00am -11:00am","hours":"Mo 09:00-13:00; Tu 09:00-13:00; We 13:00-17:00; Th 09:00-13:00; Fr 13:00-17:00; Sa 09:00-13:00","title":"Ferring library"},"type":"Feature"},
		{"geometry":{"coordinates":[-0.69260,50.79986],"type":"Point"},"properties":{"_source":"warm_welcome","address":"Holy Cross Church Hall, Chichester Road, Bognor Regis PO21 5AU","description":"Open from 02-11-2022.","hours":"We 13:30-16:00","title":"Holy Cross Church"},"type":"Feature"},
		{"geometry":{"coordinates":[-0.53825,50.80783],"type":"Point"},"properties":{"_source":"warm_welcome","address":"Maltravers Road, Littlehampton, West sussex BN17 5NA","description":"Rhyme-Times Mondays 11:00-11:00am Toddler Times 11:00-11:30am Knit and Natter Group Tuesdays 10:30-12:00 Board Games Thursdays 10:30-12.00","hours":"Mo 09:00-17:00; Tu 09:00-17:00; We 09:00-17:00; Th 09:00-17:00; Fr 09:00-17:00; Sa 10:00-16:00","title":"Littlehampton Library"},"type":"Feature"},
		{"geometry":{"coordinates":[-0.50069,50.95647],"type":"Point"},"properties":{"_source":"warm_welcome","address":"Pulborough Library, Brooks Way, Off Lower Street RH20 2BQ","hours":"Mo 13:00-17:00; Tu 13:00-17:00; We 13:00-17:00; Th 09:00-13:00; Fr 09:00-13:00; Sa 09:00-13:00","title":"Pulborough Library"},"type":"Feature"},
		{"geometry":{"coordinates":[-0.50731,50.80885],"type":"Point"},"properties":{"_source":"warm_welcome","address":"Claigmar Road, Rustington, West Sussex BN16 2NL","description":"Rhyme Time Wednesdays 11:00am-11:30am Knit and Natter Tuesdays 10:30-12:00 Reminiscence Group last Wednesday of the Month 14:30pm-15:00 ","hours":"Mo 10:00-17:00; Tu 10:00-17:00; We 10:00-17:00; Th 10:00-17:00; Fr 10:00-17:00; Sa 10:00-14:00","title":"Rustington Library"},"type":"Feature"},
		{"geometry":{"coordinates":[-0.50798,50.80889],"type":"Point"},"properties":{"_source":"warm_welcome","address":"Claigmar Road, Rustington, West Sussex BN16 5HL","description":"","hours":"Mo 10:00-17:00; Tu 10:00-17:00; We 10:00-17:00; Th 10:00-17:00; Fr 10:00-17:00; Sa 10:00-14:00","title":"Rustington Library"},"type":"Feature"},
		{"geometry":{"coordinates":[-0.67355,50.79416],"type":"Point"},"properties":{"_source":"warm_welcome","address":"Bersted Street, South Bersted, West Sussex PO22 9QE","description":" Saturday and Thursday mornings church is 'Open for Coffee' (Thursday mornings are in Term Time only).","hours":"Th 09:00-11:30; Sa 10:00-12:00","title":"St Mary Magdalene Church"},"type":"Feature"},
		{"geometry":{"coordinates":[-0.44888,50.95377],"type":"Point"},"properties":{"_source":"warm_welcome","address":"St Marys, East Street, West Chiltington , West Sussex RH20 2JW","description":"","hours":"Mo 08:00-18:00; Tu 08:00-18:00; We 08:00-18:00; Th 08:00-18:00; Fr 08:00-18:00; Sa 08:00-18:00; Su 08:00-18:00","title":"St Maryâ€™s West Chiltington"},"type":"Feature"},
		{"geometry":{"coordinates":[-0.38269,50.81790],"type":"Point"},"properties":{"_source":"warm_welcome","address":"103 Tarring Road, Worthing, West Sussex BN11 4HB","description":" Tuesday and Wednesday 9.30 to 12. Good value coffee, tea and hot chocolate(free refills) and cakes. Friendly welcome and play area for preschool children. Thursday 10 to 11.30: Sparklers group for parents/carers with babies and toddlers. ","hours":"Tu 09:30-12:00; We 09:30-12:00","title":"St Matthew's Church, Worthing"},"type":"Feature"},
		{"geometry":{"coordinates":[-0.45475,50.91953],"type":"Point"},"properties":{"_source":"warm_welcome","address":"Ryecroft Lane, Storrington, West Sussex RH20 4PA","hours":"Mo 09:00-17:00; Tu 09:00-17:00; We 09:00-17:00; Th 09:00-17:00; Fr 09:00-17:00; Sa 10:00-16:00","title":"Storrington Library"},"type":"Feature"},
		{"geometry":{"coordinates":[-0.68270,50.78678],"type":"Point"},"properties":{"_source":"warm_welcome","address":"The Shore Community Church, Bognor Regis, West Sussex PO21 2TD","hours":"Tu 09:00-15:00; We 09:00-15:00; Fr 10:00-12:00; Su 10:00-12:30","title":"The Haven at The Shore Community Church"},"type":"Feature"},
		{"geometry":{"coordinates":[-0.66369,50.79961],"type":"Point"},"properties":{"_source":"warm_welcome","address":"Canada Grove, Bognor Regis, West Sussex PO21 1DN","description":"","hours":"Tu 09:00-11:00; We 11:00-13:00","title":"The Salvation Army"},"type":"Feature"},
		{"geometry":{"coordinates":[-0.55202,50.81591],"type":"Point"},"properties":{"_source":"warm_welcome","address":"Clun Road, Littlehampton , West Sussex BN17 7DZ","description":" We're open for anyone to come in and relax. There are various activities for families during the week, plus we have Playcentre pre-school and Refresh coffee shop on site, and support services such as Early Help and CAP Debt Help.","hours":"Mo 09:00-17:00; Tu 09:00-17:00; We 09:00-17:00; Th 09:00-17:00; Fr 09:00-17:00","title":"The Wickbourne Centre"},"type":"Feature"},
		{"geometry":{"coordinates":[-0.36146,50.82440],"type":"Point"},"properties":{"_source":"warm_welcome","address":"Dominion Road, Worthing, West Sussex BN14 8JL","description":"","hours":"Mo 13:00-17:00; Tu 13:00-17:00; We 13:00-17:00; Th 09:00-13:00; Fr 09:00-13:00; Sa 09:00-13:00","title":"West Sussex County Council Broadwater Library"},"type":"Feature"},
		{"geometry":{"coordinates":[-0.40365,50.83525],"type":"Point"},"properties":{"_source":"warm_welcome","address":"Salvington Road, Worthing, West Sussex BN13 2JD","description":"","hours":"Mo 10:00-17:00; Tu 10:00-17:00; We 10:00-17:00; Th 10:00-17:00; Fr 10:00-17:00; Sa 10:00-14:00","title":"West Sussex County Council Durrington Library"},"type":"Feature"},
		{"geometry":{"coordinates":[-0.39597,50.84845],"type":"Point"},"properties":{"_source":"warm_welcome","address":"Lime Tree Avenue, Worthing, West Sussex BN14 0DH","description":"","hours":"Mo 13:00-17:00; Tu 13:00-17:00; We 13:00-17:00; Th 09:00-13:00; Fr 09:00-13:00; Sa 09:00-13:00","title":"West Sussex County Council Findon Valley Library"},"type":"Feature"},
		{"geometry":{"coordinates":[-0.42356,50.81454],"type":"Point"},"properties":{"_source":"warm_welcome","address":"Mulberry Lane, Worthing, West Sussex BN12 4NR","description":"","hours":"Mo 10:00-17:00; Tu 10:00-17:00; We 10:00-17:00; Th 10:00-17:00; Fr 10:00-17:00; Sa 10:00-14:00","title":"West Sussex County Council Goring Library"},"type":"Feature"},
		{"geometry":{"coordinates":[-0.37325,50.81381],"type":"Point"},"properties":{"_source":"warm_welcome","address":"Richmond Road, Worthing, West Sussex BN11 1HD","description":"","hours":"Mo 09:00-18:00; Tu 09:00-18:00; We 09:00-18:00; Th 09:00-18:00; Fr 09:00-18:00; Sa 09:00-17:00","title":"West Sussex County Council Worthing Library"},"type":"Feature"},
		{"geometry":{"coordinates":[-0.50731,50.80885],"type":"Point"},"properties":{"_source":"warm_welcome","address":"Claigmar Road, Rustington, West Sussex BN16 2NL","description":"","hours":"Mo 10:00-17:00; Tu 10:00-17:00; We 10:00-17:00; Th 10:00-17:00; Fr 10:00-17:00; Sa 10:00-14:00","title":"WSCC"},"type":"Feature"},
		{"geometry":{"coordinates":[-0.38669,50.81371],"type":"Point"},"properties":{"_source":"warm_spaces","address":"St Botolph&#39;s Church, Lansdowne Road (entrance through Manor Road door), Worthing, England, BN11 4LY","title":"St Botolph's Church","url":"https://www.achurchnearyou.com/church/2864/"},"type":"Feature"},
		{"geometry":{"coordinates":[-0.45650,50.91594],"type":"Point"},"properties":{"_source":"warm_spaces","address":"Church Street, Pulborough, England, RH20 4LJ","title":"St Mary's Church, Storrington","url":"https://www.storringtonparishchurch.org.uk"},"type":"Feature"},
		{"geometry":{"coordinates":[-0.61636,50.84990],"type":"Point"},"properties":{"_source":"warm_spaces","address":"Yapton Lane, Arundel, England, BN18 0LS","title":"Avisford Park Hotel","url":"https://avisfordparkhotel.com"},"type":"Feature"},
		{"geometry":{"coordinates":[-0.67777,50.78513],"type":"Point"},"properties":{"_source":"warm_spaces","address":"Canada Grove, Bognor Regis, England, PO21","title":"The Salvation Army - Open House","url":"https://www.salvationarmy.org.uk/bognor-regis"},"type":"Feature"}
	]
}
