{"type":"FeatureCollection","crs":{"type":"name","properties":{"name":"EPSG:27700"}},"transform":{"originPosition":"upperLeft","scale":[38.218514142578158,38.218514142578158],"translate":[567468.49798900052,234814.5508920002]},"features":[{"type":"Feature","id":1,"geometry":{"type":"Point","coordinates":[576140.00012207031,223046.00012207031]},"properties":{"OBJECTID":1,"NAME":"Manor Community Cupppa","DAY_":"Every Monday","TIME_":"10.00 - 12:00","ADDRESS":"Elim Church, Manor Street, Braintree, CM7 3HT","POSTCODE":"CM7 3HT","CHARGE":"Free","WEBSITE":"https://elimbraintree.org.uk/ ","X":576140,"Y":223046}},{"type":"Feature","id":8,"geometry":{"type":"Point","coordinates":[571090.00012207031,231219.00012207031]},"properties":{"OBJECTID":8,"NAME":"Wethersfield Community Activities - Social Saturday - Tea, Coffeee, Cake and Walk","DAY_":"Every 2nd and 4th Saturday ","TIME_":"Hot drinks and cake: 9:30-12:00 \nGuided walk: 10:00\n","ADDRESS":"Please see Facebook page for details.","POSTCODE":"CM7 4BS","CHARGE":"Please contact the organisers for more information","WEBSITE":"https://www.facebook.com/WethersfieldCommunityActivities/","X":571090,"Y":231219}},{"type":"Feature","id":9,"geometry":{"type":"Point","coordinates":[582013.00012207031,215956.00012207031]},"properties":{"OBJECTID":9,"NAME":"Foyer Cafe ","DAY_":"1st and 3rd Thursday","TIME_":"10.00 - 14:00","ADDRESS":"Rickstones Church, Rickstones Road, CM8 2NG","POSTCODE":"CM8 2NG","CHARGE":"Café charges apply","WEBSITE":"https://www.rickstoneschurch.com/","X":582013,"Y":215956}},{"type":"Feature","id":10,"geometry":{"type":"Point","coordinates":[575878.00012207031,223067.00012207031]},"properties":{"OBJECTID":10,"NAME":"Braintree Museum","DAY_":null,"TIME_":"10:00-13:00","ADDRESS":"Braintree Museum, Manor Street, Braintree, CM7 3HW","POSTCODE":"CM7 3HW","CHARGE":"Please contact the venue for more information","WEBSITE":"https://www.braintreemuseum.co.uk/","X":575878,"Y":223067}},{"type":"Feature","id":11,"geometry":{"type":"Point","coordinates":[585003.00012207031,222750.00012207031]},"properties":{"OBJECTID":11,"NAME":"Warm Space and Warm Welcome, Christ Church Coggeshall","DAY_":"Every Thursday","TIME_":"10:00-12:00","ADDRESS":"26 Stoneham St, Coggeshall, Colchester CO6 1UH","POSTCODE":"CO6 1UH","CHARGE":"This is a free event, although there is a charge for drinks","WEBSITE":"https://www.christchurchcoggeshall.org.uk/ ","X":585003,"Y":222750}},{"type":"Feature","id":12,"geometry":{"type":"Point","coordinates":[585003.00012207031,222750.00012207031]},"properties":{"OBJECTID":12,"NAME":"Warm Space and Warm Welcome, Christ Church Coggeshall","DAY_":"Every Monday","TIME_":"9.00 - 2.00","ADDRESS":"26 Stoneham St, Coggeshall, Colchester CO6 1UH","POSTCODE":"CO6 1UH","CHARGE":"This is a free event, although there is a charge for drinks","WEBSITE":"https://www.christchurchcoggeshall.org.uk/ ","X":585003,"Y":222750}},{"type":"Feature","id":14,"geometry":{"type":"Point","coordinates":[577925.00012207031,234508.00012207031]},"properties":{"OBJECTID":14,"NAME":"The Hedingham Hotspot","DAY_":"Tuesdays 14:00 - 18:00\nThursdays 10:00 - 14:00","TIME_":null,"ADDRESS":"Hedingham Baptist Church\n177 Swan Street, Sible Hedingham, Essex CO9 3PX","POSTCODE":"CO9 3PX","CHARGE":"Free tea/coffee\nFree Wifi\nFree power for charging devices\nFree Board games/books/videos\nSomeone to chat to","WEBSITE":"https://hedinghambaptist.wixsite.com/home/ ","X":577925,"Y":234508}},{"type":"Feature","id":16,"geometry":{"type":"Point","coordinates":[582216.00012207031,214698.00012207031]},"properties":{"OBJECTID":16,"NAME":"The Knitters and Stitchers","DAY_":"First Wednesday in the month ","TIME_":"10:00-12:00","ADDRESS":"Witham Library ","POSTCODE":"CM8 2AQ","CHARGE":"Please contact the venue for more information","WEBSITE":"https://libraries.essex.gov.uk/library-locations-and-opening-times/witham-library/ ","X":582216,"Y":214698}},{"type":"Feature","id":17,"geometry":{"type":"Point","coordinates":[582349.00012207031,214867.00012207031]},"properties":{"OBJECTID":17,"NAME":"Royal British Legion Hall, Witham ","DAY_":"Wednesday ","TIME_":"11:00-12:00","ADDRESS":"Royal British Legion Hall, Witham ","POSTCODE":"CM8 2AZ","CHARGE":"Coffee/tea ","WEBSITE":null,"X":582349,"Y":214867}},{"type":"Feature","id":18,"geometry":{"type":"Point","coordinates":[582349.00012207031,214867.00012207031]},"properties":{"OBJECTID":18,"NAME":"Lunch Club at the Royal British Legion Hall ","DAY_":"Wedneday & Tuesday","TIME_":"12:00","ADDRESS":"Royal British Legion Hall, Witham ","POSTCODE":"CM8 2AZ","CHARGE":"Open to all, cost for two courses £6.00","WEBSITE":null,"X":582349,"Y":214867}},{"type":"Feature","id":22,"geometry":{"type":"Point","coordinates":[582043.00012207031,214508.00012207031]},"properties":{"OBJECTID":22,"NAME":"The Well in Guithavon Street","DAY_":"Friday, Thursday, Wednesday, Saturday  ","TIME_":"10:00-14:00","ADDRESS":"The Well in Guithavon Street","POSTCODE":"CM8 1BQ","CHARGE":"Please contact the venue for more information","WEBSITE":"https://www.bethel-witham.co.uk/ ","X":582043,"Y":214508}},{"type":"Feature","id":23,"geometry":{"type":"Point","coordinates":[582349.00012207031,214867.00012207031]},"properties":{"OBJECTID":23,"NAME":"Sunday Cinema ","DAY_":"Second Sunday in the month ","TIME_":"14:00","ADDRESS":"Royal British Legion Hall","POSTCODE":"CM8 2AZ","CHARGE":"£1 to include tea and biscuits","WEBSITE":null,"X":582349,"Y":214867}},{"type":"Feature","id":24,"geometry":{"type":"Point","coordinates":[582349.00012207031,214867.00012207031]},"properties":{"OBJECTID":24,"NAME":"Coffee Morning ","DAY_":"Tuesday","TIME_":"10:00-12:00","ADDRESS":"Royal British Legion Hall, Witham ","POSTCODE":"CM8 2AZ","CHARGE":"Coffee/tea ","WEBSITE":null,"X":582349,"Y":214867}},{"type":"Feature","id":26,"geometry":{"type":"Point","coordinates":[582216.00012207031,214698.00012207031]},"properties":{"OBJECTID":26,"NAME":"The Library, Witham ","DAY_":null,"TIME_":null,"ADDRESS":"18 Newland St, Witham CM8 2AQ","POSTCODE":"CM8 2AQ","CHARGE":null,"WEBSITE":"https://libraries.essex.gov.uk/library-locations-and-opening-times/witham-library/ ","X":582216,"Y":214698}},{"type":"Feature","id":29,"geometry":{"type":"Point","coordinates":[575748.00012207031,223361.00012207031]},"properties":{"OBJECTID":29,"NAME":"First Stop","DAY_":"Tuesday and Thursday ","TIME_":"10:30-14:00","ADDRESS":"29 Bocking End, Braintree CM7 9AE","POSTCODE":"CM7 9AE","CHARGE":"Engage in a variety of confidence courses.  They are all offered hot drinks and it is warm space for people to be.","WEBSITE":"https://www.firststopcentre.com ","X":575748,"Y":223361}},{"type":"Feature","id":30,"geometry":{"type":"Point","coordinates":[567476.00012207031,230448.00012207031]},"properties":{"OBJECTID":30,"NAME":"The Bell In Great Bardfield","DAY_":"Community safe space to come and feel warm and share company. ","TIME_":null,"ADDRESS":"Dunmow Rd, Great Bardfield, Braintree CM7 4SA","POSTCODE":"CM7 4SA","CHARGE":"Please contact the venue for more information","WEBSITE":"https://www.facebook.com/TheBellEssex ","X":567476,"Y":230448}},{"type":"Feature","id":31,"geometry":{"type":"Point","coordinates":[575748.00012207031,223361.00012207031]},"properties":{"OBJECTID":31,"NAME":"First Stop ","DAY_":"Saturday ","TIME_":"11:00-12:00","ADDRESS":"29 Bocking End, Braintree CM7 9AE","POSTCODE":"CM7 9AE","CHARGE":"Please contact the venue for more information","WEBSITE":"https://www.firststopcentre.com ","X":575748,"Y":223361}},{"type":"Feature","id":32,"geometry":{"type":"Point","coordinates":[575596.00012207031,222938.00012207031]},"properties":{"OBJECTID":32,"NAME":"St Michaels Church House, St Michaels Lane (Opp Church)","DAY_":"Friday","TIME_":"11:00-14:00","ADDRESS":"St Michael's Rd, Braintree CM7 1EY","POSTCODE":"CM7 1EY","CHARGE":"Tea and Coffee","WEBSITE":"https://www.stmichaelsbtree.co.uk ","X":575596,"Y":222938}},{"type":"Feature","id":33,"geometry":{"type":"Point","coordinates":[575805.00012207031,223164.00012207031]},"properties":{"OBJECTID":33,"NAME":"Braintree Baptist Church","DAY_":"Sunday ","TIME_":"12:00-14:00","ADDRESS":"Blyth’s Meadow, Coggeshall Rd, Braintree CM7 3DA","POSTCODE":"CM7 3DA","CHARGE":"Cosy Café – Serving you soup and a smile","WEBSITE":"https://braintreebaptistchurch.com ","X":575805,"Y":223164}},{"type":"Feature","id":34,"geometry":{"type":"Point","coordinates":[575473.00012207031,222818.00012207031]},"properties":{"OBJECTID":34,"NAME":"Christ Church Braintree, Hot drinks, Soup and Sandwiches","DAY_":"Tuesday","TIME_":"3.30 - 5.30","ADDRESS":"London Road, Braintree","POSTCODE":"CM7 2LD","CHARGE":"Free","WEBSITE":"https://christchurchbraintree.org.uk/ ","X":575473,"Y":222818}},{"type":"Feature","id":35,"geometry":{"type":"Point","coordinates":[575871.83392333984,222989.35131835938]},"properties":{"OBJECTID":35,"NAME":"Braintree Library","DAY_":"See website for details","TIME_":null,"ADDRESS":"Fairfield Road, Braintree","POSTCODE":"CM7 3YL","CHARGE":null,"WEBSITE":"https://libraries.essex.gov.uk/library-locations-and-opening-times/braintree-library/","X":null,"Y":null}},{"type":"Feature","id":36,"geometry":{"type":"Point","coordinates":[584942.04370117188,222724.49487304688]},"properties":{"OBJECTID":36,"NAME":"Coggeshall Library","DAY_":"See website for details","TIME_":null,"ADDRESS":"Stoneham Street, Coggeshall","POSTCODE":"CO6 1UH","CHARGE":null,"WEBSITE":"https://libraries.essex.gov.uk/library-locations-and-opening-times/coggeshall-library/ ","X":null,"Y":null}},{"type":"Feature","id":37,"geometry":{"type":"Point","coordinates":[585702.97210693359,228914.22888183594]},"properties":{"OBJECTID":37,"NAME":"Earls Colne Library","DAY_":"See website for details","TIME_":null,"ADDRESS":"High Street, Earls Colne","POSTCODE":"CO6 2PA","CHARGE":null,"WEBSITE":"https://libraries.essex.gov.uk/library-locations-and-opening-times/earls-colne-library/ ","X":null,"Y":null}},{"type":"Feature","id":38,"geometry":{"type":"Point","coordinates":[581151.08587646484,230509.53448486328]},"properties":{"OBJECTID":38,"NAME":"Halstead Library","DAY_":"See website for details","TIME_":null,"ADDRESS":"Bridge Street, Halstead","POSTCODE":null,"CHARGE":null,"WEBSITE":"https://libraries.essex.gov.uk/library-locations-and-opening-times/halstead-library/ ","X":null,"Y":null}},{"type":"Feature","id":40,"geometry":{"type":"Point","coordinates":[585980.92291259766,218283.50048828125]},"properties":{"OBJECTID":40,"NAME":"Kelvedon Library","DAY_":"See website for details","TIME_":null,"ADDRESS":"Aylett's Foundation School,  Maldon Road, Kelvedon","POSTCODE":null,"CHARGE":null,"WEBSITE":"https://libraries.essex.gov.uk/library-locations-and-opening-times/kelvedon-library/ \r\r\n","X":null,"Y":null}},{"type":"Feature","id":41,"geometry":{"type":"Point","coordinates":[578015.03967285156,234474.04071044922]},"properties":{"OBJECTID":41,"NAME":"Sible Hedingham Library","DAY_":"See website for details","TIME_":null,"ADDRESS":"Swan Street, Sible Hedingham","POSTCODE":null,"CHARGE":null,"WEBSITE":"https://libraries.essex.gov.uk/library-locations-and-opening-times/sible-hedingham-library/ ","X":null,"Y":null}},{"type":"Feature","id":42,"geometry":{"type":"Point","coordinates":[580733.43188476563,219745.67889404297]},"properties":{"OBJECTID":42,"NAME":"Silver End Library","DAY_":"See website for details","TIME_":null,"ADDRESS":"Village Hall, Broadway, Silver End","POSTCODE":null,"CHARGE":null,"WEBSITE":"https://libraries.essex.gov.uk/library-locations-and-opening-times/silver-end-library/ \r\r\nhttps://libraries.essex.gov.uk/library-locations-and-opening-times/silver-end-library/ \r\r\n","X":null,"Y":null}},{"type":"Feature","id":44,"geometry":{"type":"Point","coordinates":[577037.01611328125,223066.05847167969]},"properties":{"OBJECTID":44,"NAME":"St Paul's Coffee Morning","DAY_":"Tuesdays 15th Nov, 29th Nov & 13th Dec","TIME_":"10.30am","ADDRESS":"Hay Lane South, Braintree","POSTCODE":"CM7 3DY","CHARGE":"Free","WEBSITE":"www.stpaulsbraintree.org.uk","X":null,"Y":null}},{"type":"Feature","id":45,"geometry":{"type":"Point","coordinates":[587046.47448730469,229096.17810058594]},"properties":{"OBJECTID":45,"NAME":"White Colne Pop Up Coffee Morning, Pastries, Porridge, bottomless Tea & Coffee","DAY_":"From 25/11 every 2nd & 4th Friday","TIME_":"9am - 1pm","ADDRESS":"White Colne Village Hall, Bures Road","POSTCODE":"CO6 2QB","CHARGE":"There is a small charge for refreshments","WEBSITE":"https://en-gb.facebook.com/whitecolnevillagehall/","X":null,"Y":null}},{"type":"Feature","id":46,"geometry":{"type":"Point","coordinates":[581515.13970947266,230685.06268310547]},"properties":{"OBJECTID":46,"NAME":"St Andrews Coffee Morning","DAY_":"Friday","TIME_":"9.30 - 11.00","ADDRESS":"Parsonage Street, Halstead","POSTCODE":"CO9 2LD","CHARGE":"Please contact venue for more information","WEBSITE":"www.standrewschurchhalstead.org.uk/","X":null,"Y":null}},{"type":"Feature","id":47,"geometry":{"type":"Point","coordinates":[581140.48388671875,230475.33911132813]},"properties":{"OBJECTID":47,"NAME":"Toastie Tuesdays at Halstead URC, fresh soup, toasted sandwiches, tea, coffee & cake.","DAY_":"Tuesday","TIME_":"11.00 - 3.30","ADDRESS":"Kings Road, Halstead","POSTCODE":"CO9 1HJ","CHARGE":"Free","WEBSITE":"https://www.facebook.com/urcofHalstead/ ","X":null,"Y":null}},{"type":"Feature","id":48,"geometry":{"type":"Point","coordinates":[576175.78228759766,226049.79992675781]},"properties":{"OBJECTID":48,"NAME":"Coffee & Chat at Bocking URC ","DAY_":"Tuesday","TIME_":"10.00 - 11.30","ADDRESS":"142 Church Street, Bocking","POSTCODE":"CM7 5LF","CHARGE":"Free","WEBSITE":"https://urc.org.uk/directory-find_church/church_listing/bocking/ ","X":null,"Y":null}},{"type":"Feature","id":49,"geometry":{"type":"Point","coordinates":[587160.42749023438,219946.80828857422]},"properties":{"OBJECTID":49,"NAME":"Community Living Room ","DAY_":"Mondays & Wednesdays ","TIME_":"14:00-16:00","ADDRESS":"Coggeshall Road, Feering\r\nCoggeshall Road\r\nFeering\r\nEssex\r\nFeering Community Centre\r\nCoggeshall Road\r\nFeering\r\nEssex\r\nFeering Community Centre\r\nCoggeshall Road\r\nFeering\r\nEssex\r\nCO5 9QB","POSTCODE":"CO5 9QB","CHARGE":"Free","WEBSITE":"www.feeringparishcouncil.gov.uk    https://www.facebook.com/FeeringParishCouncil ","X":null,"Y":null}},{"type":"Feature","id":50,"geometry":{"type":"Point","coordinates":[573100.22967529297,222765.20892333984]},"properties":{"OBJECTID":50,"NAME":"Rayne Soup and Sandwiches Lunch Club","DAY_":"Every Thursday, apart from 2nd Thursday of each month when we offer a 2 course homemade lunch on Tuesday.","TIME_":"12:00-3.00","ADDRESS":"Shalford Road,\u00A0 Rayne, CM776BS","POSTCODE":"CM77 6BS","CHARGE":"£4 for soup and sandwiches and £5 for 2 course lunch ","WEBSITE":"Revroman@btinternet.com or txt Kate 07522443622","X":null,"Y":null}},{"type":"Feature","id":19,"geometry":{"type":"Point","coordinates":[582209.00012207031,214523.00012207031]},"properties":{"OBJECTID":19,"NAME":"The Community Hub, Witham ","DAY_":"Monday-Saturday ","TIME_":"10:00-14:00","ADDRESS":"Unit 17, The Grove Shopping Centre, Witham CM8 2YT","POSTCODE":"CM8 2TY","CHARGE":"Soup and roll is free of charge untul March 31st ","WEBSITE":"https://www.facebook.com/withamhub/","X":582209,"Y":214523}},{"type":"Feature","id":443,"geometry":{"type":"Point","coordinates":[582082.07287597656,230871.68389892578]},"properties":{"OBJECTID":443,"NAME":"Halstead Leisure Centre Warm Wednesdays","DAY_":"Wednesday","TIME_":"8.45am - 11.45am","ADDRESS":"Colne Road, Halstead","POSTCODE":"CO9 2HR","CHARGE":"Free tea & coffee ","WEBSITE":"01787 473480 hlc-sales@fusion.lifestyle.com ","X":null,"Y":null}},{"type":"Feature","id":446,"geometry":{"type":"Point","coordinates":[585268.2373046875,229027.27392578125]},"properties":{"OBJECTID":446,"NAME":"Earls Colne Recreation Club","DAY_":"Everyday","TIME_":"9am -10pm","ADDRESS":"Halstead road, Earls Colne","POSTCODE":"CO6 2NG","CHARGE":"Hot drinks are offered for free","WEBSITE":"https://www.facebook.com/EarlsColneRecreationClub/","X":null,"Y":null}},{"type":"Feature","id":447,"geometry":{"type":"Point","coordinates":[586085.07690429688,218775.06072998047]},"properties":{"OBJECTID":447,"NAME":"United Reformed Chruch Halls","DAY_":"Thursdays ","TIME_":"12:30-16:00","ADDRESS":"High Street, Kelvedon","POSTCODE":"CO5 9AE","CHARGE":"Free tea, coffee & biscuits. Served from 1pm","WEBSITE":"https://kelvedonurc.org.uk/wp/","X":null,"Y":null}},{"type":"Feature","id":27,"geometry":{"type":"Point","coordinates":[586095.00012207031,218769.00012207031]},"properties":{"OBJECTID":27,"NAME":"Kelvedon United Reformed Church ","DAY_":"Tuesdays","TIME_":"10:00-14:00","ADDRESS":"Kelvedon United Reformed Church ","POSTCODE":"CO5 9AE","CHARGE":"Tea Coffee & Biscuits and soup available after 12pm","WEBSITE":"https://kelvedonurc.org.uk/wp/ ","X":586095,"Y":218769}},{"type":"Feature","id":448,"geometry":{"type":"Point","coordinates":[575742.54150390625,225619.42572021484]},"properties":{"OBJECTID":448,"NAME":"Bocking St Mary's  Open House, a warm place this winter","DAY_":"Fridays from December 2nd to March 10th","TIME_":"11.30am to 2pm","ADDRESS":"St Mary's Church Hall, Church Street, Bocking","POSTCODE":"CM7 5JY","CHARGE":"Free Soup Lunch, refreshments also available","WEBSITE":"www.stmarys-bocking.com","X":null,"Y":null}},{"type":"Feature","id":449,"geometry":{"type":"Point","coordinates":[575518.57568359375,223222.04791259766]},"properties":{"OBJECTID":449,"NAME":"Braintree Salvation Army Here 4 You Warm Room","DAY_":"Wednesdays","TIME_":"9.00 - 11.30","ADDRESS":"Rayne Road Braintree","POSTCODE":"CM7 2QH","CHARGE":"Free Tea & Coffee","WEBSITE":null,"X":null,"Y":null}},{"type":"Feature","id":450,"geometry":{"type":"Point","coordinates":[585338.64971923828,223023.26007080078]},"properties":{"OBJECTID":450,"NAME":"Coggeshall Cosy Kitchen","DAY_":"Fridays from 2nd Decmber","TIME_":"9:00-12:00","ADDRESS":"St. Peters Church Kitchen, Coggeshall","POSTCODE":"CO6 1UD","CHARGE":"Hot food and drinks","WEBSITE":"https://st-peter-ad-vincula.org.uk/","X":null,"Y":null}},{"type":"Feature","id":451,"geometry":{"type":"Point","coordinates":[578131.58209228516,220806.67010498047]},"properties":{"OBJECTID":451,"NAME":"Cressing Keep Warm and Keep in Touch","DAY_":"Thursdays from 1st December","TIME_":"10.30am - 1.00pm","ADDRESS":"St Barnabas Hall, Claud Ince Avenue, Cressing, ","POSTCODE":"CM77 8HL","CHARGE":"Free Refreshments","WEBSITE":"www.cressing-pc.gov.uk","X":null,"Y":null}},{"type":"Feature","id":452,"geometry":{"type":"Point","coordinates":[576993.23809814453,220407.46069335938]},"properties":{"OBJECTID":452,"NAME":"Black Notley, The Coffee House, ","DAY_":"Wednesday and Fridays ","TIME_":"9:00-12:00","ADDRESS":"Witham Road, Black Notley","POSTCODE":"CM77 8ND","CHARGE":"Open pantry and warm space both free","WEBSITE":"https://www.facebook.com/thecoffeehouseblacknotley","X":null,"Y":null}},{"type":"Feature","id":454,"geometry":{"type":"Point","coordinates":[584939.17712402344,222688.87030029297]},"properties":{"OBJECTID":454,"NAME":"Coggeshall Village Hall","DAY_":"Wednesdays ","TIME_":"11:00-15:00","ADDRESS":"Keys Room, Coggeshall Village Hall, 23 Stoneham Steet, Coggeshall","POSTCODE":"CO6 1UH","CHARGE":"Free hot drinks & soup.  Chat, puzzle, sit, knit or read ","WEBSITE":"http://www.coggeshall-pc.gov.uk/","X":null,"Y":null}}]}