{
	"type": "FeatureCollection",
	"features": [
		{"geometry":{"coordinates":[1.59739,52.15537],"type":"Point"},"properties":{"_source":"warm_welcome","address":"Aldeburgh Library, Aldeburgh, Suffolk IP15 5EG","description":"Local library with a warm space offer. All welcome","hours":{"_text":"Monday: 09:00 - 13:00, Tuesday: 09:00 - 13:00, Wednesday: 09:00 - 18:00, Thursday: 09:00 - 13:00, Friday: 09:00 - 13:00, Saturday: 10:00 - 15:00, Sunday: 10:00 - 13:00","opening":"Mo 09:00-13:00; Tu 09:00-13:00; We 09:00-18:00; Th 09:00-13:00; Fr 09:00-13:00; Sa 10:00-15:00; Su 10:00-13:00"},"title":"Aldeburgh Library"},"type":"Feature"},
		{"geometry":{"coordinates":[1.57202,52.20743],"type":"Point"},"properties":{"_source":"warm_welcome","address":"The Live Well Hub,, Leiston, Suffolk IP16 4HF","description":"One or two large rooms, access to parking, disabled loo and lift to avoid short flight of steps. Small kitchen","hours":{"_text":"Monday: 10:00 - 16:00, Wednesday: 10:00 - 16:00, Friday: 10:00 - 16:00","opening":"Mo 10:00-16:00; We 10:00-16:00; Fr 10:00-16:00"},"title":"The Live Well Hub"},"type":"Feature"},
		{"geometry":{"coordinates":[1.59532,52.15565],"type":"Point"},"properties":{"_source":"suffolk_-_rural_coffee_caravan","address":"Victoria Road, Aldeburgh IP15 5EG, UK","contact":"Phone:01728 452502","hours":{"_text":"Open 7 days a week, please follow the website link for opening times "},"title":"Aldeburgh Library","url":"https://www.suffolklibraries.co.uk/visit/locations-and-times/aldeburgh-library"},"type":"Feature"},
		{"geometry":{"coordinates":[1.57575,52.20805],"type":"Point"},"properties":{"_source":"suffolk_-_rural_coffee_caravan","address":"Old Post Office Square, Leiston IP16 4ER, UK","contact":"Phone:01728 831252","hours":{"_text":"Open 5 days a week, please follow the website link for opening times "},"title":"Leiston Library","url":"https://www.suffolklibraries.co.uk/visit/locations-and-times/leiston-library"},"type":"Feature"},
		{"geometry":{"coordinates":[1.49288,52.21653],"type":"Point"},"properties":{"_source":"suffolk_-_rural_coffee_caravan","address":"County Offices, Street Farm Road, Saxmundham IP17 1AL, UK","contact":"Phone:01728 652440","hours":{"_text":"Open 5 days a week, please follow the website link for opening times "},"title":"Saxmundham Library","url":"https://www.suffolklibraries.co.uk/visit/locations-and-times/saxmundham-library"},"type":"Feature"}
	]
}
