{
	"type": "FeatureCollection",
	"features": [
		{"geometry":{"coordinates":[-3.14110,54.60255],"type":"Point"},"properties":{"_source":"warm_welcome","address":"Crosthwaite Parish Room, Main Street, Keswick, Cumbria CA12 5NN","description":"Open from 14-11-2022. Opens from 14 November","hours":"Mo 13:00-17:30","title":"CA12 Winter Warmth Initiative"},"type":"Feature"},
		{"geometry":{"coordinates":[-3.16305,54.60367],"type":"Point"},"properties":{"_source":"warm_welcome","address":"Portinscale Village Hall, Howe Lane, Portinscale, Keswick CA12 5RW","description":"Open from 14-11-2022.","hours":"Mo 13:00-16:00","title":"CA12 Winter Warmth Initiative"},"type":"Feature"},
		{"geometry":{"coordinates":[-3.15344,54.62485],"type":"Point"},"properties":{"_source":"warm_welcome","address":"Underskiddaw Village Hall, Millbeck, Cumbria CA12 4PS","description":"Open from 16-11-2022.","hours":"We 13:00-17:00","title":"CA12 Winter Warmth Initiative"},"type":"Feature"},
		{"geometry":{"coordinates":[-3.13457,54.60069],"type":"Point"},"properties":{"_source":"warm_welcome","address":"Keswick Methodist Church, Southey Street, Keswick, Cumbria CA12 4HH","description":"Open from 24-11-2022.","hours":"Th 13:00-17:00","title":"CA12 Winter Warmth Initiative"},"type":"Feature"},
		{"geometry":{"coordinates":[-3.14416,54.60426],"type":"Point"},"properties":{"_source":"warm_welcome","address":"St Herbert's Centre, High Hill, Keswick, Cumbria CA12 5NY","description":"Open from 16-11-2022.","hours":"We 13:00-17:30","title":"CA12 Winter Warmth Initiative"},"type":"Feature"},
		{"geometry":{"coordinates":[-3.14061,54.60131],"type":"Point"},"properties":{"_source":"warm_welcome","address":"The Drop-In Centre, Heads Road, Keswick, Cumbria CA12 5HA","description":"Open from 18-11-2022.","hours":"Fr 13:00-17:30","title":"CA12 Winter Warmth Initiative"},"type":"Feature"},
		{"geometry":{"coordinates":[-3.14350,54.60248],"type":"Point"},"properties":{"_source":"warm_welcome","address":"Friends Meeting House, Elliot Park, Keswick, Cumbria CA12 5NZ","description":"Open from 15-11-2022.","hours":"Tu 13:00-17:30","title":"CA12 Winter Warmth Initiative"},"type":"Feature"},
		{"geometry":{"coordinates":[-3.05466,54.61876],"type":"Point"},"properties":{"_source":"warm_welcome","address":"Threlkeld Village Hall, Station Road, Threlkeld, Cumbria CA12 4RY","description":"Open from 18-11-2022.","hours":"Fr 13:00-17:30","title":"CA12 Winter Warmth Initiative"},"type":"Feature"}
	]
}
