{
	"type": "FeatureCollection",
	"features": [
		{"geometry":{"coordinates":[-2.87485,53.76550],"type":"Point"},"properties":{"_source":"warm_welcome","address":"Kirkham Road, Freckleton, Preston PR4 1HS","description":"","hours":"We 12:30-15:00","title":"Freckleton Methodist Church"},"type":"Feature"},
		{"geometry":{"coordinates":[-3.00532,53.79996],"type":"Point"},"properties":{"_source":"warm_welcome","address":"8 Langdale Road, Blackpool, Lancashire FY4 4RT","description":"Everyone's welcome, no-one's perfect, anything's possible we have a 'payitforward' board where free food/drinks may be available. ","hours":"Mo 09:00-13:00; Tu 09:00-13:00; We 09:00-13:00; Th 09:00-13:00","title":"Freedom Church Mereside"},"type":"Feature"},
		{"geometry":{"coordinates":[-2.86882,53.85105],"type":"Point"},"properties":{"_source":"warm_welcome","address":"Hall Lane , Great Eccleston , Great Eccleston PR3 0XN","description":"Mondays 6 til 7pm free soup and a roll free wifi","hours":"Mo 18:00-21:00; Th 10:00-11:30; Su 11:00-13:00","title":"Great Eccleston Free Methodist Church "},"type":"Feature"},
		{"geometry":{"coordinates":[-3.03283,53.75197],"type":"Point"},"properties":{"_source":"warm_welcome","address":"St Georges Road, Lytham St Annes, Lancs. FY8 2AE","description":"Open from 16 November 2023.","hours":"We 09:00-16:00","title":"St Annes on Sea United Reformed Church"},"type":"Feature"},
		{"geometry":{"coordinates":[-3.03213,53.91665],"type":"Point"},"properties":{"_source":"warm_welcome","address":"Broadway, Fleetwood, Lancashire FY7 7DJ","description":"Children must be accompanied by a responsible adult at all times. We're open every Thursday morning at the moment but from January are looking to extend our hours to 1 pm and we will be serving hot soup and a roll. Our facilities and snacks are free. ","hours":"Th 10:00-11:30","title":"St Nicholas Church Fleetwood"},"type":"Feature"},
		{"geometry":{"coordinates":[-2.88269,53.78439],"type":"Point"},"properties":{"_source":"warm_welcome","address":"Kirkham Methodist Church Nelson Street , Kirkham , Preston PR4 2jp","hours":"Th 13:30-15:30","title":"Take & Make @ Kirkham Methodist Church "},"type":"Feature"},
		{"geometry":{"coordinates":[-3.02178,53.87781],"type":"Point"},"properties":{"_source":"warm_welcome","address":"Meadows Avenue, Thornton, Lancashire FY5 2TW","description":"We cater for young and old alike and everyone in between. We have disabled access throughout. Our facilities are all donation based. We have a food pantry.","hours":"Mo 10:00-13:00; Tu 10:00-13:00; We 10:00-13:00; Th 10:00-13:00; Fr 10:00-13:00; Sa 10:00-13:00; Su 10:00-13:00","title":"Thornton le Fylde Christ Church "},"type":"Feature"}
	]
}
