{
	"type": "FeatureCollection",
	"features": [
		{"geometry":{"coordinates":[-3.03780,53.60228],"type":"Point"},"properties":{"_source":"warm_welcome","address":"Station Road, Southport, Merseyside PR8 3HW","description":"","hours":"Tu 10:30-12:00; Fr 11:00-13:00","title":"Ainsdale Village Church"},"type":"Feature"},
		{"geometry":{"coordinates":[-2.97469,53.64245],"type":"Point"},"properties":{"_source":"warm_welcome","address":"Southport Community Centre, Southport, Merseyside PR86HQ","description":"Open from 11-11-2022.","hours":"Fr 10:00-16:00","title":"Brighter Living Partnership "},"type":"Feature"},
		{"geometry":{"coordinates":[-2.99021,53.65690],"type":"Point"},"properties":{"_source":"warm_welcome","address":"Cherish Centre West Park, Southport, 65-67 Albert Road PR99LD","description":"Our focus is catering for the elderly and vulnerable adults We have a regular quiz ","hours":"Su 13:00-15:00","title":"Cherish Friendship Cafe"},"type":"Feature"},
		{"geometry":{"coordinates":[-2.89509,53.56635],"type":"Point"},"properties":{"_source":"warm_welcome","address":"Cottage Lane, Ormskirk L39 3NE","description":"Tea/coffee/cold dirnks/soup and a roll provided","hours":"Mo 10:30-14:30; Th 10:30-14:30","title":"CLM Church"},"type":"Feature"},
		{"geometry":{"coordinates":[-2.87708,53.56854],"type":"Point"},"properties":{"_source":"warm_welcome","address":"Derby Street, Ormskirk, Lancashire L39","hours":"Th 10:30-13:30","title":"Emmanuel Church Ormskirk"},"type":"Feature"},
		{"geometry":{"coordinates":[-3.06389,53.55624],"type":"Point"},"properties":{"_source":"warm_welcome","address":"68 Rosemary Lane, Liverpool, Merseyside L37 3HA","description":"For everyone","hours":"Tu 10:00-12:00; We 10:00-12:00","title":"Formby Luncheon Club"},"type":"Feature"},
		{"geometry":{"coordinates":[-2.84156,53.67559],"type":"Point"},"properties":{"_source":"warm_welcome","address":"Holy Trinity Church, 92 Blackagate Lane, Tarleton, Preston PR4 6UT","description":"","hours":"Fr 10:00-12:00","title":"Holy Trinity, Tarleton: Coffee & Chat"},"type":"Feature"},
		{"geometry":{"coordinates":[-3.00406,53.63970],"type":"Point"},"properties":{"_source":"warm_welcome","address":"65 Shakespeare Street, Southport, Merseyside PR8 5AJ","hours":"Mo 10:00-15:00; Tu 10:00-15:00; We 10:00-17:30; Th 10:00-15:00; Fr 10:00-15:00","title":"Salvation Army Southport"},"type":"Feature"},
		{"geometry":{"coordinates":[-2.97446,53.64273],"type":"Point"},"properties":{"_source":"sefton_cvs","hours":"Fr 10:00-16:00","title":"Brighter Living Partnership"},"type":"Feature"},
		{"geometry":{"coordinates":[-3.01515,53.62036],"type":"Point"},"properties":{"_source":"sefton_cvs","hours":"We 11:00-15:00","title":"Compassion Acts - Liverpool Road Methodist Church"},"type":"Feature"},
		{"geometry":{"coordinates":[-3.05736,53.56040],"type":"Point"},"properties":{"_source":"sefton_cvs","hours":"Th 11:00-13:00","title":"Compassion Acts - Gild Hall"},"type":"Feature"},
		{"geometry":{"coordinates":[-2.99666,53.65021],"type":"Point"},"properties":{"_source":"sefton_cvs","hours":"Tu 13:30-16:30","title":"Holy Trinity Southport"},"type":"Feature"},
		{"geometry":{"coordinates":[-3.01367,53.63394],"type":"Point"},"properties":{"_source":"sefton_cvs","hours":"Th 10:00-16:00","title":"Birkdale Community Hub & Library"},"type":"Feature"},
		{"geometry":{"coordinates":[-3.03375,53.59169],"type":"Point"},"properties":{"_source":"sefton_cvs","hours":"We 13:00-15:00","title":"Woodvale & Ainsdale Community AssociationÂ "},"type":"Feature"},
		{"geometry":{"coordinates":[-3.06402,53.55628],"type":"Point"},"properties":{"_source":"sefton_cvs","hours":"Tu 10:00-13:15; Th 10:00-13:15; Fr 10:00-13:15","title":"Formby Luncheon Club"},"type":"Feature"}
	]
}
