{
	"type": "FeatureCollection",
	"features": [
		{"geometry":{"coordinates":[-2.90343,53.37739],"type":"Point"},"properties":{"_source":"warm_welcome","address":"All Hallows Church, Greenhill Road, Liverpool L18 6JJ","description":"","hours":"We 11:30-13:45","title":"All Hallows CHurch, Allerton, Liverpool L18 6JJ"},"type":"Feature"},
		{"geometry":{"coordinates":[-2.90612,53.40887],"type":"Point"},"properties":{"_source":"warm_welcome","address":"All Saints Parish Church, Broadgreen Road, Old Swan, Liverpool L13 5SH","hours":"Th 09:30-15:00","title":"All Saints Parish Church, Stoneycroft"},"type":"Feature"},
		{"geometry":{"coordinates":[-2.90007,53.37394],"type":"Point"},"properties":{"_source":"warm_welcome","address":"Mather Avenue, Liverpool L18 7AD","description":"Open from 09-12-2022. Come along and drop in for a welcoming warm space. Enjoy a hot drink, a chat and refreshments. We will be open to everyone from 9.30 to 12.30 every Friday morning","hours":"Fr 09:30-12:30","title":"Allerton United Reformed Church"},"type":"Feature"},
		{"geometry":{"coordinates":[-2.98268,53.33310],"type":"Point"},"properties":{"_source":"warm_welcome","address":"Bromborough Evangelical Church, WIRRAL, Merseyside CH62 2DA","hours":"Fr 09:30-11:30","title":"Bromborough Evangelical Church "},"type":"Feature"},
		{"geometry":{"coordinates":[-3.06031,53.42655],"type":"Point"},"properties":{"_source":"warm_welcome","address":"Claremount Road Methodist Church, Wallasey, Wirral CH45 6UE","description":"Open from 17th November.","hours":"Th 15:00-17:00; Fr 13:00-15:00","title":"Claremount road methodist church, wallasey"},"type":"Feature"},
		{"geometry":{"coordinates":[-3.02304,53.47753],"type":"Point"},"properties":{"_source":"warm_welcome","address":"Crosby Rd N, Waterloo, Liverpool, Waterloo, Liverpool L22 0LQ","description":"","hours":"Mo 10:00-17:00; Tu 10:00-17:00; We 10:00-17:00; Th 10:00-17:00; Fr 10:00-17:00; Sa 10:00-14:00","title":"Crosby Library "},"type":"Feature"},
		{"geometry":{"coordinates":[-2.92237,53.46873],"type":"Point"},"properties":{"_source":"warm_welcome","address":"Fazakerley Community Centre, Liverpool, liverpool L10 7LQ","description":"","hours":"Fr 10:00-16:00","title":"Fazakerley community library"},"type":"Feature"},
		{"geometry":{"coordinates":[-2.84082,53.41104],"type":"Point"},"properties":{"_source":"warm_welcome","address":"Huyton Library, Huyton, Knowsley L36 9GD","description":"Open from 1.11.22.","hours":"Mo 10:00-17:00; Tu 10:00-17:00; We 10:00-17:00; Th 10:00-17:00; Fr 10:00-17:00; Sa 10:00-13:00","title":"Huyton Library"},"type":"Feature"},
		{"geometry":{"coordinates":[-2.92979,53.39571],"type":"Point"},"properties":{"_source":"warm_welcome","address":"Frontline Centre, 147 Lawrence Road, Wavertree, Liverpool L15 3HA","description":"","hours":"We 10:00-12:00; Th 10:00-12:00; Fr 10:00-12:00","title":"Imagine If "},"type":"Feature"},
		{"geometry":{"coordinates":[-2.99020,53.44554],"type":"Point"},"properties":{"_source":"warm_welcome","address":"64-68, Balliol Road, Bootle, Liverpool, County (optional) L20 7EJ","description":"The main profile of beneficiary will be older people facing various forms of material poverty","hours":"Th 11:00-16:00","title":"Independence Initiative Limited"},"type":"Feature"},
		{"geometry":{"coordinates":[-2.92045,53.38929],"type":"Point"},"properties":{"_source":"warm_welcome","address":"Th Hub, Ramilies Road, Liverpool, Merseyside L18 1ED","description":"Open from 16-11-2022.","hours":"We 10:00-12:00","title":"Jubilee Church Liverpool "},"type":"Feature"},
		{"geometry":{"coordinates":[-3.00325,53.35703],"type":"Point"},"properties":{"_source":"warm_welcome","address":"1a Old Chester Rd , Bebington, Wirral CH63 7LA","description":"Life Youth Hub is open for any young people aged 11-17. ","hours":"We 15:00-17:00; Th 15:00-17:00; Fr 15:00-17:00","title":"Life Youth Hub"},"type":"Feature"},
		{"geometry":{"coordinates":[-2.99806,53.46403],"type":"Point"},"properties":{"_source":"warm_welcome","address":"123-129 Linacre Road , Litherland, Merseyside L21 8NS","description":"we offer soup, sandwiches and snacks for most ages. we have board games available such as chess, dominoes cards ","hours":"Th 12:15-16:00","title":"Linacre Methodist Mission "},"type":"Feature"},
		{"geometry":{"coordinates":[-2.90073,53.38528],"type":"Point"},"properties":{"_source":"warm_welcome","address":"Rose Lane Mossley Hill , LIVERPOOL, merseyside L18 6HU","description":"Open from 01 12 2022. We welcome anyone who would like a space to come, have a chat, sit and work, have a hot drink and stay warm. We will offer you a space to just come and spend the morning with us. ","hours":"Th 09:30-12:30","title":"MOSSLEY HILL CHURCH"},"type":"Feature"},
		{"geometry":{"coordinates":[-2.94317,53.42233],"type":"Point"},"properties":{"_source":"warm_welcome","address":"63 rocky lane, Anfield , Liverpool L6 4bb","description":"","title":"New Beginnings improving lives CIC "},"type":"Feature"},
		{"geometry":{"coordinates":[-3.03954,53.43121],"type":"Point"},"properties":{"_source":"warm_welcome","address":"221 Seabank Rd, New Brighton, Wallasey CH45 1HE","description":"Open from 14/11/2022. we welcome anybody who needs some warmth! Please join us for a hot drink and a warm welcome!","hours":"Mo 14:00-16:00; Tu 10:00-12:00","title":"New Brighton Baptist"},"type":"Feature"},
		{"geometry":{"coordinates":[-2.97026,53.48643],"type":"Point"},"properties":{"_source":"warm_welcome","address":"Ronald Ross Ave, Netherton , Liverpool L30 5RD","description":" Warm Drinks and food, free Wi-Fi and opportunities to meet with friends new and old, read the paper and relax. All are welcome.","hours":"Mo 15:00-17:00; We 12:00-02:00; Th 09:00-11:00","title":"Ozzy's Kitchen @ St Oswalds Church"},"type":"Feature"},
		{"geometry":{"coordinates":[-2.84210,53.34405],"type":"Point"},"properties":{"_source":"warm_welcome","address":"Parklands, Conleach Roas, Speke, Liverpool L240TY","description":"","hours":"Tu 10:00-13:00; Fr 10:30-12:30","title":"South Liverpool Homes"},"type":"Feature"},
		{"geometry":{"coordinates":[-2.96964,53.43801],"type":"Point"},"properties":{"_source":"warm_welcome","address":"Spellow Lane Evangelical Church Spellow Lane, Walton, Liverpool L4 4DE","description":"Open from 17th November 2022.","hours":"Th 11:00-13:00","title":"Spellow Lane Church"},"type":"Feature"},
		{"geometry":{"coordinates":[-3.15769,53.40110],"type":"Point"},"properties":{"_source":"warm_welcome","address":"2 Greenwood Rd, Meols, Wirral CH47 6AD","description":"Open from 02/11/2022.","hours":"We 13:30-15:30","title":"St Andrew's United Reformed Church"},"type":"Feature"},
		{"geometry":{"coordinates":[-3.11645,53.35377],"type":"Point"},"properties":{"_source":"warm_welcome","address":"St Chad's Church Office, Roslin Rd, Irby, , Wirral CH61 3UH","description":"Open from 06-12-22.","hours":"Tu 09:00-12:30","title":"St Chad's Irby"},"type":"Feature"},
		{"geometry":{"coordinates":[-2.95016,53.43393],"type":"Point"},"properties":{"_source":"warm_welcome","address":"Pinehurst Road, Anfield, Liverpool L4 7UQ","description":" Freshly-made Breakfast items are available to buy.","hours":"Tu 09:15-14:00; We 09:15-14:00; Th 09:15-14:00; Fr 09:15-14:00","title":"St Columba Anfield"},"type":"Feature"},
		{"geometry":{"coordinates":[-2.87943,53.44982],"type":"Point"},"properties":{"_source":"warm_welcome","address":"Langley close, Croxteth park , Liverpool L12 0NB","description":"All welcomeWe offer mental health and well-being support 1-1 if needed from a qualified mental health nurse. We can also signpost to food banks and other services ","hours":"Th 11:00-14:30","title":"St Cuthberts "},"type":"Feature"},
		{"geometry":{"coordinates":[-2.85946,53.36073],"type":"Point"},"properties":{"_source":"warm_welcome","address":"Stewart Avenue, Hunts Cross, Liverpool L25 0NG","description":"Everyone of any age is welcome. We have toys, large soft building equipment, giant connect 4, table tennis, pool, arts and crafts, knitting and Lego.","hours":"We 15:15-17:15","title":"St Hilda's Church, Hunts Cross"},"type":"Feature"},
		{"geometry":{"coordinates":[-2.89245,53.41683],"type":"Point"},"properties":{"_source":"warm_welcome","address":"St John The Evangelist Thomas Lane, Knotty Ash, Liverpool L145NR","description":" Please see our website or facebook page for up to the minute info!info.","hours":"Mo 10:00-12:00; Tu 09:30-15:30; We 09:30-15:30; Fr 13:30-15:00; Su 10:30-12:30","title":"St John the Evangelist Knotty Ash "},"type":"Feature"},
		{"geometry":{"coordinates":[-2.99922,53.36325],"type":"Point"},"properties":{"_source":"warm_welcome","address":"23 New Chester Road, New Ferry, Wirral CH62 1DG","hours":"Fr 10:00-11:30","title":"St Mark's New Ferry"},"type":"Feature"},
		{"geometry":{"coordinates":[-3.03834,53.42260],"type":"Point"},"properties":{"_source":"warm_welcome","address":"Withins Lane , Wallasey, Wirral Ch45 7NQ","title":"St Mary's Church"},"type":"Feature"},
		{"geometry":{"coordinates":[-3.09345,53.34761],"type":"Point"},"properties":{"_source":"warm_welcome","address":"1, Gills Lane, Pensby, Wirral, Merseyside CH61 1AF","description":"Open from 01-11-2022.","hours":"Tu 09:00-12:30; We 09:00-12:30; Th 09:00-12:30; Fr 09:00-12:30","title":"St Michaels Church Hall"},"type":"Feature"},
		{"geometry":{"coordinates":[-2.86812,53.37523],"type":"Point"},"properties":{"_source":"warm_welcome","address":"The Hub@ St Peter's, The Simon Peter Centre, Church Road, Woolton, Liverpool L25 5JF","description":"","hours":"Mo 09:00-13:00; Tu 09:00-13:00; We 09:00-13:00; Th 09:00-13:00; Fr 09:00-13:00","title":"St Peter's Church"},"type":"Feature"},
		{"geometry":{"coordinates":[-3.00518,53.45784],"type":"Point"},"properties":{"_source":"warm_welcome","address":"60 Peel Road, Bootle, Liverpool L12 4RW","description":"","hours":"Mo 12:00-16:00","title":"St. Leonard's Youth & Community Centre"},"type":"Feature"},
		{"geometry":{"coordinates":[-2.97635,53.41127],"type":"Point"},"properties":{"_source":"warm_welcome","address":"Norton St, Liverpool, Merseyside L3 8LR","description":"We support those with neurological conditions: https://www.thebraincharity.org.uk/","hours":"We 17:00-19:30","title":"The Brain Charity- Warm Welcome Hub"},"type":"Feature"},
		{"geometry":{"coordinates":[-2.97872,53.33413],"type":"Point"},"properties":{"_source":"warm_welcome","address":"The Village Centre, Church Square, Bromborough , Wirral CH62 2DH","description":" Open from 01-11-2022.","hours":"Mo 09:00-14:00; Tu 09:00-14:00; We 09:00-14:00; Th 09:00-14:00; Fr 09:00-14:00","title":"The Centre - part of St Barnabas Bromborough "},"type":"Feature"},
		{"geometry":{"coordinates":[-2.95966,53.45586],"type":"Point"},"properties":{"_source":"warm_welcome","address":"Life Rooms, Evered Avenue, Liverpool, Merseyside L9 2AF","description":" https://www.liferooms.org/about-us/news/latest-news/life-rooms-sites-become-community-warm-hubs","hours":"Mo 09:30-16:30; Tu 09:30-16:30; We 09:30-16:30; Th 09:30-16:30; Fr 09:30-16:30","title":"The Life Rooms"},"type":"Feature"},
		{"geometry":{"coordinates":[-2.95930,53.45137],"type":"Point"},"properties":{"_source":"warm_welcome","address":"95 Cavendish Drive, Liverpool L9 1NB","description":"All age groups We offer tea, coffee, soup & roll and snacks","hours":"Mo 10:00-02:00; Tu 10:00-02:00; We 10:00-02:00; Th 10:00-02:00","title":"The Salvation Army"},"type":"Feature"},
		{"geometry":{"coordinates":[-2.99862,53.49374],"type":"Point"},"properties":{"_source":"warm_welcome","address":"2 Drummond Road, Thornton , Liverpool L23 9YP","description":" A warm welcome, a warm drink and a friendly chat are available ","hours":"Mo 10:00-12:00; Tu 10:30-12:00; Su 10:30-12:30","title":"TKC Thornton "},"type":"Feature"},
		{"geometry":{"coordinates":[-2.87550,53.40756],"type":"Point"},"properties":{"_source":"warm_welcome","address":"Roby Road, Liverpool, Knowsley L143NU","description":"","hours":"Mo 13:30-15:30; Fr 10:00-12:00","title":"Warm Place of Welcome @ Warm Craft Group"},"type":"Feature"},
		{"geometry":{"coordinates":[-3.02934,53.38877],"type":"Point"},"properties":{"_source":"warm_spaces","address":"Vincent Street, Birkenhead, England, CH41","title":"The Salvation Army, Birkenhead","url":"https://www.salvationarmy.org.uk/birkenhead"},"type":"Feature"},
		{"geometry":{"coordinates":[-2.95360,53.38297],"type":"Point"},"properties":{"_source":"warm_spaces","address":"14 Ullet Road, Liverpool, England, L8 3SR","title":"Park VIew Care Home","url":"https://kingsleyhealthcare.co.uk/pages/home/park-view-nursing-home"},"type":"Feature"},
		{"geometry":{"coordinates":[-2.96973,53.41328],"type":"Point"},"properties":{"_source":"warm_spaces","address":"Salisbury Street, Liverpool, England, L3 8DR","title":"Saint Francis Xavier's Church","url":"https://sfxchurchliverpool.co.uk"},"type":"Feature"},
		{"geometry":{"coordinates":[-2.92052,53.37639],"type":"Point"},"properties":{"_source":"warm_spaces","address":"Mossley Hill Parish Church Hilltop Centre, Rose Lane, Liverpool, England, L18 8DB","title":"Mossley Hill Parish Church Hilltop Centre","url":"https://mossleyhillchurch.org.uk"},"type":"Feature"},
		{"geometry":{"coordinates":[-3.00481,53.45774],"type":"Point"},"properties":{"_source":"sefton_cvs","hours":"Mo 12:00-16:00","title":"St Leonards Youth & Community Centre"},"type":"Feature"},
		{"geometry":{"coordinates":[-2.99073,53.44578],"type":"Point"},"properties":{"_source":"sefton_cvs","hours":"Th 11:00-16:00","title":"The Independence Initiative"},"type":"Feature"},
		{"geometry":{"coordinates":[-2.97781,53.49299],"type":"Point"},"properties":{"_source":"sefton_cvs","hours":"Th 11:30-15:00","title":"L30 Community Centre"},"type":"Feature"},
		{"geometry":{"coordinates":[-2.99095,53.44365],"type":"Point"},"properties":{"_source":"sefton_cvs","hours":"Tu 10:00-14:00; We 10:00-14:00","title":"Community by Nature"},"type":"Feature"},
		{"geometry":{"coordinates":[-3.02443,53.47193],"type":"Point"},"properties":{"_source":"sefton_cvs","hours":"Fr 11:00-14:00","title":"Crosby Housing Association & Waterloo Community Centre"},"type":"Feature"},
		{"geometry":{"coordinates":[-2.94464,53.50736],"type":"Point"},"properties":{"_source":"sefton_cvs","hours":"Mo 13:00-16:00","title":"Friends of Maghull & District (+ Maghull Town Council)"},"type":"Feature"},
		{"geometry":{"coordinates":[-2.99159,53.45575],"type":"Point"},"properties":{"_source":"sefton_cvs","hours":"Mo 09:30-13:30; Tu 09:30-13:30; We 09:30-13:30; Th 09:30-13:30; Fr 09:30-13:30","title":"Sefton OPERA"},"type":"Feature"},
		{"geometry":{"coordinates":[-3.02401,53.49103],"type":"Point"},"properties":{"_source":"sefton_cvs","hours":"Su 14:00-16:00","title":"St Luke's Church, Crosby"},"type":"Feature"},
		{"geometry":{"coordinates":[-2.97618,53.46608],"type":"Point"},"properties":{"_source":"sefton_cvs","hours":"Th 10:00-15:00","title":"The Orrell Trust"},"type":"Feature"},
		{"geometry":{"coordinates":[-2.97139,53.47835],"type":"Point"},"properties":{"_source":"sefton_cvs","hours":"Tu 09:00-14:30; We 09:00-14:30; Th 09:00-14:30","title":"Netherton Park Neighbourhood Centre"},"type":"Feature"},
		{"geometry":{"coordinates":[-2.99752,53.46348],"type":"Point"},"properties":{"_source":"sefton_cvs","title":"Linacre Methodist Mission"},"type":"Feature"},
		{"geometry":{"coordinates":[-2.97006,53.48607],"type":"Point"},"properties":{"_source":"sefton_cvs","hours":"Mo 15:00-17:00; We 12:00-14:00; Th 09:00-11:00","title":"St Oswalds Church Centre"},"type":"Feature"},
		{"geometry":{"coordinates":[-2.99787,53.44905],"type":"Point"},"properties":{"_source":"sefton_cvs","hours":"Tu 13:00-16:00; Su 13:00-16:00","title":"Lock & Quay Community Pub"},"type":"Feature"}
	]
}
