{
	"type": "FeatureCollection",
	"features": [
		{"geometry":{"coordinates":[-2.92626,53.20836],"type":"Point"},"properties":{"_source":"warm_welcome","address":"Parade Enterprise Centre, 14 the Parade, Blacon, Chester CH1 5HN","description":"","hours":"Mo 09:00-17:00; Tu 09:00-17:00; We 09:00-17:00; Th 09:00-18:00; Fr 09:00-17:00; Sa 09:30-13:00","title":"Blacon Library"},"type":"Feature"},
		{"geometry":{"coordinates":[-2.91433,53.17339],"type":"Point"},"properties":{"_source":"warm_welcome","address":"Hawthorn Road, Chester, Cheshire CH4 8HX","title":"Cheshire West and Chester Council"},"type":"Feature"},
		{"geometry":{"coordinates":[-2.88799,53.19701],"type":"Point"},"properties":{"_source":"warm_welcome","address":"Christ Church Mission House, 31 Church Street, Chester CH1 3JD","description":"Open from 07-11-2022. Free tea, coffee, toast and biscuits. Conversation for those who want it and quiet/work spaces for those who don't! We have a selection of games/jigsaws/newspapers, and occasional additional activities.","hours":"Mo 10:00-14:00","title":"Christ Church Chester"},"type":"Feature"},
		{"geometry":{"coordinates":[-2.90192,53.27673],"type":"Point"},"properties":{"_source":"warm_welcome","address":"Civic Way, Ellesmere Port, Cheshire CH65 0BG","description":" Public computers","hours":"Mo 09:00-19:00; Tu 09:00-17:00; We 09:00-17:00; Th 09:00-19:00; Fr 09:00-19:00; Sa 09:00-13:00","title":"Ellesmere Port Library"},"type":"Feature"},
		{"geometry":{"coordinates":[-2.85445,53.19733],"type":"Point"},"properties":{"_source":"warm_welcome","address":"Great Boughton Library, 74 Green Lane, Vicars Cross Chester CH3 5LB","description":"","hours":"Mo 09:30-13:00; Tu 09:30-13:00; We 09:30-13:00; Th 09:30-13:00; Fr 09:30-13:00; Sa 09:30-13:00","title":"Great Boughton Library"},"type":"Feature"},
		{"geometry":{"coordinates":[-3.10049,53.32885],"type":"Point"},"properties":{"_source":"warm_welcome","address":"199 Telegraph Road, Heswall, Wirral CH60 7SE","description":"Open from 03/11/2022.","hours":"We 14:00-17:00","title":"Heswall United Reformed Church"},"type":"Feature"},
		{"geometry":{"coordinates":[-2.92631,53.20910],"type":"Point"},"properties":{"_source":"warm_welcome","address":"50 Norris Road, Chester, Cheshire CH1 5DZ","description":"Open from 17/10/22.","hours":"Mo 12:00-17:00; Th 11:45-17:00; Su 13:00-18:00","title":"Holy Trinity Church"},"type":"Feature"},
		{"geometry":{"coordinates":[-2.87411,53.19775],"type":"Point"},"properties":{"_source":"warm_welcome","address":"Westminster Road, Hoole, Chester CH2 3AP","description":" Our library is open 2-4pm on Monday, Tuesday and Thursdays. It's a lovely warm place to sit and read with access to free wifi and also library computers. We also run a free table tennis social club on Friday 1.30-3.30. Free tea and coffee available on Fri.","hours":"Mo 14:00-16:00; Tu 14:00-16:00; Th 14:00-16:00; Fr 13:30-15:30","title":"Hoole Community Centre"},"type":"Feature"},
		{"geometry":{"coordinates":[-2.87396,53.19984],"type":"Point"},"properties":{"_source":"warm_welcome","address":"Hamilton Street , Hoole, Chester CH2 3JG","description":"Open from 07/09/2022. Our church hall is open every Wednesday afternoon from 2pm. Hot drinks and biscuits. Activities available such as scrabble, chess, draughts, colouring, bring your knitting or knit a square. Newspapers available.","hours":"We 14:00-15:30","title":"Hoole Methodist Church"},"type":"Feature"},
		{"geometry":{"coordinates":[-2.91148,53.17664],"type":"Point"},"properties":{"_source":"warm_welcome","address":"Lache Park Avenue, Lache, Chester CH4 8HR","description":"","hours":"Mo 09:30-13:00; Tu 09:30-13:00; Th 09:30-13:00; Fr 09:30-13:00; Sa 09:30-13:00","title":"Lache Library"},"type":"Feature"},
		{"geometry":{"coordinates":[-2.94905,53.28795],"type":"Point"},"properties":{"_source":"warm_welcome","address":"Chester Road, Little Sutton, Ellesmere Port CH66 1QQ","description":"","hours":"Mo 10:00-13:00; Tu 13:00-19:00; Th 10:00-13:00; Fr 13:00-19:00; Sa 09:30-13:00","title":"Little Sutton Library"},"type":"Feature"},
		{"geometry":{"coordinates":[-2.92158,53.29137],"type":"Point"},"properties":{"_source":"warm_welcome","address":"Mayfields, Naylor Crescent, Ellesmere Port, Cheshire CH66 1TP","description":"People aged 55 and over","hours":"Tu 10:00-13:00; We 10:00-13:00","title":"MHA Communities Cheshire West"},"type":"Feature"},
		{"geometry":{"coordinates":[-3.07073,53.29111],"type":"Point"},"properties":{"_source":"warm_welcome","address":"Parkgate Road, Neston, Cheshire West CH64 6QE","description":"","hours":"Mo 09:00-17:00; Tu 09:00-19:00; We 09:00-17:00; Th 09:00-17:00; Fr 09:00-19:00; Sa 09:30-13:00","title":"Neston Library"},"type":"Feature"},
		{"geometry":{"coordinates":[-3.03968,53.21242],"type":"Point"},"properties":{"_source":"warm_welcome","address":"10-12 Chester Road West, Shotton, DEESIDE, Flintshire CH5 1BX","description":"","hours":"Mo 09:30-12:00; We 09:30-12:00; Fr 09:30-12:00","title":"RIVERTOWN United Reformed Church"},"type":"Feature"},
		{"geometry":{"coordinates":[-2.89334,53.19015],"type":"Point"},"properties":{"_source":"warm_welcome","address":"St Peter's Church, Watergate Street, Chester CH1 2LA","description":"","hours":"Tu 11:00-16:00; We 11:00-16:00; Th 11:00-16:00; Fr 11:00-16:00; Sa 11:00-16:00; Su 09:15-11:30","title":"St Peter's Church"},"type":"Feature"},
		{"geometry":{"coordinates":[-2.90196,53.20452],"type":"Point"},"properties":{"_source":"warm_welcome","address":"Parkgate Rd, Chester, Chester CH1 4BR","description":"","hours":"Tu 09:00-12:00","title":"St Thomas Church Garden Quarter"},"type":"Feature"},
		{"geometry":{"coordinates":[-2.86659,53.17629],"type":"Point"},"properties":{"_source":"warm_welcome","address":"St. Luke's Church, Chester Road, Huntington, Chester CH3 6BT","description":" Tues-Sat is our cafe, the Sunday times are our service (plus coffee afterwards). You are welcome to use the cafe but not buy or, if you prefer, ask for \"a tea for Henry\" and it'll be on the house. Cafe closed for 2 weeks over Christmas and New Year.","hours":"Tu 10:00-12:00; We 10:00-12:00; Th 10:00-14:00; Fr 10:00-14:00; Sa 10:00-13:00; Su 10:00-12:00","title":"St. Luke's Church"},"type":"Feature"},
		{"geometry":{"coordinates":[-2.89532,53.19202],"type":"Point"},"properties":{"_source":"warm_welcome","address":"Hunter Street, Chester CH1 2AR","description":"We cater for the whole community - this house is your house. There are book clubs, writing groups, craft sessions, support groups, English conversation sessions, help with technology, free activities for children and young people, and much more. Storyhouse is a cultural hub in the centre of Chester with two theatres, a cinema, library, and restaurant. There is study space, free WiFi access, and community groups to join. We can also signpost you to other support services you might need.","hours":"Mo 08:00-23:00; Tu 08:00-23:00; We 08:00-23:00; Th 08:00-23:00; Fr 08:00-23:00; Sa 08:00-23:00; Su 09:30-23:00","title":"Storyhouse"},"type":"Feature"},
		{"geometry":{"coordinates":[-2.90224,53.27840],"type":"Point"},"properties":{"_source":"warm_welcome","address":"Whitby Road, Ellesmere Port, Cheshire CH65 0AB","description":"Open from 4th November 2022. There are a number of additional activities available in the week","hours":"Mo 10:00-13:00; Tu 10:00-13:00; Th 10:00-13:00; Fr 10:00-13:00","title":"Trinity Methodist church"},"type":"Feature"},
		{"geometry":{"coordinates":[-2.88226,53.22016],"type":"Point"},"properties":{"_source":"warm_welcome","address":"Flag Lane South, Upton, Chester, Cheshire CH2 1LB","description":"Open from 17 November 2022. Free hot drinks, biscuits and snacks. A place to be quiet or have a chat with others. ","hours":"Th 10:30-12:00","title":"Upton Baptist Church, Chester"},"type":"Feature"},
		{"geometry":{"coordinates":[-2.88449,53.21348],"type":"Point"},"properties":{"_source":"warm_welcome","address":"Wealstone Lane, Upton, Chester CH2 1HB","description":"","hours":"Mo 09:30-13:00; Tu 09:30-13:00; We 09:30-13:00; Th 09:30-13:00; Fr 09:30-13:00; Sa 09:30-13:00","title":"Upton Library"},"type":"Feature"}
	]
}
