{
	"type": "FeatureCollection",
	"features": [
		{"geometry":{"coordinates":[-3.13792,51.73132],"type":"Point"},"properties":{"_source":"warm_welcome","address":"Abertillery Library, Station Hill, Abertillery, Blaenau Gwent NP13 1TE","description":" We close for lunch between 13:00-14:00","hours":"Tu 09:00-17:30, We 09:00-17:30, Th 09:00-17:30, Fr 09:00-17:30, Sa 09:00-13:00","title":"Aneurin Leisure Trust/Blaenau Gwent Libraries"},"type":"Feature"},
		{"geometry":{"coordinates":[-3.14023,51.73446],"type":"Point"},"properties":{"_source":"warm_welcome","address":"Victoria Street, Abertillery , Blaenau Gwent NP131NJ","description":"","hours":"We 10:00-12:00","title":"Blaenau Gwent Baptist Church "},"type":"Feature"},
		{"geometry":{"coordinates":[-3.16113,51.76911],"type":"Point"},"properties":{"_source":"warm_welcome","address":"High Street, Blaina, Gwent Np13 3BN","description":" Blaina Library closed between 1pm and 2pm for lunch","hours":"Mo 09:30-17:30, Th 09:30-17:30, Fr 09:30-17:30","title":"Blaenau Gwent Libraries - Blaina"},"type":"Feature"},
		{"geometry":{"coordinates":[-3.13428,51.73115],"type":"Point"},"properties":{"_source":"warm_welcome","address":"Park Place, Abertillery, Gwent NP13 1ED","description":"","hours":"We 12:00-14:00, Th 12:00-14:00, Fr 12:00-14:00, Su 10:00-10:00","title":"Ebenezer Baptist Church"},"type":"Feature"},
		{"geometry":{"coordinates":[-3.00349,51.65204],"type":"Point"},"properties":{"_source":"warm_welcome","address":"Llanyrafon Way, Cwmbran, Torfaen NP44 8RA","description":"Open from 7 November 2022.","hours":"Mo 10:00-15:00, Tu 10:00-15:00, We 10:00-15:00, Th 10:00-15:00, Fr 10:00-15:00, Sa 10:00-15:00","title":"Llanyrafon Methodist Church"},"type":"Feature"},
		{"geometry":{"coordinates":[-3.14720,51.66436],"type":"Point"},"properties":{"_source":"warm_welcome","address":"High Street, Newbridge, Caerphilly NP11 4FH","description":" We close for lunch from 13:00-14:00","hours":"Mo 09:30-17:00, Tu 09:30-18:00, We 14:00-17:00, Th 09:30-17:00, Fr 09:30-17:00","title":"Newbridge Library"},"type":"Feature"},
		{"geometry":{"coordinates":[-3.02116,51.82589],"type":"Point"},"properties":{"_source":"warm_welcome","address":"10 Pen- Y- Pound, Our Lady and St. Michaels Church., Our Lady and St. Michaels Church., ABERGAVENNY, Select NP7 5UD","description":"","hours":"Th 11:00-14:00","title":"Our Lady and St. Michaels Church"},"type":"Feature"},
		{"geometry":{"coordinates":[-3.02713,51.64170],"type":"Point"},"properties":{"_source":"warm_welcome","address":"Two Locks Road, Cwmbran, Torfaen NP44 7HG","description":"Open from 14-10-2022. We are also open Wednesdays and Thursdays 10am-12pm offering FREE Hot Drinks Fridays we also offer FREE Hot Soup and Roll. ","hours":"Fr 10:00-12:00","title":"TLC Community Church"},"type":"Feature"},
		{"geometry":{"coordinates":[-3.03964,51.69984],"type":"Point"},"properties":{"_source":"warm_welcome","address":"Upper Trosnant Baptist Church, Lower Bridge St, Pontypool NP4 6JU","description":"","hours":"Mo 14:00-16:00","title":"Upper Trosnant Baptist Church "},"type":"Feature"},
		{"geometry":{"coordinates":[-3.00435,51.65174],"type":"Point"},"properties":{"_source":"warm_spaces","address":"Llanyrafon Methodist Church, Cwmbran, Wales, NP44 8RA","title":"Llanyrafon Methodist Church","url":"https://llanyrafonmethodistchurch.org.uk"},"type":"Feature"},
		{"geometry":{"coordinates":[-3.14622,51.70996],"type":"Point"},"properties":{"_source":"warm_spaces","address":"Pant ddu Road, Abertillery, Wales, NP13 2BP","title":"Ebbw Fach Community Group","url":"https://en-gb.facebook.com/groups/426087784403180/?mibextid=HsNCOg"},"type":"Feature"}
	]
}
