{
	"type": "FeatureCollection",
	"features": [
		{"geometry":{"coordinates":[-3.16139,51.49371],"type":"Point"},"properties":{"_source":"warm_welcome","address":"Albany Road Baptist Church, Albany Road, Roath, Cardiff, South Glamorgan CF24 3NU","description":"Everyone Welcome We provide a pop up cafe where you pay what you feel, if you can't afford to pay that's fine as well. Fresh ground coffee, tea, hot chocolate and biscuits ","hours":"Th 10:00-12:30","title":"Albany Road Baptist Church"},"type":"Feature"},
		{"geometry":{"coordinates":[-3.04748,51.59059],"type":"Point"},"properties":{"_source":"warm_welcome","address":"Cefn Road, Rogerstone , Newport NP10 9AS","description":"Open from 11 11 2022. All are welcome we offer free hot drinks and free soup and toasted sandwich","hours":"Fr 11:30-14:30","title":"Bethesda baptist Church "},"type":"Feature"},
		{"geometry":{"coordinates":[-3.09980,51.60630],"type":"Point"},"properties":{"_source":"warm_welcome","address":"75 Tredegar Street, Risca, Newport NP11 6BW","description":"Everyone welcomeLunch time closure between 13:00 - 14:00 week days Saturday open all day.","hours":"Mo 09:30-18:00; Tu 09:30-17:00; We 09:30-18:00; Th 09:30-17:00; Fr 09:30-17:00; Sa 09:30-16:00","title":"Caerphilly Borough Council"},"type":"Feature"},
		{"geometry":{"coordinates":[-3.04674,51.58450],"type":"Point"},"properties":{"_source":"warm_welcome","address":"3 Thornbury Park, Rogerstone, Newport NP10 9DP","description":"Open from 07 11 2022. all are welcome we offer free hot drinks we also offer free soup and toasted sandwich","hours":"Mo 11:30-14:30","title":"Cefn Wood Baptist church"},"type":"Feature"},
		{"geometry":{"coordinates":[-2.85270,51.43581],"type":"Point"},"properties":{"_source":"warm_welcome","address":"Station Road, Clevedon, North Somerset BS216NH","description":"","hours":"Mo 10:00-16:00","title":"Clevedon Baptist Church"},"type":"Feature"},
		{"geometry":{"coordinates":[-2.85507,51.43599],"type":"Point"},"properties":{"_source":"warm_welcome","address":"37 Old Church Road , Clevedon BS21 6NN","description":"","hours":"Mo 09:30-17:00; Tu 09:30-17:00; Fr 09:30-17:00; Sa 09:30-13:00","title":"Clevedon Library"},"type":"Feature"},
		{"geometry":{"coordinates":[-3.15856,51.51282],"type":"Point"},"properties":{"_source":"warm_welcome","address":"Circle Way West, Llanedeyrn, Cardiff CF23 6UW","description":"","hours":"Fr 10:00-14:00","title":"Glenwood Church Centre and Wellbeing Space"},"type":"Feature"},
		{"geometry":{"coordinates":[-3.11970,51.52188],"type":"Point"},"properties":{"_source":"warm_welcome","address":"Countisbury Avenue, Cardiff, Cardiff CF3 5NQ","hours":"Mo 09:00-18:00; Tu 09:00-18:00; We 09:00-18:00; Th 09:00-18:00; Fr 10:00-19:00; Sa 09:00-17:30","title":"Llanrumney Hub"},"type":"Feature"},
		{"geometry":{"coordinates":[-3.14423,51.59494],"type":"Point"},"properties":{"_source":"warm_welcome","address":"Machen Library, Machen, CCBC CF83 8ND","description":"","hours":"Tu 09:30-13:00; Th 14:00-18:00; Sa 09:30-13:00","title":"Machen Library"},"type":"Feature"},
		{"geometry":{"coordinates":[-3.16007,51.50108],"type":"Point"},"properties":{"_source":"warm_welcome","address":"Penylan road, Penylan, Cardiff CF23 5HW","description":"Open from 10-10-2022.","hours":"Mo 10:00-19:00; Tu 09:00-18:00; We 09:00-18:00; Th 09:00-18:00; Fr 09:00-18:00; Sa 09:00-17:30","title":"Penylan Library & community centre"},"type":"Feature"},
		{"geometry":{"coordinates":[-3.15235,51.51285],"type":"Point"},"properties":{"_source":"warm_welcome","address":"Powerhouse Hub, Roundwood , Cardiff CF23 9PN","description":"","hours":"Mo 09:00-18:00; Tu 09:00-18:00; We 10:00-19:00; Th 09:00-18:00; Fr 09:00-18:00; Sa 09:00-17:30","title":"Powerhouse Hub"},"type":"Feature"},
		{"geometry":{"coordinates":[-3.12846,51.50379],"type":"Point"},"properties":{"_source":"warm_welcome","address":"Brachdy Road, Rumney, Cardiff CF3 3BG","description":"Open from 26/11/2022.","hours":"Mo 07:00-17:00; Tu 07:00-20:00; We 07:00-20:00; Th 07:00-17:00; Fr 07:00-17:00; Sa 07:00-20:00; Su 11:30-20:00","title":"Rumney Chapel"},"type":"Feature"},
		{"geometry":{"coordinates":[-3.12813,51.50413],"type":"Point"},"properties":{"_source":"warm_welcome","address":"Brachdy House, 50 Brachdy Road, Rumney , Cardiff CF3 3BG","description":"","hours":"Mo 09:00-14:00; Tu 09:00-14:00; We 09:00-14:00; Th 09:00-14:00; Fr 09:00-14:00","title":"Rumney Forum "},"type":"Feature"},
		{"geometry":{"coordinates":[-3.12078,51.50811],"type":"Point"},"properties":{"_source":"warm_welcome","address":"Rumney Hub , Cardiff, Wales cf3 3ja","description":" Rumney is closed for lunch between 1pm-2pm Mond, Tues, Weds, Thurs & Sat","hours":"Mo 09:00-13:00; Tu 09:00-13:00; We 09:00-13:00; Th 10:00-13:00; Sa 09:00-13:00","title":"Rumney Hub"},"type":"Feature"},
		{"geometry":{"coordinates":[-2.87296,51.43252],"type":"Point"},"properties":{"_source":"warm_welcome","address":"Old Church Road, Clevedon, North Somerset BS21 7UE","description":"Open from 28-10-2022. Meeting in the church centre just down from the church and seeking to provide an inclusive and warm welcome to all in our community","hours":"Fr 12:00-16:00","title":"St Andrews Church Centre"},"type":"Feature"},
		{"geometry":{"coordinates":[-3.10189,51.52505],"type":"Point"},"properties":{"_source":"warm_welcome","address":"St Mellons Hub , 30 Crickhowell Road , Cardiff CF3 0EF","description":"","hours":"Mo 09:00-18:00; Tu 09:00-18:00; We 10:00-19:00; Th 09:00-18:00; Fr 09:00-18:00; Sa 09:00-17:30","title":"St Mellons Hub "},"type":"Feature"},
		{"geometry":{"coordinates":[-3.14282,51.48454],"type":"Point"},"properties":{"_source":"warm_welcome","address":"Muirton Road, Cardiff, South Glamorgan CF24 2SJ","description":"","hours":"Mo 09:00-18:00; Tu 09:00-18:00; We 10:00-19:00; Th 09:00-18:00; Fr 09:00-18:00; Sa 09:00-15:00","title":"STAR Hub"},"type":"Feature"},
		{"geometry":{"coordinates":[-2.99700,51.58656],"type":"Point"},"properties":{"_source":"warm_welcome","address":"40 Stow Hill, Newport, Newport NP201JG","description":"Open from 02-12-2022. Board Games, Pool table, Playstation ","hours":"Fr 13:30-17:00; Su 11:00-13:00","title":"The House - Home of Bethel Community Church"},"type":"Feature"},
		{"geometry":{"coordinates":[-3.12693,51.50422],"type":"Point"},"properties":{"_source":"warm_spaces","address":"Brachdy Road, Cardiff, Wales, CF3 3BG","title":"The Living Room","url":"https://www.rumneychapel.org/thelivingroom"},"type":"Feature"},
		{"geometry":{"coordinates":[-3.12747,51.50403],"type":"Point"},"properties":{"_source":"warm_spaces","address":"Brachdy House, 50 Brachdy Road, Cardiff, Wales, CF3 3BG","title":"Rumney Forum"},"type":"Feature"}
	]
}
