{
	"type": "FeatureCollection",
	"features": [
		{"geometry":{"coordinates":[-2.86589,51.32837],"type":"Point"},"properties":{"_source":"warm_welcome","address":"Banwell Youth & Community Centre, Banwell, North Somerset BS29 6DB","description":"","hours":"Tu 10:00-12:00; Th 10:00-12:00","title":"Banwell Public Living Room"},"type":"Feature"},
		{"geometry":{"coordinates":[-3.00475,51.17976],"type":"Point"},"properties":{"_source":"warm_welcome","address":"18 Gaunts Road, Pawlett, Bridgwater TA6 4SF","description":"","title":"Churches Together in Pawlett, Royal British Legion, Pawlett"},"type":"Feature"},
		{"geometry":{"coordinates":[-2.98852,51.35578],"type":"Point"},"properties":{"_source":"warm_welcome","address":"South Road, Weston-super-Mare, North Somerset BS23 2HN","description":"Open from 07/11/2022.","hours":"Mo 15:00-18:00","title":"Holy Trinity Church"},"type":"Feature"},
		{"geometry":{"coordinates":[-2.96512,51.33146],"type":"Point"},"properties":{"_source":"warm_welcome","address":"68 Lonsdale Avenue, Weston-Super-Mare, Bristol BS23 3SJ","description":"Open from 14-11-2022.","hours":"Mo 09:30-17:00; Tu 09:30-17:00; We 09:30-17:00; Th 09:30-17:00; Fr 09:30-17:00","title":"North Somerset Libraries"},"type":"Feature"},
		{"geometry":{"coordinates":[-2.92813,51.35929],"type":"Point"},"properties":{"_source":"warm_welcome","address":"Mendip Avenue, Weston-Super-Mare, Bristol BS22 6HN","description":"Open from 14-11-2022.","hours":"Mo 09:30-17:00; Tu 09:30-17:00; Fr 09:30-17:00; Sa 09:30-13:00","title":"North Somerset Libraries"},"type":"Feature"},
		{"geometry":{"coordinates":[-2.83276,51.31435],"type":"Point"},"properties":{"_source":"warm_welcome","address":"23 Woodborogh Road, Winscombe, Bristol BS25 1AB","description":"Open from 14-11-2022.","hours":"Tu 09:30-12:30; Th 09:30-12:30; Sa 09:30-13:00","title":"North Somerset Libraries"},"type":"Feature"},
		{"geometry":{"coordinates":[-2.97438,51.34880],"type":"Point"},"properties":{"_source":"warm_welcome","address":"81-83 Meadow Street, Weston-super-Mare, North Somerset BS23 1QL","description":"Open from 31st March 2022.","hours":"Mo 14:00-17:00; Tu 14:00-17:00; We 14:00-17:00; Th 14:00-17:00; Fr 14:00-17:00","title":"The Other Place"},"type":"Feature"},
		{"geometry":{"coordinates":[-2.97634,51.34609],"type":"Point"},"properties":{"_source":"warm_welcome","address":"Weston Library, Town Hall, Weston super Mare, Somerset BS23 1 UJ","description":" Free events and activities are available, including knit and natter, board games, story time, rhymetime, crafts, reading group, full details on www.n-somerset.gov.uk/libraryevents ","hours":"Mo 09:00-18:00; Tu 09:00-18:00; We 09:00-18:00; Th 09:00-18:00; Fr 09:00-18:00; Sa 09:00-16:00","title":"Weston super Mare Library"},"type":"Feature"},
		{"geometry":{"coordinates":[-2.82045,51.38697],"type":"Point"},"properties":{"_source":"warm_welcome","address":"High Street, Yatton, Bristol BS49 4DW","description":"Open from 31-10-22. All welcome, toys available for young children Safe space for remote working, playing board games, meeting others, having soup lunch.","hours":"Mo 10:00-16:30; Tu 10:00-16:00","title":"Yatton Methodist Church"},"type":"Feature"}
	]
}
