{
	"type": "FeatureCollection",
	"features": [
		{"geometry":{"coordinates":[-3.00590,51.12794],"type":"Point"},"properties":{"_source":"warm_welcome","address":"High Street, Bridgwater , Somerset ta6 3as","description":"Open from 18-10-2022.","hours":"Tu 10:00-16:00","title":"Bridgwater Town Council"},"type":"Feature"},
		{"geometry":{"coordinates":[-3.10076,51.03815],"type":"Point"},"properties":{"_source":"warm_welcome","address":"Wellsprings Leisure Centre, Cheddon Road, Taunton. TA2 7QP, Taunton, Somerset TA2 7QP","description":"Open from 01 Nov 2022.","hours":"Mo 06:00-20:00, Tu 06:00-20:00, We 06:00-20:00, Th 06:00-20:00, Fr 06:00-20:00, Sa 08:00-17:00, Su 08:00-17:00","title":"Everyone Active"},"type":"Feature"},
		{"geometry":{"coordinates":[-3.09144,51.01402],"type":"Point"},"properties":{"_source":"warm_welcome","address":"Trinity St, Taunton, Somerset TA1 3JG","description":"","hours":"Th 14:30-16:30, Fr 13:00-17:00","title":"Holy Trinity Church Taunton"},"type":"Feature"},
		{"geometry":{"coordinates":[-2.82887,51.03662],"type":"Point"},"properties":{"_source":"warm_welcome","address":"2 Whatley Road, Langport, Somerset TA10 9RA","description":"","hours":"Mo 09:30-16:30, Tu 09:30-16:30, Th 09:30-17:00, Fr 09:30-16:30, Sa 09:30-12:30","title":"Langport Library"},"type":"Feature"},
		{"geometry":{"coordinates":[-3.01452,51.09269],"type":"Point"},"properties":{"_source":"warm_welcome","address":"North Petherton Community Centre, Fore Street, North Petherton, Somerset TA6 6QA","description":"Open from 26/10/2022. The library space is for everyone Disable friendly, events like Knit & natter, Storytime, Ancestry and Scrabble club","hours":"Tu 10:00-17:00, We 10:00-17:00, Th 10:00-17:00, Fr 10:00-17:00, Sa 10:00-13:00","title":"North Petherton Community Library"},"type":"Feature"},
		{"geometry":{"coordinates":[-3.15696,51.15099],"type":"Point"},"properties":{"_source":"warm_welcome","address":"4a castle street, Nether stowey , Bridgwater, somerset Ta51ln","description":" A friendly warm salon that you will be welcomed into if in need.","hours":"Mo 09:15-16:00, Tu 09:30-17:00, We 09:30-16:00, Th 09:15-17:00, Fr 09:15-16:00, Sa 08:30-17:00","title":"Reds unisex salon "},"type":"Feature"},
		{"geometry":{"coordinates":[-3.00081,51.12819],"type":"Point"},"properties":{"_source":"warm_welcome","address":"Bridgwater Library, Binford Place, Bridgwater, Somerset TA6 3LF","description":" We run a shared reading group o Tuesday afternoons, 2.15 until 3.45. Everyone welcome.","hours":"Mo 09:30-17:00, Tu 09:30-17:00, We 09:30-17:00, Th 09:30-17:00, Fr 09:30-16:00, Sa 09:30-14:00","title":"Somerset county council"},"type":"Feature"},
		{"geometry":{"coordinates":[-3.10150,51.01410],"type":"Point"},"properties":{"_source":"warm_welcome","address":"Taunton Library Paul Street, Taunton, Somerset TA1 3XZ","hours":"Mo 09:30-17:30, Tu 09:30-17:30, We 09:30-19:00, Th 09:30-17:30, Fr 09:30-17:30, Sa 09:30-17:00","title":"Somerset County Council Taunton Library"},"type":"Feature"},
		{"geometry":{"coordinates":[-3.09954,51.01292],"type":"Point"},"properties":{"_source":"warm_welcome","address":"St George's Church Hall, Taunton, Somerset TA1 3JT","description":"Open from 15-11-22. We're trying to tackle fuel poverty and loneliness in one go because being warm is more than just physical heat; it's about bringing the whole community together and what better way to do that than with a cuppa!","hours":"Tu 13:30-16:00, Th 10:00-12:30","title":"St George's Wilton"},"type":"Feature"},
		{"geometry":{"coordinates":[-3.00467,51.12738],"type":"Point"},"properties":{"_source":"warm_welcome","address":"St Mary's Bridgwater, St Mary Street, Bridgwater, Somerset TA6 3EQ","description":"","hours":"Mo 10:00-12:30, Tu 11:30-14:00, We 10:00-14:00, Th 09:30-15:00, Su 08:00-12:00","title":"St Mary's Church, Bridgwater"},"type":"Feature"},
		{"geometry":{"coordinates":[-3.13429,51.01672],"type":"Point"},"properties":{"_source":"warm_welcome","address":"c/o The Vicarage, Bishops Hull Hill, Bishops Hull, TAUNTON, Somerset TA1 5EB","description":" Open from 01-01-2023.","hours":"We 09:45-11:00, Su 07:45-12:00","title":"St Peter and St Paul, Bishops Hull"},"type":"Feature"},
		{"geometry":{"coordinates":[-3.10477,51.01186],"type":"Point"},"properties":{"_source":"warm_welcome","address":"Temple Methodist Church, Taunton, Somerset TA1 3PY","description":"Open from 01.11.22.","hours":"We 10:30-13:30","title":"Temple Methodist Church"},"type":"Feature"},
		{"geometry":{"coordinates":[-3.15926,51.15055],"type":"Point"},"properties":{"_source":"warm_welcome","address":"Castle Street, Nether Stowey, Bridgwater TA5 1LN","description":"","hours":"Mo 10:00-13:00, We 10:00-13:00, Fr 10:00-13:00, Sa 10:00-12:00","title":"The Thomas Poole Library"},"type":"Feature"},
		{"geometry":{"coordinates":[-3.10417,51.02108],"type":"Point"},"properties":{"_source":"warm_spaces","address":"Albemarle Centre, Albemarle Road, Taunton, England, TA1 1BA","title":"Albemarle Living Room","url":"https://www.alblifeskills.org"},"type":"Feature"},
		{"geometry":{"coordinates":[-3.13376,51.01653],"type":"Point"},"properties":{"_source":"warm_spaces","address":"Bishop&#39;s Hull Hill, Taunton, England, TA1 5EB","title":"St Peter and St Paul, Bishops Hull","url":"https://www.stpeterandstpaul.org.uk"},"type":"Feature"},
		{"geometry":{"coordinates":[-3.10644,51.00924],"type":"Point"},"properties":{"_source":"warm_spaces","address":"Dunning Room, St George&#39;s Church Hall, Fons George, Taunton, England, TA1 3JT","title":"St George's Wilton","url":"https://www.stgchurch.co.uk"},"type":"Feature"}
	]
}
