{
	"type": "FeatureCollection",
	"features": [
		{"geometry":{"coordinates":[0.12670,52.22648],"type":"Point"},"properties":{"_source":"warm_welcome","address":"Arbury Road, Cambridge, Cambridgeshire CB4 2JQ","description":"We cater for all age groups Parking available nearby in Budgens car park. Shops nearby for food and drink.","hours":"Mo 15:00-18:00; Tu 09:00-17:00; Th 09:00-13:00; Fr 09:00-17:00; Sa 10:00-14:00","title":"Arbury Court library"},"type":"Feature"},
		{"geometry":{"coordinates":[0.02054,52.25460],"type":"Point"},"properties":{"_source":"warm_welcome","address":"Gladeside, Bar Hill, Cambridgeshire CB23 8DY","description":"Open from 23/10/2022. There is on street parking close to the library depending upon the time of your visit.","hours":"Mo 10:00-17:00; Tu 14:00-17:00; We 10:00-17:00; Fr 14:00-17:00; Sa 09:30-12:30","title":"Bar Hill Library"},"type":"Feature"},
		{"geometry":{"coordinates":[0.16194,52.20290],"type":"Point"},"properties":{"_source":"warm_welcome","address":"Barnwell Road, Cambridge, Cambridgeshire CB5 8RG","description":"Open from 18th October 2022. We cater for all ages A small library with limited study space and charging facilities","hours":"Tu 10:00-17:00; We 10:00-17:00; Th 14:00-17:00; Fr 14:00-17:00; Sa 10:00-13:00","title":"Barnwell Road Library"},"type":"Feature"},
		{"geometry":{"coordinates":[0.13675,52.19984],"type":"Point"},"properties":{"_source":"warm_welcome","address":"3 Tenison Road, Cambridge, Cambridgeshire CB1 2DG","description":"Open from 01/11/2022.","hours":"Tu 10:00-14:00; We 10:00-14:00; Th 10:00-14:00; Fr 10:00-14:00","title":"Cambridge Salvation Army"},"type":"Feature"},
		{"geometry":{"coordinates":[0.12050,52.20461],"type":"Point"},"properties":{"_source":"warm_welcome","address":"Central Library, 7 Lion Yard, Cambridge CB2 3QD","description":"Open from 18th October 2022. We cater for all Short Term and accessible parking available in Grand Arcade car park. ","hours":"Mo 09:30-18:00; Tu 09:30-18:00; We 09:30-19:00; Th 09:30-18:00; Fr 09:30-18:00; Sa 10:00-18:00; Su 12:00-16:00","title":"Central Library, Cambridge"},"type":"Feature"},
		{"geometry":{"coordinates":[0.17514,52.18845],"type":"Point"},"properties":{"_source":"warm_welcome","address":"High Street, Cherry Hinton, Cambridge CB1 9HZ","description":"Open from 18th October 2022. We cater for all Limited facilities for co-working and charging devices, but public computers are available. Nearby shops for food and drink. Disabled parking space at the front of the library","hours":"Mo 15:00-18:00; We 09:00-17:00; Th 09:00-13:00; Fr 09:00-17:00; Sa 10:00-14:00","title":"Cherry Hinton Library"},"type":"Feature"},
		{"geometry":{"coordinates":[0.14762,52.21157],"type":"Point"},"properties":{"_source":"warm_welcome","address":"Newmarket Road, Cambridge CB5 8RS","description":"Open from 8th November 2022.","hours":"Tu 18:00-21:00; Th 17:00-21:00; Su 16:00-18:00","title":"Christ the Redeemer Church"},"type":"Feature"},
		{"geometry":{"coordinates":[0.14559,52.21160],"type":"Point"},"properties":{"_source":"warm_welcome","address":"Brickfields, 12-16 Cheddars Lane, Cambridge CB5 8LD","description":"Open from 28-11-2022.","hours":"Mo 10:00-13:00","title":"City Church Cambridge"},"type":"Feature"},
		{"geometry":{"coordinates":[0.01855,52.18997],"type":"Point"},"properties":{"_source":"warm_welcome","address":"Comberton Baptist Church, Green End, Comberton CB23 7DY","description":"Open from Thursday 10th November 2022. Once we have received a food license we will also be providing hot lunch / tea","hours":"Mo 15:30-18:30; Th 10:30-13:30","title":"Comberton Baptist Church"},"type":"Feature"},
		{"geometry":{"coordinates":[0.01647,52.18681],"type":"Point"},"properties":{"_source":"warm_welcome","address":"West Street, Comberton, Cambridgeshire CB23 7DU","description":"Open from 24.10.22.","hours":"Mo 10:00-13:00; We 10:00-13:00; Fr 14:30-17:30; Sa 10:00-13:00","title":"Comberton Library"},"type":"Feature"},
		{"geometry":{"coordinates":[0.13630,52.14666],"type":"Point"},"properties":{"_source":"warm_welcome","address":"10-12 Woollards Lane, Great Shelford, Cambridgeshire CB22 5LZ","description":"Open from 24.10.22.","hours":"Mo 15:00-19:00; Tu 10:00-13:00; We 10:00-13:00; Fr 10:00-13:00; Sa 10:00-13:00","title":"Great Shelford Library"},"type":"Feature"},
		{"geometry":{"coordinates":[0.10891,52.24669],"type":"Point"},"properties":{"_source":"warm_welcome","address":"Station Road, Histon, Cambridgeshire CB24 9LN","description":"Open from 02/11/2022. Open on Wednesday afternoons 2.30-4.30pm","hours":"We 14:30-16:30","title":"Histon Baptist Church"},"type":"Feature"},
		{"geometry":{"coordinates":[0.10450,52.25332],"type":"Point"},"properties":{"_source":"warm_welcome","address":"School Hill, Histon, Cambridge CB24 9JE","description":"Open from 23/10/2022. If you join our Open+ library membership, you will be able to attend the library space, during additional unstaffed hours.","hours":"Mo 11:00-19:00; Tu 14:00-17:00; Th 09:00-17:00; Fr 09:00-13:00; Sa 09:00-13:00","title":"Histon Library"},"type":"Feature"},
		{"geometry":{"coordinates":[0.29023,52.09803],"type":"Point"},"properties":{"_source":"warm_welcome","address":"Horseheath Road, Linton, Cambridgeshire CB21 4LU","description":"Open from 24.10.22.","hours":"Tu 10:00-17:00; We 16:00-19:00; Th 14:00-17:00; Fr 10:00-17:00; Sa 10:00-13:00","title":"Linton Library"},"type":"Feature"},
		{"geometry":{"coordinates":[0.11942,52.20067],"type":"Point"},"properties":{"_source":"warm_welcome","address":"Trumpington Street, Cambridge CB2 1QG","description":"We cater for all people - young and old, and those needing a warm welcome. We provide a warm welcome and a place with heating, space, free refreshments and biscuits, including free WIFI and a peaceful garden.","hours":"We 10:30-13:00; Fr 10:00-12:30","title":"Little St Mary's Church"},"type":"Feature"},
		{"geometry":{"coordinates":[0.27864,52.09683],"type":"Point"},"properties":{"_source":"warm_welcome","address":"Linton Infants School, Linton, Cambridge cb21 4JX","description":"Open from 26 Oct 22. we cater only for families We are open during the school holidays offering activities and crafts with a hot nutritious meal","hours":"We 11:00-13:00","title":"Make Lunch Linton"},"type":"Feature"},
		{"geometry":{"coordinates":[0.12814,52.21853],"type":"Point"},"properties":{"_source":"warm_welcome","address":"Ascham Road, Cambridge, Cambridgeshire CB4 2BD","description":"We cater for all Limited off-peak parking available outside the library. Space to hire with TV.","hours":"Mo 09:00-17:00; We 09:00-17:00; Th 15:00-18:00; Fr 15:00-18:00; Sa 10:00-15:00","title":"Milton Road Library"},"type":"Feature"},
		{"geometry":{"coordinates":[0.14207,52.18623],"type":"Point"},"properties":{"_source":"warm_welcome","address":"69 Rock Road, Cambridge, Cambridgeshire CB1 7UG","description":"Open from 18th October 2022. We cater for all Limited co-working space and charging facilities. Public computers available. Very limited parking available in the immediate vicinity","hours":"Mo 09:00-13:00; Tu 09:00-17:00; Th 09:00-17:00; Fr 15:00-18:00; Sa 10:00-14:00","title":"Rock Road Library"},"type":"Feature"},
		{"geometry":{"coordinates":[0.16232,52.12559],"type":"Point"},"properties":{"_source":"warm_welcome","address":"New Road, Sawston, Cambridgeshire CB22 3BP","description":"Open from 24.10.22.","hours":"Mo 14:00-16:00; Tu 15:00-17:00; We 10:00-13:00; Fr 10:00-13:00; Sa 10:00-13:00","title":"Sawston Library"},"type":"Feature"},
		{"geometry":{"coordinates":[0.15651,52.19814],"type":"Point"},"properties":{"_source":"warm_welcome","address":"2 Brooks Road, Cambridge, Cambs CB1 3HR","description":"Open from 02/11/2023. Wednesdays will be games, puzzles and hot chocolate . Sundays are all about popcorn and a movie!","hours":"We 17:00-21:00; Fr 11:30-14:00; Su 17:00-20:00","title":"The C3 Church"},"type":"Feature"},
		{"geometry":{"coordinates":[0.14688,52.22584],"type":"Point"},"properties":{"_source":"cambridge_council","address":"31a Green End Road, Cambridge CB4 1RU","description":"Breakfast available","hours":"Th 08:30-10:00; Fr 08:30-10:00","title":"Warm Spaces: Brown's Field Community Centre","url":"https://www.cambridge.gov.uk/media/11532/warm-spaces-brownfields-community-centre.pdf"},"type":"Feature"},
		{"geometry":{"coordinates":[0.12638,52.22536],"type":"Point"},"properties":{"_source":"cambridge_council","address":"Mansel way, Cambridge CB4 2ET","hours":"Tu 10:00-12:00","title":"Warm Spaces: Church of the Good Shepherd","url":"https://www.cambridge.gov.uk/media/11533/warm-spaces-church-of-the-good-shepherd.pdf"},"type":"Feature"},
		{"geometry":{"coordinates":[0.10555,52.25368],"type":"Point"},"properties":{"_source":"cambridge_council","address":"Paget road, Cambridge CB4 9JF","description":"Wednesdays: 2, 23 and 30 November, 7 and 28 December, 4 and 25 January, 1 and 22 February, 1, 22 and 29 March, 9.30am to 12 noon, Coffee, tea, biscuits and wi-fi available","title":"Warm Spaces: Trumpington Pavillion","url":"https://www.cambridge.gov.uk/media/11534/warm-spaces-trumpington.pdf"},"type":"Feature"},
		{"geometry":{"coordinates":[0.10535,52.16898],"type":"Point"},"properties":{"_source":"cambridge_council","address":"Kestrel Rise, Cambridge CB2 9AY","hours":"Fr 12:00-14:00","title":"Warm Spaces: Trumpington Meadows Community Hub","url":"https://www.cambridge.gov.uk/media/11535/trumpington-meadows-community-hub.pdf"},"type":"Feature"},
		{"geometry":{"coordinates":[0.11692,52.23056],"type":"Point"},"properties":{"_source":"cambridge_council","address":"1 Saint Catherines road, Cambridge CB4 3XJ","hours":"Mo 08:00-09:30; We 14:00-18:00","title":"Warm Spaces: Meadows Community Centre","url":"https://www.cambridge.gov.uk/media/11536/warm-spaces-meadows-community-centre.pdf"},"type":"Feature"},
		{"geometry":{"coordinates":[0.12269,52.20362],"type":"Point"},"properties":{"_source":"cambridge_council","address":"3-6 Downing Street, Cambridge CB2 3DS","description":"Coffee, tea, biscuits available","hours":"We 11:00-15:00; Th 11:00-15:00","title":"Warm Spaces: Hub Hospitality, Downing Place","url":"https://www.cambridge.gov.uk/media/11537/hub-hospitality-downing-place.pdf"},"type":"Feature"},
		{"geometry":{"coordinates":[0.12260,52.17348],"type":"Point"},"properties":{"_source":"cambridge_council","address":"Hobson Square, Trumpington CB2 9FN","description":"Mondays and Wednesdays","title":"Warm Spaces: Clay Farm Centre","url":"https://www.cambridge.gov.uk/media/11538/warm-spaces-clay-farm-centre.pdf"},"type":"Feature"},
		{"geometry":{"coordinates":[0.11454,52.21931],"type":"Point"},"properties":{"_source":"cambridge_council","address":"80 Akeman Street, Cambridge CB4 3HG","description":"Breakfast available from 8am to 9.30am","hours":"Th 08:00-12:00","title":"Warm Spaces: Akeman Community Centre","url":"https://www.cambridge.gov.uk/media/11539/warm-spaces-akeman-community-centre.pdf"},"type":"Feature"},
		{"geometry":{"coordinates":[0.16725,52.21171],"type":"Point"},"properties":{"_source":"cambridge_council","address":"Newmarket road, Cambridge CB5 8RS","hours":"Tu 18:00-21:00; Th 17:00-21:00; Su 16:00-18:00","title":"Warm Spaces: Abbey Barnwell","url":"https://www.cambridge.gov.uk/media/11540/warm-spaces-abbey-barnwell.pdf"},"type":"Feature"},
		{"geometry":{"coordinates":[0.15610,52.19839],"type":"Point"},"properties":{"_source":"cambridge_council","address":"The C3 Centre - 2 Brooks Rd, Cambridge CB1 3HR","hours":"We 17:00-21:00; Su 17:00-20:00","title":"Warm Spaces: Cambridgeshire County Council","url":"https://www.cambridge.gov.uk/media/11580/warm-spaces-cambridgeshire-county-council.pdf"},"type":"Feature"},
		{"geometry":{"coordinates":[0.11991,52.20819],"type":"Point"},"properties":{"_source":"cambridge_council","address":"12 Jesus Lane, Cambridge CB5 8BA (next to ADC Theatre)","description":"Tea, coffee, board games, puzzles, wi-fi available","hours":"We 09:30-17:00","title":"Warm Spaces: Friends Meeting House","url":"https://www.cambridge.gov.uk/media/11579/warm-spaces-friends-meeting-house.pdf"},"type":"Feature"}
	]
}
