{
	"type": "FeatureCollection",
	"features": [
		{"geometry":{"coordinates":[0.16056,51.86878],"type":"Point"},"properties":{"_source":"warm_welcome","address":"34b South Street , Bishops Stortford cm23 3az","description":"All are welcome, fully accessible different activities cater for lonely and isolated, but all welcome. Open to all, we have a fully accessible premises with a Changing places facility including a hoist. A Foodbank , CAB, Bereavement and Memory cafe also meet on the premises (times vary) Craft groups on Tuesday morning, with cakes available Wed, Thurs & Sa","hours":"Tu 10:00-16:00, We 10:00-16:00, Th 10:00-16:00, Fr 10:00-13:00, Sa 10:00-12:00","title":"Bishops Stortford Methodist Church"},"type":"Feature"},
		{"geometry":{"coordinates":[0.16798,51.86968],"type":"Point"},"properties":{"_source":"warm_welcome","address":"Hockerill Christian Centre 7-9 Dunmow Road, Bishop's Stortford , Herts Cm23 5he","description":" We provide free tea, coffee & cakes. We can also provide a free hot light lunch. We have pool, table tennis, the daily newspapers and lovely people to chat with. ","hours":"Th 10:00-12:00","title":"BSCA "},"type":"Feature"},
		{"geometry":{"coordinates":[0.24179,52.02341],"type":"Point"},"properties":{"_source":"warm_welcome","address":"Town Council Committee Room , Saffron Walden, Essex CB10 1HZ","description":"Open from Monday November28. Anyone welcome Town Hall Committee Room","hours":"Mo 10:00-15:00","title":"Churches Together in Saffron Walden"},"type":"Feature"},
		{"geometry":{"coordinates":[0.15694,51.87094],"type":"Point"},"properties":{"_source":"warm_welcome","address":"1 Windhill, Bishop's Stortford, Hertfordshire CM23 2ND","description":"Open to those of all faiths and none. The church is open every day from 9am-3pm and the Lady Chapel is a warm and cosy quiet space. Free weekly session for Ukranian guests; monthly TLC session for those feeling isolated; fortnightly craft group","hours":"Mo 09:00-15:00, Tu 09:00-15:00, We 09:00-15:00, Th 09:00-15:00, Fr 09:00-15:00, Sa 09:00-15:00, Su 09:00-15:00","title":"St Michael's Church"},"type":"Feature"},
		{"geometry":{"coordinates":[0.15863,51.86896],"type":"Point"},"properties":{"_source":"warm_welcome","address":"portland road, bishops stortford, hertfordshire cm23 3sl","description":"","hours":"Mo 08:00-17:00, Fr 09:00-17:00","title":"The Hub Church"},"type":"Feature"}
	]
}
