{
	"type": "FeatureCollection",
	"features": [
		{"geometry":{"coordinates":[0.19444,51.28994],"type":"Point"},"properties":{"_source":"warm_welcome","address":"Bat & Ball Station, Sevenoaks, Kent TN14 5AP","description":"Open from 14/11/2022. There will be free talks provided by our local community on some days","hours":"Mo 09:00-12:00","title":"Bat & Ball Station"},"type":"Feature"},
		{"geometry":{"coordinates":[0.04303,51.37426],"type":"Point"},"properties":{"_source":"warm_welcome","address":"29a Gravel Road, Bromley, Kent BR2 8PE","description":"","hours":"Fr 10:30-13:30","title":"Bromley Common Baptist Church "},"type":"Feature"},
		{"geometry":{"coordinates":[0.30332,51.29040],"type":"Point"},"properties":{"_source":"warm_welcome","address":"Quarry Hill Road, , Borough Green, Sevenoaks TN15 8RF","description":"","hours":"Fr 10:00-13:00","title":"Church of the Good Shepherd"},"type":"Feature"},
		{"geometry":{"coordinates":[0.07930,51.37970],"type":"Point"},"properties":{"_source":"warm_welcome","address":"100 Crofton Lane, Orpington, Kent BR5 1HD","hours":"Mo 10:30-13:30; We 10:30-13:30; Su 10:30-12:30","title":"Crofton Baptist Church"},"type":"Feature"},
		{"geometry":{"coordinates":[0.09031,51.35206],"type":"Point"},"properties":{"_source":"warm_welcome","address":"1 Worlds End Lane, Orpington, Kent BR6 6AA","description":"Open from November to February. warm space - warm refreshments - warm welcome","hours":"Mo 10:00-14:00","title":"Green Street Green Baptist church"},"type":"Feature"},
		{"geometry":{"coordinates":[0.30057,51.39882],"type":"Point"},"properties":{"_source":"warm_welcome","address":"Longfield Library, 49 Main Road, Longfield, Kent DA3 7QT","description":" Please visit our website for services provided at your local library.","hours":"Mo 13:00-17:00; Tu 13:00-17:00; We 09:00-13:00; Th 09:00-13:00; Fr 13:00-17:00; Sa 09:00-13:00","title":"Longfield Library"},"type":"Feature"},
		{"geometry":{"coordinates":[0.05184,51.39041],"type":"Point"},"properties":{"_source":"warm_welcome","address":"St Augustine's Church, Southborough Lane, Bromley, Kent BR2 8AT","description":"Open from 03-11-2022. Soup and Roll will be available each week","hours":"Th 10:30-16:00","title":"St Augustine with St Luke"},"type":"Feature"},
		{"geometry":{"coordinates":[0.19116,51.31208],"type":"Point"},"properties":{"_source":"warm_welcome","address":"The Green, Otford, Otford, Kent TN14 5PD","description":"","hours":"Fr 14:00-17:00","title":"St Bartholomew's, Otford"},"type":"Feature"},
		{"geometry":{"coordinates":[0.28677,51.28954],"type":"Point"},"properties":{"_source":"warm_welcome","address":"Fen Pond Road, Ightham, Kent TN15 9JD","description":"Open from Tuesday 6th December 2022. We cater for all ages - toys available.","hours":"Tu 14:00-17:00","title":"St Peter's Church Ightham"},"type":"Feature"},
		{"geometry":{"coordinates":[0.22711,51.30630],"type":"Point"},"properties":{"_source":"warm_welcome","address":"Sunnybank Cottage, West End, Kemsing TN15 6PX","description":"","hours":"Su 08:00-17:00","title":"The Church of St Mary the Virgin, Kemsing"},"type":"Feature"},
		{"geometry":{"coordinates":[0.05119,51.38872],"type":"Point"},"properties":{"_source":"warm_welcome","address":"Vision Church, Holmcroft Way, Bromley, Bromley BR2 8AD","description":"","hours":"Mo 12:00-18:00","title":"Vision Church "},"type":"Feature"},
		{"geometry":{"coordinates":[0.10759,51.39632],"type":"Point"},"properties":{"_source":"warm_spaces","address":"345 Chipperfield Road, Orpington, England, BR5 2LJ","title":"The Oak Community Church","url":"https://www.oakchurch.co.uk/warmspace"},"type":"Feature"},
		{"geometry":{"coordinates":[0.06245,51.38414],"type":"Point"},"properties":{"_source":"warm_spaces","address":"34 Hollingworth Road, Orpington, England, BR5 1AQ","title":"Coppice Community Church","url":"https://www.coppicecommunitychurch.co.uk"},"type":"Feature"},
		{"geometry":{"coordinates":[0.00010,51.25780],"type":"Point"},"properties":{"_source":"surrey_county_council_warm_hubs","address":"12 Gresham Rd, Oxted RH8 0BQ","hours":"Th 09:30-17:00; Fr 09:30-17:00; Sa 09:30-17:00; Tu 09:30-17:00; We 09:30-17:00","title":"Oxted Lib "},"type":"Feature"},
		{"geometry":{"coordinates":[0.00283,51.24336],"type":"Point"},"properties":{"_source":"surrey_county_council_warm_hubs","address":"Green Hurst Lane, The Green, Hurst Green, RH8 9DU","hours":"Th 13:00-15:00","title":"St Agatha's Hall"},"type":"Feature"}
	]
}
