{
	"type": "FeatureCollection",
	"features": [
		{"geometry":{"coordinates":[0.26178,51.12815],"type":"Point"},"properties":{"_source":"warm_welcome","address":"High Street, Tunbridge Wells, Kent TN1 1UT","description":" Thrive community cafe provides a warm welcome, free hot drinks and delicious cake. We look forward to seeing you.","hours":"Tu 14:00-15:30; Th 10:00-12:00","title":"Christ Church"},"type":"Feature"},
		{"geometry":{"coordinates":[0.25728,50.96651],"type":"Point"},"properties":{"_source":"warm_welcome","address":"St Richard's Church HALL, Upper Station Road, Heathfield, East Sussex TN21 8DS","description":"","hours":"Fr 10:00-16:00","title":"Heathfield Benefice"},"type":"Feature"},
		{"geometry":{"coordinates":[0.25952,51.12635],"type":"Point"},"properties":{"_source":"warm_welcome","address":"3 Warwick Park, Tunbridge Wells, Kent TN2 5TA","description":"Open from 04/11/2022. We aim to cater for all","hours":"Fr 13:30-17:00","title":"King Charles the Martyr Church Hall Tunbridge Wells"},"type":"Feature"},
		{"geometry":{"coordinates":[0.26002,51.15617],"type":"Point"},"properties":{"_source":"warm_welcome","address":"137 London Road, Tunbridge Wells, Kent TN4 0NA","description":" board games, kids games","hours":"Mo 09:00-18:00","title":"Southborough Town Council"},"type":"Feature"},
		{"geometry":{"coordinates":[0.28291,51.14526],"type":"Point"},"properties":{"_source":"warm_welcome","address":"St Philips Church, Birken Road, Tunbridge Wells, Kent TN2 3TE","description":"Open from 02-11-2022.","hours":"We 09:00-13:00","title":"St Philips Church"},"type":"Feature"},
		{"geometry":{"coordinates":[0.27432,51.15097],"type":"Point"},"properties":{"_source":"warm_welcome","address":"High Brooms Road, Tunbridge Wells, Kent TN4 9BW","description":"Open from 23-11-2022. A warm space in High Brooms with free tea and coffee, Wi-Fi internet access, Board games, hot soup lunch","hours":"We 10:00-16:00","title":"St. Matt's warm welcome"},"type":"Feature"},
		{"geometry":{"coordinates":[0.26720,51.13456],"type":"Point"},"properties":{"_source":"warm_welcome","address":"The Kitchen Table, 19 Camden Road, Tunbridge Wells, Kent TN1 2PS","description":"Everyone is welcome. The Kitchen Table is a different sort of cafe. It’s not just about coffee and cake. It’s about community, about connecting and about chatting.","hours":"Tu 08:00-15:00; We 08:00-15:00; Th 08:00-15:00; Fr 08:00-15:00; Sa 08:00-15:00","title":"The Kitchen Table"},"type":"Feature"},
		{"geometry":{"coordinates":[0.27797,51.12947],"type":"Point"},"properties":{"_source":"warm_welcome","address":"Bayhall Road, Tunbridge Wells, Kent TN2 4UT","description":"Our focus is catered for elderly people ,but anyone is welcome On a Thursday we also have a sale where people can buy clothing, household items and bric a brac at very low prices.","hours":"We 10:00-13:30; Th 10:00-13:30","title":"The Salvation Army"},"type":"Feature"},
		{"geometry":{"coordinates":[0.25838,51.12641],"type":"Point"},"properties":{"_source":"warm_welcome","address":"13 The Pantiles, Tunbridge Wells, Kent TN2 5TD","description":" We are a cafe but do not require you to purchase anything to sit in the warm for a couple of hours","hours":"Mo 09:30-17:00; Tu 09:30-17:00; We 09:30-17:00; Th 09:30-17:00; Fr 09:30-17:00; Sa 09:00-17:00; Su 10:00-16:00","title":"The Zero Waste Company (Tunbridge Wells) Ltd"},"type":"Feature"},
		{"geometry":{"coordinates":[0.26162,51.13520],"type":"Point"},"properties":{"_source":"warm_welcome","address":"The Christian Centre, TUNBRIDGE WELLS, KENT TN1 1EY","description":"Open from 01.11.2022. Come and join us for a quick cuppa or stay all day if you're working from home or fancy the company.","hours":"Tu 09:30-16:30","title":"TWCF"},"type":"Feature"},
		{"geometry":{"coordinates":[0.25030,50.97149],"type":"Point"},"properties":{"_source":"warm_welcome","address":"Union Church Heathfield, Heathfield, East Sussex TN21 8LB","description":"Open from 27/10/2022. Each space has a different theme so ring for details","hours":"Tu 14:00-16:00; We 10:00-13:30; Th 09:30-11:30","title":"Union church heathfield"},"type":"Feature"},
		{"geometry":{"coordinates":[0.17104,51.04190],"type":"Point"},"properties":{"_source":"warm_spaces","address":"St Richard&#39;s Church, Fermor Road, Crowborough, England, TN6 3AP","title":"Crowborough Community Fridge 'Warm Wednesdays'","url":"https://www.facebook.com/CrowboroughCommunityFridge"},"type":"Feature"},
		{"geometry":{"coordinates":[0.23581,50.97154],"type":"Point"},"properties":{"_source":"warm_spaces","address":"St Bartholomew&#39;s Church, Little London Road, Heathfield, England, TN21 0LS","title":"Alleluia Room-St Bartholomew's Church","url":"https://www.waldronchurches.org.uk"},"type":"Feature"},
		{"geometry":{"coordinates":[0.09559,50.97224],"type":"Point"},"properties":{"_source":"warm_spaces","address":"Library Way, Uckfield, England, TN22 1AR","title":"The Luxford Centre","url":"https://manorparkhempfieldsresidents.co.uk"},"type":"Feature"},
		{"geometry":{"coordinates":[0.27462,51.13088],"type":"Point"},"properties":{"_source":"warm_spaces","address":"Bayhall Road, Tunbridge Wells, England, TN2 4UT","title":"The Salvation Army","url":"http://www.salvationarmy.org.uk/tunbridge-wells"},"type":"Feature"},
		{"geometry":{"coordinates":[0.26021,51.15635],"type":"Point"},"properties":{"_source":"warm_spaces","address":"137 London Road, Tunbridge Wells, England, TN4 0NA","title":"Southborough Civic Centre"},"type":"Feature"},
		{"geometry":{"coordinates":[0.26719,51.13462],"type":"Point"},"properties":{"_source":"warm_spaces","address":"The Kitchen Table, 19 Camden Road, Tunbridge Wells, England, TN1 2QY","title":"The Kitchen Table","url":"https://crosswayscommunity.org.uk/how-we-can-help/kitchen-table/"},"type":"Feature"},
		{"geometry":{"coordinates":[0.22958,51.13536],"type":"Point"},"properties":{"_source":"warm_spaces","address":"St Paul&#39;s Church Centre, Rusthall High Street, Tunbridge Wells, England, TN4","title":"Charlie's Angels Kitchens","url":"https://Charliesangelskitchens.co.uk"},"type":"Feature"},
		{"geometry":{"coordinates":[0.25840,51.12647],"type":"Point"},"properties":{"_source":"warm_spaces","address":"The Zero Waste Company, 13 The Pantiles, Tunbridge Wells, England, TN2 5TD","title":"The Zero Waste Company","url":"https://www.thezerowastecompany.com"},"type":"Feature"},
		{"geometry":{"coordinates":[0.00546,51.15965],"type":"Point"},"properties":{"_source":"surrey_county_council_warm_hubs","address":"83 Dormans High St, Dormansland, Lingfield RH7 6RA","hours":"Tu 09:00-15:00","title":"St John’s the Evangelist Church"},"type":"Feature"},
		{"geometry":{"coordinates":[0.00755,51.16442],"type":"Point"},"properties":{"_source":"surrey_county_council_warm_hubs","address":"3 Plough Rd, Dormansland, Lingfield RH7 6PS","title":"Dormansland War Memorial Hall"},"type":"Feature"}
	]
}
