{
	"type": "FeatureCollection",
	"features": [
		{"geometry":{"coordinates":[0.00031,50.87570],"type":"Point"},"properties":{"_source":"warm_welcome","address":"Prince Edwards Road, Lewes, East Sussex bn7 1bl","description":"","hours":"We 10:00-15:00","title":"Christ Church Lewes"},"type":"Feature"},
		{"geometry":{"coordinates":[0.27941,50.80011],"type":"Point"},"properties":{"_source":"warm_welcome","address":"GATEWAY CHRISTIAN CHURCH, 66-70 LOTTBRIDGE DRIVE, EASTBOURNE, EAST SUSSEX BN22 9PB","description":"Open from 29/11/2022.","hours":"Mo 08:30-14:00; Tu 08:30-14:00; We 08:30-14:00; Th 08:30-14:00; Fr 08:30-14:00","title":"Gateway Christian Church"},"type":"Feature"},
		{"geometry":{"coordinates":[0.25860,50.86411],"type":"Point"},"properties":{"_source":"warm_welcome","address":"High Street, Hailsham, East Sussex BN27 1AU","description":"Open from 29.10.22.","hours":"Sa 10:00-12:00","title":"Hailsham Methodist Church"},"type":"Feature"},
		{"geometry":{"coordinates":[0.28903,50.79647],"type":"Point"},"properties":{"_source":"warm_welcome","address":"Kings Church, 27 Edison Road, Eastbourne, East Sussex BN22 8TA","description":"Open from Thursday 1st December.","hours":"Mo 10:00-16:00; Tu 10:00-16:00; We 10:00-16:00; Th 10:00-16:00; Fr 10:00-16:00; Su 09:00-12:00","title":"Kings Church"},"type":"Feature"},
		{"geometry":{"coordinates":[0.04454,50.79155],"type":"Point"},"properties":{"_source":"warm_welcome","address":"Church Hill, Newhaven, East sussex BN9 9NA","description":"","hours":"We 09:30-13:00; Fr 09:30-13:00","title":"Newhaven Baptist Church"},"type":"Feature"},
		{"geometry":{"coordinates":[0.05837,50.89408],"type":"Point"},"properties":{"_source":"warm_welcome","address":"Lewes Rd, Ringmer, East Sussex BN8 5QH","description":"","hours":"Tu 14:00-17:00; We 10:00-12:00; Th 14:00-17:00; Sa 10:00-12:00","title":"Ringmer Village Library"},"type":"Feature"},
		{"geometry":{"coordinates":[0.29944,50.80087],"type":"Point"},"properties":{"_source":"warm_welcome","address":"st Barnabas Church, Kingfisher Drive, Eastbourne, East Sussex BN23 7RA","description":"Open from 4.12.2022. Once a month we have lunch together after our church service. You are very welcome to join us","hours":"Su 11:00-13:30","title":"River of Life Community Church"},"type":"Feature"},
		{"geometry":{"coordinates":[0.30943,50.78859],"type":"Point"},"properties":{"_source":"warm_welcome","address":"St Antony's Centre 557a Seaside, Eastbourne, East Sussex BN228UH","description":"Open from 18/11/2022.","hours":"Fr 10:00-15:00","title":"St Anthony's Centre"},"type":"Feature"},
		{"geometry":{"coordinates":[0.28873,50.77833],"type":"Point"},"properties":{"_source":"warm_welcome","address":"3 Courtlands Rd, Eastbourne, East Sussex BN22 8TR","description":"","title":"Suncoast Church"},"type":"Feature"},
		{"geometry":{"coordinates":[0.29180,50.76849],"type":"Point"},"properties":{"_source":"warm_welcome","address":"23a Cavendish Place, Eastbourne, East Sussex BN21 3EJ","description":"Open from 05-12-2022.","hours":"Th 13:00-17:00; Fr 12:00-17:00","title":"TechResort CIC"},"type":"Feature"},
		{"geometry":{"coordinates":[0.26046,50.77996],"type":"Point"},"properties":{"_source":"warm_spaces","address":"Victoria Baptist Church, Eastbourne, England, BN21","title":"Home from Home","url":"https://en-gb.facebook.com/victoriabaptistchurcheastbourne/"},"type":"Feature"},
		{"geometry":{"coordinates":[0.04643,50.79352],"type":"Point"},"properties":{"_source":"warm_spaces","address":"Church Hill, Newhaven, England, BN9 9NA","title":"Newhaven Baptist Church","url":"https://www.facebook.com/search/top?q=newhaven%20baptist%20church"},"type":"Feature"},
		{"geometry":{"coordinates":[0.03850,50.79181],"type":"Point"},"properties":{"_source":"warm_spaces","address":"Brighton Road, Newhaven, England, BN9","title":"Newhaven Baptist Church","url":"http://www.newhavenbaptistchurch.co.uk"},"type":"Feature"},
		{"geometry":{"coordinates":[0.31004,50.78904],"type":"Point"},"properties":{"_source":"warm_spaces","address":"St Anthony&#39;s Centre, 557a Seaside, Eastbourne, England, BN23 6NH","title":"St Anthony's Centre Warm Space","url":"https://bridgemere.endisinsight.com/Groups/29938/Our_Community_Web/St_Anthonys_Centre/St_Anthonys_Centre.aspx"},"type":"Feature"},
		{"geometry":{"coordinates":[0.01639,50.87750],"type":"Point"},"properties":{"_source":"warm_spaces","address":"King&#39;s Church Lewes, Unit 3, Brooks Road, Lewes, England, BN7 2BY","title":"King's Church Lewes","url":"http://www.kingschurchlewes.org"},"type":"Feature"},
		{"geometry":{"coordinates":[0.05674,50.89332],"type":"Point"},"properties":{"_source":"warm_spaces","address":"Ringmer Village Library, Lewes Road, Lewes, England, BN8 5QH","title":"Ringmer Village Library","url":"https://ringmervillagehall.chessck.co.uk"},"type":"Feature"},
		{"geometry":{"coordinates":[0.10732,50.77390],"type":"Point"},"properties":{"_source":"warm_spaces","address":"St Thomas More Church, 54 Sutton Road, Seaford, England, BN25 1SS","title":"St Thomas More Church Seaford","url":"https://www.seapeace.org.uk"},"type":"Feature"},
		{"geometry":{"coordinates":[0.25789,50.86470],"type":"Point"},"properties":{"_source":"warm_spaces","address":"Hailsham Methodist Church, High Street, Hailsham, England, BN27 1BW","title":"Hailsham Methodist Church","url":"https://e-voice.org.uk/hailshammethodist/"},"type":"Feature"}
	]
}
