{
	"type": "FeatureCollection",
	"features": [
		{"geometry":{"coordinates":[-0.19869,53.74018],"type":"Point"},"properties":{"_source":"warm_welcome","address":"31 St Augustine Gate, Hedon, East Riding of Yorkshire HU12 8EX","description":"Open from 01/11/2022. East Riding libraries offer warm welcoming places, with comfy seating, books, games and jigsaws. Please check our website for service updates and any changes to our usual opening hours.","hours":"Mo 09:30-13:30, Tu 09:30-18:30, We 09:30-13:30, Th 09:30-16:30, Sa 09:30-12:30","title":"Hedon Centre"},"type":"Feature"},
		{"geometry":{"coordinates":[-0.20064,53.74049],"type":"Point"},"properties":{"_source":"warm_welcome","address":"Church Lane, Hedon, East Riding of Yorkshire HU12 8EL","description":"All ages although Thursdays attracts over 50's Hedon Methodist Church Community Partnerships offers a Digital Hub, Coffee Lounge and other spaces every Tuesday. Thursdays is our Junction Community Coffee Lounge for drinks, cake, and crafts or just company. Saturdays each month we are open for coffee. ","hours":"Tu 10:00-14:00, Th 14:00-16:00, Sa 10:00-12:00","title":"Hedon Methodist Church"},"type":"Feature"},
		{"geometry":{"coordinates":[-0.34149,53.74550],"type":"Point"},"properties":{"_source":"warm_welcome","address":"Jubilee Church,, 62 King Edward St, Hull HU1 3SQ","description":" Pool, table tennis and board games are available. ","hours":"Tu 09:00-15:00, We 09:00-15:00","title":"Jubilee Church Hull"},"type":"Feature"},
		{"geometry":{"coordinates":[-0.05083,53.56857],"type":"Point"},"properties":{"_source":"warm_welcome","address":"Sidney Park Football Club, Cleethorpes, N.e lincs DN35 7EF","description":"","hours":"Mo 08:00-12:00, Tu 08:00-12:00, We 08:00-12:00, Th 08:00-12:00, Fr 08:00-12:00","title":"Sidney Park Partnership"},"type":"Feature"},
		{"geometry":{"coordinates":[-0.07270,53.57382],"type":"Point"},"properties":{"_source":"warm_spaces","address":"21 Freeman Street, Grimsby, England, DN32 7AB","title":"YMCA Humber","url":"https://www.ymca-humber.com"},"type":"Feature"},
		{"geometry":{"coordinates":[-0.05130,53.56624],"type":"Point"},"properties":{"_source":"warm_spaces","address":"183-207 Brereton Avenue, Cleethorpes, England, DN35 7RG","title":"Sidney Park Partnership @ Sidney Park JFC"},"type":"Feature"}
	]
}
