{
	"type": "FeatureCollection",
	"features": [
		{"geometry":{"coordinates":[-0.31642,53.49593],"type":"Point"},"properties":{"_source":"warm_welcome","address":"28 Plough Hill, Caistor , Market Rasen LN76LZ","description":"Open to all. Caistor Community Library (Free Membership) has almost 4000 books, a puzzle library, computers, wifi and reading nooks. A cafe downstairs and art exhibitions. ","hours":"Mo 09:30-16:00; Tu 09:30-16:00; We 09:30-16:00; Th 09:30-16:00; Fr 09:30-16:00; Sa 09:30-16:00","title":"Caistor Arts & Heritage Centre"},"type":"Feature"},
		{"geometry":{"coordinates":[-0.00419,53.36786],"type":"Point"},"properties":{"_source":"warm_welcome","address":"Louth Library, Northgate, Louth LN11 0LY","description":"It is free to join and use the library and everyone is welcome. Alongside free access to books, computers, casual and study seating, the Library runs a host of free activities for adults and children including Connect Over A Cuppa community coffee morning every Friday 10am-12noon, there is no charge for refreshments.","hours":"Mo 09:00-17:00; Tu 09:00-18:00; We 09:00-17:00; Th 09:00-14:00; Fr 09:00-17:00; Sa 09:00-16:00","title":"Louth Library"},"type":"Feature"},
		{"geometry":{"coordinates":[-0.33612,53.38573],"type":"Point"},"properties":{"_source":"warm_welcome","address":"Market Rasen Methodist Church, Market Rasen, Lincolnshire LN8 3AG","hours":"Mo 09:00-11:00; Tu 14:00-16:00","title":"Market Rasen"},"type":"Feature"},
		{"geometry":{"coordinates":[-0.33749,53.38710],"type":"Point"},"properties":{"_source":"warm_welcome","address":"Market Rasen Library, Mill Road, Market Rasen LN8 3BP","description":"It is free to join and use the library and everyone is welcome. Alongside free access to books, computers, casual and study seating, the Library runs a host of free activities for adults and children including Connect Over A Cuppa community coffee morning every Tuesday 11am-12noon, there is no charge for refreshments.","hours":"Tu 10:00-17:00; We 10:00-17:00; Fr 10:00-18:00; Sa 10:00-13:00","title":"Market Rasen Library"},"type":"Feature"},
		{"geometry":{"coordinates":[-0.33362,53.38579],"type":"Point"},"properties":{"_source":"warm_welcome","address":"Serpentine Street, Market Rasen, Lincolnshire LN8 3AR","description":" Wednesday and Friday mornings Coffee & Chat is open to all. It's free","hours":"We 10:00-13:00; Fr 10:00-13:00","title":"Market Rasen New Life Church Centre"},"type":"Feature"},
		{"geometry":{"coordinates":[-0.05880,53.50512],"type":"Point"},"properties":{"_source":"warm_welcome","address":"The Holt, Pinfold Lane, Holton Le Clay, Grimsby DN36 5DH","description":"We will provide FREE Hot drinks and warmth for ANYONE that needs it FREE Hot Drinks & Wi-Fi and always Warm","hours":"Mo 15:00-22:00; Tu 15:00-23:00; We 15:00-23:00; Th 15:00-22:00; Fr 15:00-23:30; Sa 12:00-23:30; Su 12:00-22:00","title":"The Holt Bar"},"type":"Feature"}
	]
}
