{
	"type": "FeatureCollection",
	"features": [
		{"geometry":{"coordinates":[-0.28770,52.57701],"type":"Point"},"properties":{"_source":"warm_welcome","address":"Copeland , Bretton , Peterborough PE36YJ","description":"Open from 10 November 2022.","hours":"Tu 10:00-12:00; Th 10:00-12:00","title":"Bretton Baptist Church "},"type":"Feature"},
		{"geometry":{"coordinates":[-0.28331,52.58853],"type":"Point"},"properties":{"_source":"warm_welcome","address":"Rightwell East, Bretton,, Peterborough, Cambridgeshire PE3 8DX","description":" Baby changing, accessible toilets just outside","hours":"Th 11:00-14:00","title":"Church of the Holy Spirit"},"type":"Feature"},
		{"geometry":{"coordinates":[-0.26550,52.53859],"type":"Point"},"properties":{"_source":"warm_welcome","address":"Silver Hill, Hampton, Peterborough PE7 8FF","description":" Our coffee shop is also open Wed-Sat 9.30-3.30, and has a Pay It Forward system so guests are also welcome at other times of the week, outside main Hub hours, and can sit in the church as a quiet, warm space.","hours":"Tu 11:00-14:00; We 17:00-20:00","title":"CSK Church, Hampton"},"type":"Feature"},
		{"geometry":{"coordinates":[-0.31345,52.67467],"type":"Point"},"properties":{"_source":"warm_welcome","address":"The Park, High Street, Market Deeping, Lincs PE68ED","description":"","hours":"Mo 10:00-17:00; Tu 10:00-17:00; We 10:00-17:00; Fr 10:00-17:00; Sa 10:00-15:00","title":"Deepings Community Library"},"type":"Feature"},
		{"geometry":{"coordinates":[-0.25511,52.59134],"type":"Point"},"properties":{"_source":"warm_welcome","address":"1203 Bourges Boulevard, Peterborough, Cambridgeshire PE1 2AU","description":"No pets please","hours":"Mo 09:00-15:00; Tu 09:00-15:00; We 09:00-15:00; Th 09:00-15:00","title":"Peterborough Salvation Army Citadel and Community Centre"},"type":"Feature"},
		{"geometry":{"coordinates":[-0.22087,52.55909],"type":"Point"},"properties":{"_source":"warm_welcome","address":"Wessex Close, Stanground, Peterborough, Cambs PE2 8HZ","description":"Open from 15/11/2022. We have toys available for children, tvs and dvd players, cd player, cakes, snacks and hot drinks available, can look at providing hot food too.","hours":"Tu 09:00-15:00; We 09:00-15:00; Th 09:00-15:00","title":"The Hub Tenter Hill"},"type":"Feature"},
		{"geometry":{"coordinates":[-0.26913,52.61531],"type":"Point"},"properties":{"_source":"warm_welcome","address":"The Way Family Church, The Green, Werrington, Peterborough, Cambs PE4 6RT","description":"","hours":"Tu 10:00-12:30","title":"THE WAY CHURCH"},"type":"Feature"},
		{"geometry":{"coordinates":[-0.27170,52.59757],"type":"Point"},"properties":{"_source":"warm_welcome","address":"The Alpha Centre, Adderley, Bretton,, Peterborough, Cambs PE3 8RA","hours":"Mo 09:30-12:00; Tu 09:30-12:00; We 09:30-12:00; Th 09:30-12:00","title":"Wellspring Community Church"},"type":"Feature"},
		{"geometry":{"coordinates":[-0.25081,52.51708],"type":"Point"},"properties":{"_source":"warm_welcome","address":"Landsowne Road, Yaxley, Peterborough PE7 3JL","description":"","hours":"Mo 15:00-19:00; Tu 09:30-17:00; Th 09:30-17:00; Fr 09:30-13:30; Sa 09:30-13:30","title":"Yaxley Library"},"type":"Feature"},
		{"geometry":{"coordinates":[-0.25110,52.51686],"type":"Point"},"properties":{"_source":"huntingdonshire_council","address":"Yaxley Library, Landsdowne Road, Yaxley PE7 3JL","description":"Facilities: Car park - the nearest car park is opposite the library, behind the shopping centre, Public transport - bus stop 100 yards away (Stagecoach 5) or one mile away on London Road, near Folly Close (Stagecoach 904 Peterborough to St Ives), Accessibility - wheelchair-friendly. The mezzanine area is up 8 steps and not wheelchair accessible.Â , Computers - available to book, Free WiFi - you don't need a library card to use this service","hours":"Mo 15:00-19:00; Tu 09:30-17:00; Th 09:30-17:00; Fr 09:30-13:30; Sa 09:30-13:30"},"type":"Feature"},
		{"geometry":{"coordinates":[-0.25720,52.51907],"type":"Point"},"properties":{"_source":"huntingdonshire_council","address":"Yaxley Parish Council, Queens Park Hall, Daimler Avenue, Yaxley, PE7 3LX","description":"Facilities: Accessible toilets, Accessible access in and out of the building, Fully accessible access throughout the building, Car park, Power sockets available for people to use, Kitchen, Facilities to make hot food and drink - kettle/microwave, Secure building"},"type":"Feature"}
	]
}
