{
	"type": "FeatureCollection",
	"features": [
		{"geometry":{"coordinates":[-0.06944,51.46932],"type":"Point"},"properties":{"_source":"warm_welcome","address":"All Saints Church, Blenheim Grove, Peckham, London SE15 4QS","description":"A relaxed space to have a hot drink and a chat with others from the local community.","hours":"Tu 09:30-11:15","title":"All Saints Church"},"type":"Feature"},
		{"geometry":{"coordinates":[-0.07664,51.51544],"type":"Point"},"properties":{"_source":"warm_welcome","address":"Corporation of London, 1 Artizan Street, London E1 7AF","description":"","hours":"Mo 08:00-19:00; Tu 08:00-17:30; We 08:00-17:30; Th 08:00-17:30; Fr 08:00-17:30","title":"Artizan Street Library and Community Centre"},"type":"Feature"},
		{"geometry":{"coordinates":[-0.15261,51.44599],"type":"Point"},"properties":{"_source":"warm_welcome","address":"16 Ramsden Road, Balham, London SW12 8QY","hours":"Mo 09:00-20:00; We 09:00-20:00; Th 09:00-20:00; Fr 09:00-17:00; Sa 10:00-18:00","title":"Balham Library"},"type":"Feature"},
		{"geometry":{"coordinates":[-0.09414,51.51997],"type":"Point"},"properties":{"_source":"warm_welcome","address":"Barbican Library Barbican Centre For Arts & Conferences, Silk Street, London EC2Y 8DS","description":" A warm welcoming space for everyone. Free WiFi, newspapers, magazines and study spaces. A public library, free to join with a great collection of books, and a huge eLibrary free to download.","hours":"Mo 09:30-17:30; Tu 09:30-19:30; We 09:30-17:30; Th 09:30-19:30; Fr 09:30-17:30; Sa 09:30-16:00","title":"Barbican Library"},"type":"Feature"},
		{"geometry":{"coordinates":[-0.16447,51.46408],"type":"Point"},"properties":{"_source":"warm_welcome","address":"265 Lavender Hill, Battersea, London SW11 1JB","hours":"Mo 09:00-20:00; Tu 09:00-20:00; We 09:00-20:00; Fr 09:00-18:00; Sa 09:00-17:00; Su 13:00-17:00","title":"Battersea Library"},"type":"Feature"},
		{"geometry":{"coordinates":[-0.15456,51.47454],"type":"Point"},"properties":{"_source":"warm_welcome","address":"309 Battersea Park Road, Battersea, London SW11 4NF","hours":"Mo 09:00-19:00; Tu 09:00-19:00; Fr 09:00-17:00; Sa 10:00-14:30","title":"Battersea Park Library"},"type":"Feature"},
		{"geometry":{"coordinates":[-0.05095,51.53175],"type":"Point"},"properties":{"_source":"warm_welcome","address":"Approach Road, Bethnal Green, London E2 9JP","description":"Open from 04-11-22.","hours":"Fr 10:00-18:00","title":"Bethnal Green Methodist Church"},"type":"Feature"},
		{"geometry":{"coordinates":[-0.14417,51.52248],"type":"Point"},"properties":{"_source":"warm_welcome","address":"Devonshire House , London , London W1W 5DR","description":"","title":"Bishop Radford Trust"},"type":"Feature"},
		{"geometry":{"coordinates":[-0.11921,51.45057],"type":"Point"},"properties":{"_source":"warm_welcome","address":"Elm Park, off Brixton Hill, London, Greater London SW2 2TX","description":"Open from 17-11-2022.","hours":"Th 12:00-14:00","title":"Brixton Hill Methodist Church"},"type":"Feature"},
		{"geometry":{"coordinates":[-0.18819,51.49003],"type":"Point"},"properties":{"_source":"warm_welcome","address":"210 Old Brompton Road, Kensington, London SW5 0BS","description":"","hours":"Mo 09:30-20:00; Tu 09:30-20:00; We 10:00-17:00; Th 09:30-20:00; Fr 09:30-17:00; Sa 09:30-17:00; Su 13:00-17:00","title":"Brompton Library "},"type":"Feature"},
		{"geometry":{"coordinates":[-0.23754,51.48027],"type":"Point"},"properties":{"_source":"warm_welcome","address":"75 Castelnau, Barnes, London Borough of Richmond Upon Thames SW13 9RT","description":" Computer access must be booked in advance","hours":"Mo 09:30-18:00; Tu 09:30-18:00; We 10:00-19:00; Fr 09:30-18:00; Sa 09:30-16:00","title":"Castelnau Library"},"type":"Feature"},
		{"geometry":{"coordinates":[-0.01712,51.44591],"type":"Point"},"properties":{"_source":"warm_welcome","address":"23-25 Brownhill Road, Catford, London SE6 2HE","description":"Open from 02-11-2022. There is lots to do:","hours":"Mo 10:00-15:00; We 10:00-15:00","title":"Catford Salvation Army"},"type":"Feature"},
		{"geometry":{"coordinates":[-0.01461,51.52658],"type":"Point"},"properties":{"_source":"warm_welcome","address":"Upper floor, Devons Halls,Powis Road off Grace Street , Bow, London E3 3HJ","description":"Open from 01 11 2022. Our Sunday worship starts at 10am until 12:45pm. We will then provide hot home cooked food especially on the last sunday of every month. There will also be opportunity to check blood pressure level as well as Diabetes check freely.","hours":"Su 01:00-05:00","title":"Christ Apostolic church "},"type":"Feature"},
		{"geometry":{"coordinates":[-0.05083,51.41433],"type":"Point"},"properties":{"_source":"warm_welcome","address":"Green Lane, Penge, London SE20 7JA","description":"Open from 07-11-2022.","hours":"Mo 18:00-21:00","title":"Christ Central Church"},"type":"Feature"},
		{"geometry":{"coordinates":[-0.08420,51.42127],"type":"Point"},"properties":{"_source":"warm_welcome","address":"1 Highland Road, London SE19 1DP","description":" Tuesdays we’re open for movement, food, company & conversation. Wednesdays we’re open for those with dementia and their carers to join us for coffee, cake & conversation. Sundays = our church service. Visit our website for details of other weekly events.","hours":"Tu 11:00-14:30; We 14:00-16:00; Su 10:30-12:00","title":"Christ Church Gipsy hill"},"type":"Feature"},
		{"geometry":{"coordinates":[-0.26510,51.49210],"type":"Point"},"properties":{"_source":"warm_welcome","address":"Christ Church Turnham Green , Town Hall Ave, Chiswick W4 5SD","description":"Open from 13/12/22.","hours":"Tu 10:00-17:00","title":"Christ Church W4"},"type":"Feature"},
		{"geometry":{"coordinates":[-0.14077,51.45475],"type":"Point"},"properties":{"_source":"warm_welcome","address":"Narbonne Avenue, Clapham, London SW49JU","description":"Open from Wednesday 11th October 2022. Everyone welcome. Wednesday Winter Warmers! Join us in church from 6.30pm to 8.30pm for warm drinks & biscuits. You can enjoy company or some quiet time. ","hours":"We 18:30-20:30","title":"Church of the Holy Spirit Clapham"},"type":"Feature"},
		{"geometry":{"coordinates":[-0.06259,51.56281],"type":"Point"},"properties":{"_source":"warm_welcome","address":"Northwold Road, Clapton, London E5 8RA","description":"","hours":"Mo 10:00-20:00; Tu 10:00-20:00; We 13:00-18:00; Th 10:00-20:00; Fr 10:00-18:00; Sa 10:00-17:00","title":"Clapton Library"},"type":"Feature"},
		{"geometry":{"coordinates":[-0.17740,51.41867],"type":"Point"},"properties":{"_source":"warm_welcome","address":"105-109 High Street, Colliers Wood, London SW19 2HR","description":"Our library is open to all","hours":"Mo 08:00-19:00; Tu 08:00-19:00; Th 08:00-19:00; Fr 08:00-19:00; Sa 08:00-19:00","title":"Colliers Wood Library"},"type":"Feature"},
		{"geometry":{"coordinates":[-0.13118,51.39972],"type":"Point"},"properties":{"_source":"warm_welcome","address":"New Horizon Centre, South Lodge Avenue, Mitcham CR4 1LT","description":"Open from 28-11-2022.","hours":"Mo 10:00-16:00; Tu 10:00-16:00; We 10:00-16:00; Th 10:00-16:00; Fr 10:00-16:00","title":"Commonside Community Development Trust"},"type":"Feature"},
		{"geometry":{"coordinates":[-0.00187,51.44348],"type":"Point"},"properties":{"_source":"warm_welcome","address":"103 Torridon Road, London SE6 1RQ","description":"","hours":"Mo 09:00-17:30; Tu 09:00-17:30; Th 09:00-17:30; Fr 09:00-17:30; Sa 10:00-13:00","title":"Corbett Community Library"},"type":"Feature"},
		{"geometry":{"coordinates":[-0.22779,51.55677],"type":"Point"},"properties":{"_source":"warm_welcome","address":"Cricklewood Library, 152 Olive Road, London NW2 6UY","description":" We are a community library and hub offering a free book borrowing and information service. We are run entirely by volunteers and receive no statutory funding.","hours":"Mo 10:00-16:00; We 10:00-16:00; Fr 15:00-18:00; Sa 10:00-16:00","title":"Cricklewood Library"},"type":"Feature"},
		{"geometry":{"coordinates":[-0.07405,51.54605],"type":"Point"},"properties":{"_source":"warm_welcome","address":"Dalston CLR James Library, London, London E8 3BQ","description":"","hours":"Mo 09:00-20:00; Tu 09:00-20:00; We 09:00-20:00; Th 09:00-20:00; Fr 09:00-18:00; Sa 09:00-17:00; Su 13:00-17:00","title":"Dalston CLR James Library"},"type":"Feature"},
		{"geometry":{"coordinates":[-0.29888,51.55162],"type":"Point"},"properties":{"_source":"warm_welcome","address":"Ealing Road Library, Wembley, London HA0 4BA","description":" Ealing Road Library is situated in the heart of a bustling neighbourhood between Wembley High Road and Alperton, referred to by many as the heart of the UK Asian community. We have books and magazines in a range of languages including Tamil, Gujurati, Hin","hours":"Mo 10:30-18:00; Tu 10:30-18:00; We 10:30-18:00; Th 10:30-18:00; Fr 10:30-18:00; Sa 10:30-17:00; Su 12:00-17:00","title":"Ealing Road Library"},"type":"Feature"},
		{"geometry":{"coordinates":[-0.18657,51.44230],"type":"Point"},"properties":{"_source":"warm_welcome","address":"Earlsfield Library, 276 Magdalen Road, Earlsfield SW18 3NY","hours":"Mo 09:00-19:00; Th 09:00-19:00; Fr 09:00-17:00; Sa 10:00-14:30","title":"Earlsfield Library"},"type":"Feature"},
		{"geometry":{"coordinates":[-0.26736,51.46554],"type":"Point"},"properties":{"_source":"warm_welcome","address":"Sheen Lane, London, London Borough of Richmond Upon Thames SW14 8LP","description":" Computer access must be booked in advance","hours":"Mo 09:30-18:00; Tu 09:30-18:00; We 10:00-19:00; Th 09:30-18:00; Fr 09:30-18:00; Sa 09:30-16:00; Su 13:00-17:00","title":"East Sheen Library"},"type":"Feature"},
		{"geometry":{"coordinates":[-0.20217,51.42236],"type":"Point"},"properties":{"_source":"warm_welcome","address":"30 Queens Road, Wimbledon, London SW19 8LR","description":" Step-free access","hours":"We 10:00-12:00","title":"Everyday Wimbledon"},"type":"Feature"},
		{"geometry":{"coordinates":[-0.01621,51.44951],"type":"Point"},"properties":{"_source":"warm_welcome","address":"2A Davenport Road, London SE6 2AZ","description":"We cater for anyone in need of a hot meal and company We serve a three course nutritious vegetarian community meal every Saturday","hours":"Sa 13:00-15:30","title":"FoodCycle Lewisham"},"type":"Feature"},
		{"geometry":{"coordinates":[-0.09523,51.52169],"type":"Point"},"properties":{"_source":"warm_welcome","address":"Golden Lane Estate, Fann Street, London EC1Y 0SA","description":"The session is mainly aimed to elderly people. Golden Social is located at lower ground floor level, accessible via a lift.","hours":"Mo 14:00-16:00","title":"Golden Lane Community Centre"},"type":"Feature"},
		{"geometry":{"coordinates":[-0.33239,51.52688],"type":"Point"},"properties":{"_source":"warm_welcome","address":"Gurnell Grove Community Centre, Gurnell Grove, Ealing, London W13 0AE","description":" From 1pm-3pm Thursdays we also offer English Conversation classes","hours":"Th 15:00-16:30","title":"Gurnell Grove Community Trust"},"type":"Feature"},
		{"geometry":{"coordinates":[-0.07291,51.54609],"type":"Point"},"properties":{"_source":"warm_welcome","address":"Hackney Archives Dalston Square, CLR James Library, CLR James Library, London, England E8 3BQ","description":"","hours":"We 10:00-18:00; Th 10:00-18:00; Fr 10:00-18:00","title":"Hackney Archives"},"type":"Feature"},
		{"geometry":{"coordinates":[-0.05696,51.54461],"type":"Point"},"properties":{"_source":"warm_welcome","address":"Hackney Technology and Learning Centre 1 Reading Lane, Hackney, London E8 1GQ","description":"","hours":"Mo 09:00-20:00; Tu 09:00-20:00; We 09:00-20:00; Th 09:00-20:00; Fr 09:00-18:00; Sa 09:00-17:00","title":"Hackney Central Library"},"type":"Feature"},
		{"geometry":{"coordinates":[-0.08405,51.49509],"type":"Point"},"properties":{"_source":"warm_welcome","address":"22 Tower Bridge Road, London, Southwark SE1 4TR","description":"Open from 02/11/2022.","hours":"We 10:00-12:00","title":"Haddon Hall Baptist Church"},"type":"Feature"},
		{"geometry":{"coordinates":[-0.31431,51.44061],"type":"Point"},"properties":{"_source":"warm_welcome","address":"Ham Street, Ham, Surrey TW10 7HR","description":" Computer access must be booked in advance","hours":"Mo 09:30-18:00; Tu 09:30-18:00; We 10:00-19:00; Fr 09:30-18:00; Sa 09:30-16:00","title":"Ham Library"},"type":"Feature"},
		{"geometry":{"coordinates":[-0.17961,51.55546],"type":"Point"},"properties":{"_source":"warm_welcome","address":"Church Row, London, London NW3 6UU","description":"","hours":"Mo 09:30-16:00; Tu 09:30-16:00; We 09:30-16:00; Th 09:30-16:00; Fr 09:30-16:00; Sa 09:30-16:00; Su 08:00-18:00","title":"Hampstead Parish Church"},"type":"Feature"},
		{"geometry":{"coordinates":[-0.31364,51.41366],"type":"Point"},"properties":{"_source":"warm_welcome","address":"Bennett Close, Hampton Wick, London Borough of Richmond Upon Thames KT1 4AT","description":" Computer access must be booked in advance","hours":"We 10:00-18:00; Fr 10:00-18:00; Sa 09:30-12:30","title":"Hampton Wick Library"},"type":"Feature"},
		{"geometry":{"coordinates":[-0.10474,51.51713],"type":"Point"},"properties":{"_source":"warm_welcome","address":"Holborn viaduct , London Ec1a 2dq","description":"","hours":"Mo 11:00-15:00; Tu 08:30-14:30; We 08:30-14:30; Th 08:30-14:30; Su 10:30-11:30","title":"Holy Sepulchre "},"type":"Feature"},
		{"geometry":{"coordinates":[-0.05762,51.43267],"type":"Point"},"properties":{"_source":"warm_welcome","address":"Trinity Path , Sydenhmam + Forest Hill, London SE26 4EA","description":"Open from 02-11-22.","hours":"We 13:00-16:00","title":"holy trinity church sydenham and forest hill"},"type":"Feature"},
		{"geometry":{"coordinates":[-0.19459,51.41967],"type":"Point"},"properties":{"_source":"warm_welcome","address":"The Broadway, South Wimbledon, London SW19 1SB","description":"Open from 18-11-2022. We cater for all ages","hours":"Fr 10:00-16:00","title":"Holy Trinity Church Wimbledon"},"type":"Feature"},
		{"geometry":{"coordinates":[-0.13089,51.58720],"type":"Point"},"properties":{"_source":"warm_welcome","address":"Priory Road, Hornsey, London N8 7HR","description":" Open from 01-11-2022","hours":"Tu 11:00-15:00","title":"Hornsey Moravian Church"},"type":"Feature"},
		{"geometry":{"coordinates":[-0.24270,51.54834],"type":"Point"},"properties":{"_source":"warm_welcome","address":"The Lodge Willesden Jewish Cemeter (United Synagogue) Beaconsfield Road, Willesden , London Nw10 2JE","description":"Shared working space. As we are a woking heritage site this is only available for people to work quietly with own device and headphones Must be pre booked due to the nature of the site","hours":"Mo 13:00-16:00","title":"House of Life, United Synagogue"},"type":"Feature"},
		{"geometry":{"coordinates":[-0.28475,51.47655],"type":"Point"},"properties":{"_source":"warm_welcome","address":"106 North Road, Kew, London Borough of Richmond upon Thames TW9 4HJ","description":" Computer access must be booked in advance","hours":"Tu 10:00-18:00; Th 10:00-18:00; Sa 09:30-16:00","title":"Kew Library"},"type":"Feature"},
		{"geometry":{"coordinates":[-0.20492,51.53497],"type":"Point"},"properties":{"_source":"warm_welcome","address":"Kilburn Library , London , London NW6 6NN","description":"Open from 21 October 2022. The Library is open for the public/for all age groups The library is free to use and join allowing library members to borrow books and use computers.","hours":"Mo 10:30-18:00; Tu 10:30-18:00; We 10:30-18:00; Th 10:30-18:00; Fr 10:30-18:00; Sa 10:30-17:00; Su 12:00-17:00","title":"Kilburn Library "},"type":"Feature"},
		{"geometry":{"coordinates":[-0.19494,51.53429],"type":"Point"},"properties":{"_source":"warm_welcome","address":"55 Chichester Road , Kilburn , London NW6 5QW","description":"","hours":"We 13:30-18:30","title":"Kilburn Salvation Army Church"},"type":"Feature"},
		{"geometry":{"coordinates":[-0.11977,51.53122],"type":"Point"},"properties":{"_source":"warm_welcome","address":"Kings House, 242 Pentonville Road, London, London N1 9JY","description":"Open from 31/10/2022.","hours":"Mo 10:30-15:30","title":"Kings Cross Church"},"type":"Feature"},
		{"geometry":{"coordinates":[-0.27633,51.58608],"type":"Point"},"properties":{"_source":"warm_welcome","address":"Kingsbury Rd, , Brent, London NW9 9HE","description":" Kingsbury Library has resources for children, young people and adults. Visitors can access the internet using wifi, utilise reference material, newspapers, magazines, participate in activities, events and more. The community Hub is open on Thursdays","hours":"Mo 10:30-18:00; Tu 10:30-18:00; We 10:30-18:00; Th 10:30-18:00; Fr 10:30-18:00; Sa 10:30-17:00; Su 12:00-17:00","title":"Kingsbury Library"},"type":"Feature"},
		{"geometry":{"coordinates":[-0.08990,51.55607],"type":"Point"},"properties":{"_source":"warm_welcome","address":"132A Green Lanes, Hackney, London N16 9BN","description":"Open from 2 November 2022.","hours":"We 11:00-14:00","title":"Listening Place at Green Lanes Methodist Church"},"type":"Feature"},
		{"geometry":{"coordinates":[-0.24440,51.60226],"type":"Point"},"properties":{"_source":"warm_welcome","address":"7 The Concourse, London, Greater London NW9 5XB","description":"Open from 20/11/2022. We cater for all, though more for children and young people. Current opening times are term time. During school holidays, warm space available on Wednesdays & Fridays at 11am - 6 pm; Sundays 12 - 3pm Our space is a unit in which community activities are provided. It has a moderate size industrial kitchen and an open space hall that can accommodate 70 seating people with reasonable space. Table top games, Play Station and overhead projector available. ","hours":"Mo 12:00-17:00; Tu 12:00-17:00; We 12:00-17:00; Th 11:00-16:00; Fr 11:00-16:00; Su 12:00-15:00","title":"Living Way Ministries"},"type":"Feature"},
		{"geometry":{"coordinates":[-0.08011,51.53047],"type":"Point"},"properties":{"_source":"warm_welcome","address":"80 Hoxton Street, Hackney, London, London N1 6LP","description":"","hours":"Mo 10:00-20:00; Tu 10:00-20:00; We 10:00-20:00; Th 10:00-20:00; Fr 10:00-18:00; Sa 10:00-17:00","title":"London Borough of Hackney"},"type":"Feature"},
		{"geometry":{"coordinates":[-0.16234,51.40859],"type":"Point"},"properties":{"_source":"warm_welcome","address":"Mitcham Library 157 London Road, Mitcham, Surrey CR4 2YR","description":"","hours":"Mo 09:30-19:00; Tu 09:30-19:00; We 09:30-19:00; Th 09:30-19:00; Fr 09:30-19:00; Sa 09:30-17:00","title":"London Borough of Merton"},"type":"Feature"},
		{"geometry":{"coordinates":[-0.13118,51.39972],"type":"Point"},"properties":{"_source":"warm_welcome","address":"Pollards Hill Library, South Lodge Avenue, Mitcham CR4 1LT","description":" We have activities taking place for adults and children's","hours":"Mo 08:00-19:00; Tu 08:00-19:00; Th 08:00-19:00; Fr 08:00-19:00; Sa 08:00-17:00","title":"London Borough of Merton"},"type":"Feature"},
		{"geometry":{"coordinates":[-0.19521,51.40144],"type":"Point"},"properties":{"_source":"warm_welcome","address":"Merton Civic Centre, London Rd , Morden, Merton SM4 5DX","description":"","title":"Morden Library"},"type":"Feature"},
		{"geometry":{"coordinates":[-0.14730,51.59450],"type":"Point"},"properties":{"_source":"warm_welcome","address":"28 Page's Lane , Muswell Hill , London N10 1PP","description":"Open from Thursday 17th November . We cater for all ages. Food, games, Wi-Fi, charge mobiles, and the kettle is always on. Once a month we have a lunch club including two course lunch with tea and coffee. Lunch is £3 and is served at 1pm in the Garden Room.","hours":"Th 12:30-15:30","title":"Muswell Hill Methodist Church"},"type":"Feature"},
		{"geometry":{"coordinates":[-0.26485,51.40009],"type":"Point"},"properties":{"_source":"warm_welcome","address":"1a Westbury Road, New Malden , Surrey KT3 5BE","description":"Open from 01-11-22.","hours":"Tu 15:00-20:00","title":"New Malden Baptist church"},"type":"Feature"},
		{"geometry":{"coordinates":[-0.16461,51.45535],"type":"Point"},"properties":{"_source":"warm_welcome","address":"155e Northcote Road, Battersea, London SW11 6HW","hours":"Mo 09:00-19:00; Th 09:00-19:00; Fr 09:00-17:00; Sa 10:30-14:30","title":"Northcote Library"},"type":"Feature"},
		{"geometry":{"coordinates":[-0.14049,51.52604],"type":"Point"},"properties":{"_source":"warm_welcome","address":"201 Drummond Street, London, London NW1 3FE","description":"","hours":"Mo 09:00-22:00; Tu 09:00-22:00; We 09:00-22:00; Th 09:00-22:00; Fr 09:00-18:00; Sa 10:00-18:00; Su 10:00-18:00","title":"Old Diorama Arts Centre"},"type":"Feature"},
		{"geometry":{"coordinates":[-0.34206,51.55194],"type":"Point"},"properties":{"_source":"warm_welcome","address":"Malden Avenue, Greenford, Middlesex, England UB6 0DJ","description":"Open from 03/12/22. *Warm Space opens on 3rd Dec 22. 1st Saturday of the month, all ages are welcome! Free hot drinks, friendly chat, quiet time, a place to get out of the cold. We also have Coffee Morning every Wednesday 10:30-12:00pm, Parent and Toddlers Friday 9:30-11:30","hours":"Sa 10:00-12:00","title":"Oldfield Free Church (Baptist)"},"type":"Feature"},
		{"geometry":{"coordinates":[-0.11053,51.61579],"type":"Point"},"properties":{"_source":"warm_welcome","address":"Broomfield Lane, Enfield, London N13 4EY","description":"We cater for all For news on Library activities see our newsletter here: https://www.enfield.gov.uk/services/libraries/library-newsletter or check out our warm spaces info here: https://www.enfield.gov.uk/services/your-council/cost-of-living-support/warm-spaces","hours":"Mo 09:00-20:00; Tu 09:00-20:00; Th 09:00-20:00; Fr 09:00-17:30; Sa 09:00-17:00","title":"Palmers Green Library"},"type":"Feature"},
		{"geometry":{"coordinates":[-0.30568,51.48480],"type":"Point"},"properties":{"_source":"warm_welcome","address":"St Paul's Church, St Paul's Rd, , Brentford , London TW8 0PN","description":"","hours":"Tu 08:30-15:30; We 08:30-15:30; Th 08:30-15:30; Fr 08:30-15:30; Sa 08:30-15:30","title":"Parish of Brentford "},"type":"Feature"},
		{"geometry":{"coordinates":[-0.09858,51.45540],"type":"Point"},"properties":{"_source":"warm_welcome","address":"St Paul's Church, Herne Hill, London SE24 9LY","description":"Everyone Join us to keep warm and find community! ","hours":"Mo 10:30-01:30","title":"Parish of Herne Hill"},"type":"Feature"},
		{"geometry":{"coordinates":[-0.09858,51.45540],"type":"Point"},"properties":{"_source":"warm_welcome","address":"Parish of Herne Hill, The Parish Office, London, London SE24 9LY","description":"Open from 10/11/22. Everyone is welcome!!! Hope cafe is a place where everyone is welcome and valued equally. We run our cafe on customer donations.","hours":"Th 09:00-16:00","title":"Parish of Herne Hill - Hope Cafe"},"type":"Feature"},
		{"geometry":{"coordinates":[-0.19502,51.41973],"type":"Point"},"properties":{"_source":"warm_welcome","address":"Polka Theatre, 240 The Broadway, Wimbledon, London SW19 1SB","description":"We are a child-centered venue. We have free indoor and outdoor play spaces for children and families, there is no need to be attending a show or workshop in order to use these spaces.","hours":"Tu 09:00-17:00; We 09:00-17:00; Th 09:00-17:00; Fr 09:00-17:00; Sa 09:30-17:00; Su 09:30-17:00","title":"Polka Theatre"},"type":"Feature"},
		{"geometry":{"coordinates":[-0.22914,51.40885],"type":"Point"},"properties":{"_source":"warm_welcome","address":"21 Approach Road , Raynes Park, London SW20 8BA","description":"","hours":"Mo 08:00-19:00; Tu 08:00-19:00; Th 08:00-19:00; Fr 08:00-19:00; Sa 08:00-17:00","title":"Raynes Park Library"},"type":"Feature"},
		{"geometry":{"coordinates":[-0.27723,51.61190],"type":"Point"},"properties":{"_source":"warm_welcome","address":"The Meeting Room, The Broadwalk Shopping Centre, Station Road, Edgware HA8 7BD","description":"We are open to all women","hours":"Fr 11:00-16:00","title":"Resourceful Women's Network"},"type":"Feature"},
		{"geometry":{"coordinates":[-0.30657,51.45881],"type":"Point"},"properties":{"_source":"warm_welcome","address":"Old Town Hall, Whittaker Avenue, Richmond TW9 1TP","description":"This is a quiet study and reading space Computer access must be booked in advance","hours":"Mo 09:30-19:00; Tu 09:30-18:00; We 10:00-19:00; Th 09:30-18:00; Fr 09:30-18:00; Sa 09:30-16:00","title":"Richmond Information and Reference Library"},"type":"Feature"},
		{"geometry":{"coordinates":[-0.30392,51.46239],"type":"Point"},"properties":{"_source":"warm_welcome","address":"Little Green, Richmond, Surry TW9 1QL","description":" Computer access must be booked in advance","hours":"Mo 09:30-19:00; Tu 09:30-18:00; We 10:00-19:00; Th 09:30-18:00; Fr 09:30-18:00; Sa 09:30-16:00; Su 13:00-17:00","title":"Richmond Lending Library"},"type":"Feature"},
		{"geometry":{"coordinates":[-0.24212,51.44982],"type":"Point"},"properties":{"_source":"warm_welcome","address":"2 Danebury Avenue, Roehampton, London SW15 4HD","hours":"Mo 09:00-19:00; We 09:00-19:00; Fr 09:00-17:00; Sa 10:00-14:30","title":"Roehampton Library"},"type":"Feature"},
		{"geometry":{"coordinates":[-0.12271,51.51275],"type":"Point"},"properties":{"_source":"warm_welcome","address":"Royal Opera House, Bow Street, London WC2E 9DD","description":"Open from 17/11/2022. We are a public building and open to all","hours":"Mo 12:00-22:00; Tu 12:00-22:00; We 12:00-22:00; Th 12:00-22:00; Fr 12:00-22:00; Sa 12:00-22:00; Su 12:00-18:00","title":"Royal Opera House"},"type":"Feature"},
		{"geometry":{"coordinates":[-0.05481,51.41599],"type":"Point"},"properties":{"_source":"warm_welcome","address":"Rule19coffee C/o Se20 Cycles, 78 High Street , Penge, London SE20 7hb","description":" We are a small coffee shop within a bike shop. The garden is large enough for kids to play though we do not provide toys of any sort","hours":"Tu 09:00-17:00","title":"Rule19 Coffee"},"type":"Feature"},
		{"geometry":{"coordinates":[-0.04616,51.55602],"type":"Point"},"properties":{"_source":"warm_welcome","address":"Clapton Park Methodist Chruch, 99, Chatsworth Road, London E5 OLH","description":"We cater all age groups We have yoga and physical training sessions and we have interesting board games.","hours":"Tu 11:00-15:00; We 11:00-15:00","title":"Shepherd Fold Ministry"},"type":"Feature"},
		{"geometry":{"coordinates":[-0.10680,51.51562],"type":"Point"},"properties":{"_source":"warm_welcome","address":"Corporation Of London, Shoe Lane Library, Hill House, 1 Little New Street, London EC4A 3JR","hours":"Mo 09:30-17:30; Tu 09:30-18:30; We 09:30-17:30; Th 09:30-17:30; Fr 09:30-17:30","title":"Shoe Lane Library"},"type":"Feature"},
		{"geometry":{"coordinates":[-0.20727,51.44435],"type":"Point"},"properties":{"_source":"warm_welcome","address":"300 Wimbledon Park Road, Southfields, London SW19 6NL","hours":"Tu 09:00-19:00; We 09:00-19:00; Fr 09:00-17:00; Sa 10:00-14:30","title":"Southfields Library"},"type":"Feature"},
		{"geometry":{"coordinates":[-0.04349,51.54839],"type":"Point"},"properties":{"_source":"warm_welcome","address":"Homerton High Street, London, London E9 6DL","description":"","hours":"We 14:00-15:30","title":"St Barnabas Church Homerton"},"type":"Feature"},
		{"geometry":{"coordinates":[-0.20103,51.47353],"type":"Point"},"properties":{"_source":"warm_welcome","address":"St Dionis Church, 18a Parsons Green, London SW6 4UH","description":"","hours":"We 14:00-16:00","title":"St Dionis Church"},"type":"Feature"},
		{"geometry":{"coordinates":[-0.21803,51.55263],"type":"Point"},"properties":{"_source":"warm_welcome","address":"St Gabriel's Church, Walm Lane, London NW2 4RX","description":"","hours":"Mo 13:00-15:00","title":"St Gabriel's, Cricklewood"},"type":"Feature"},
		{"geometry":{"coordinates":[-0.09726,51.56320],"type":"Point"},"properties":{"_source":"warm_welcome","address":"Queen's Drive, London, London N4 2LW","description":" This warm space is open as part of our Renew Wellbeing Cafe. For more information see www.sjebp.com/renewn4","hours":"Th 10:00-12:30","title":"St John the Evangelist Brownswood Park, St Thomas Finsbury Park"},"type":"Feature"},
		{"geometry":{"coordinates":[-0.31396,51.61565],"type":"Point"},"properties":{"_source":"warm_welcome","address":"Church House, Old Church Lane, Stanmore, Middlesex HA7 2QX","description":"All welcome. A warm welcome space in the heart of Stanmore. There is free parking on the road outside the hall and we are offering free wifi, hot drinks and snacks. There are also tables set up for games, puzzles, work and homework!","hours":"Su 03:30-05:30","title":"St John's Church Hall, Stanmore"},"type":"Feature"},
		{"geometry":{"coordinates":[-0.21585,51.52922],"type":"Point"},"properties":{"_source":"warm_welcome","address":"Kilburn Lane, Kensal Green, London W10 4AA","description":"Our focus is on senior members of the community","hours":"Tu 10:30-12:00","title":"St John's Church Kensal Green"},"type":"Feature"},
		{"geometry":{"coordinates":[-0.06647,51.59866],"type":"Point"},"properties":{"_source":"warm_welcome","address":"St Mary's Church, Lansdowne Road, Tottenham, London N17 9XE","description":" A space for company and warmth where microwave, phone charging, tea and coffee and snacks are available. ","hours":"Fr 08:30-15:00","title":"St Mary Tottenham"},"type":"Feature"},
		{"geometry":{"coordinates":[-0.08713,51.55944],"type":"Point"},"properties":{"_source":"warm_welcome","address":"Stoke Newington Church St, London N16 9ES","description":"","hours":"Th 14:00-17:00","title":"St Mary's Church N16"},"type":"Feature"},
		{"geometry":{"coordinates":[-0.10234,51.53842],"type":"Point"},"properties":{"_source":"warm_welcome","address":"St Mary's Church, Upper Street, Islington, London N1 2TX","description":"","hours":"Th 10:30-14:00","title":"St Mary's Islington "},"type":"Feature"},
		{"geometry":{"coordinates":[-0.23346,51.41179],"type":"Point"},"properties":{"_source":"warm_welcome","address":"Durham Road, West Wimbledon, London SW20 0DE","description":"","hours":"We 11:00-17:00","title":"St Matthew's, Wimbledon"},"type":"Feature"},
		{"geometry":{"coordinates":[-0.32977,51.60238],"type":"Point"},"properties":{"_source":"warm_welcome","address":"95 Bishop Ken Rd, Harrow Weald, London HA3 7HP","description":"Open from Tuesdays already open: Wednesdays from Dec 2022 - Feb 2023.","hours":"Tu 14:30-16:00; We 14:00-16:00","title":"St Michael and All Angels Harrow Weald"},"type":"Feature"},
		{"geometry":{"coordinates":[-0.06559,51.54102],"type":"Point"},"properties":{"_source":"warm_welcome","address":"St Michael & All Angels Church, Lansdowne Drive, London E8 3ER","description":"","hours":"We 10:00-12:00","title":"St Michael and All Angels London Fields"},"type":"Feature"},
		{"geometry":{"coordinates":[-0.27160,51.48762],"type":"Point"},"properties":{"_source":"warm_welcome","address":"60 Elmwood Road, Chiswick, London W4 3DZ","description":"Open from 10 November 2022. Everyone is welcome to join us. We have a large indoor play space with pre-school toys, as well as board games, table tennis and a pool table. Limited on street parking is available from 12 noon","hours":"Tu 14:00-17:00; We 14:00-17:00; Th 10:00-15:00","title":"St Michael’s Church, Elmwood Road"},"type":"Feature"},
		{"geometry":{"coordinates":[-0.25090,51.48634],"type":"Point"},"properties":{"_source":"warm_welcome","address":"Church Street, Chiswick, London W4 2PH","description":"Open from 02-11-2022. Every Wednesday, between 10am and 5pm, we are offering a soup lunch, access to donated coats and clean, second-hand blankets and duvets, and facilities where other foods could be heated.","hours":"We 10:00-17:00","title":"St Nicholas Church, Chiswick"},"type":"Feature"},
		{"geometry":{"coordinates":[-0.16678,51.52418],"type":"Point"},"properties":{"_source":"warm_welcome","address":"St Paul's Church, 5 Rossmore Road, London NW1 6NJ","description":" The church is open on Sunday mornings from 10am for worship, followed by refreshments at 11.45am. On the first Wednesday of the month we have a coffee morning from 10am-12noon, followed by Zumba class 12-1pm (£1 per person)","hours":"Mo 16:00-17:00; We 10:00-12:00; Mo 18:00-19:30","title":"St Paul's Church, Marylebone"},"type":"Feature"},
		{"geometry":{"coordinates":[-0.18658,51.60304],"type":"Point"},"properties":{"_source":"warm_welcome","address":"St Paul's Church, 50 Long Lane, London N3 2PU","description":"Open from 07/11/2022.","hours":"Mo 10:00-12:30","title":"St Paul's Finchley"},"type":"Feature"},
		{"geometry":{"coordinates":[-0.28422,51.41599],"type":"Point"},"properties":{"_source":"warm_welcome","address":"Queens Road, Kingston, Surrey KT2 7SF","description":"This space is predominantly for families with pre and school age children. All children must be accompanied by a parent or carer. A family after school space. Come and have a warm drink, snack and hang out time with us after school! There will be space to get homework done, have a play or just some chill out time.","hours":"Mo 15:30-17:00","title":"St Paul's Kingston"},"type":"Feature"},
		{"geometry":{"coordinates":[-0.21909,51.44297],"type":"Point"},"properties":{"_source":"warm_welcome","address":"23 Inner Park Road, Wimbledon , London SW19 6EW","description":"","hours":"Th 10:30-12:00","title":"St Paul’s Wimbledon Parkside "},"type":"Feature"},
		{"geometry":{"coordinates":[-0.17761,51.46576],"type":"Point"},"properties":{"_source":"warm_welcome","address":"23 Plough Road , London SW11 2DE","description":"Open from 12-11-2022. Free Board Games Cafe & Table Top sale","hours":"Sa 14:00-17:00","title":"St Peter's Battersea "},"type":"Feature"},
		{"geometry":{"coordinates":[-0.06434,51.52993],"type":"Point"},"properties":{"_source":"warm_welcome","address":"St Peter's Bethnal Green, St Peter's Close, LONDON E2 7AE","description":"On the last two Fridays of the month we run a coffee morning for senior citizens. Easy to join-in worship plus social space and kids groups on Sundays. Intergenerational Community Art Club on Weds afternoons - Come and create, craft or just warm up.. ","hours":"We 13:30-15:30; Su 10:00-13:30","title":"St Peter's Bethnal Green"},"type":"Feature"},
		{"geometry":{"coordinates":[-0.10428,51.56017],"type":"Point"},"properties":{"_source":"warm_welcome","address":"St Thomas's Road, London, London N4 2QP","description":"Unfortunately, we are unable to cater for young children at this space. This warm space is open for Teas at St Thomas's. Please enter the church via the side gate on Monsell Road. ","hours":"Th 14:00-16:00","title":"St Thomas Finsbury Park"},"type":"Feature"},
		{"geometry":{"coordinates":[-0.26132,51.39970],"type":"Point"},"properties":{"_source":"warm_welcome","address":"St Joseph’s Catholic Church , New Malden, Surrey KT3 3QW","description":"Open from 1/11/2022. All people, all ages, all faiths or none Free tea, coffee, water, soup. Board games and cards ","hours":"Fr 11:00-15:00","title":"St Vincent de Paul"},"type":"Feature"},
		{"geometry":{"coordinates":[-0.02566,51.40769],"type":"Point"},"properties":{"_source":"warm_welcome","address":"High Street, Beckenham, Kent BR3 1AX","description":"Open from 01/11/2022. All welcome Monday Craft group, Wednesday service 10.30, Friday recital 12.30, Saturday recital 11.00, Sunday services 8.00 and 9.30. Closed from December 24th- January 2nd inclusive","hours":"Mo 09:00-13:00; Tu 09:00-13:00; We 09:00-13:00; Th 09:00-13:00; Fr 09:00-13:00; Sa 10:00-13:00; Su 08:00-11:30","title":"St. George's Church Beckenham"},"type":"Feature"},
		{"geometry":{"coordinates":[-0.22672,51.59036],"type":"Point"},"properties":{"_source":"warm_welcome","address":"49 Church End, , London, NW4 4JT","description":"","hours":"Tu 12:00-14:00; Th 12:00-14:00","title":"St. Mary's Church, Hendon"},"type":"Feature"},
		{"geometry":{"coordinates":[-0.06658,51.54868],"type":"Point"},"properties":{"_source":"warm_welcome","address":"Dalston Lane Community Centre , Lewis Place , Hackney E8 1PQ","description":"Open from 01-12-2022. Targeting Families and older people Board games, Archery, films and other activities ","hours":"Mo 17:00-19:00; We 17:00-19:00; Th 17:00-19:00","title":"Stars n Stripes"},"type":"Feature"},
		{"geometry":{"coordinates":[-0.08293,51.56130],"type":"Point"},"properties":{"_source":"warm_welcome","address":"184 Stoke Newington Church Street, Hackney, London N16 0JL","description":" Kind Coats 'Need a coat; take one', 'want to help; leave one' is based in the Foyer","hours":"Mo 10:00-20:00; Tu 10:00-20:00; We 10:00-20:00; Th 10:00-20:00; Fr 10:00-18:00; Sa 10:00-17:00; Su 13:00-17:00","title":"Stoke Newington Library"},"type":"Feature"},
		{"geometry":{"coordinates":[-0.12717,51.42981],"type":"Point"},"properties":{"_source":"warm_welcome","address":"16-16a Wellfield Road, Streatham, London SW16 2BP","description":"","hours":"Tu 10:30-02:30","title":"Streatham Youth and Community Trust"},"type":"Feature"},
		{"geometry":{"coordinates":[-0.22908,51.45508],"type":"Point"},"properties":{"_source":"warm_welcome","address":"The Yard, 401-403 Tildesely Road, Putney, London SW15 3BD","hours":"Tu 10:00-14:00; We 10:00-14:00; Th 10:00-12:30","title":"SW London Vineyard Church"},"type":"Feature"},
		{"geometry":{"coordinates":[-0.33743,51.42697],"type":"Point"},"properties":{"_source":"warm_welcome","address":"17 Church Road, Teddington, Middlesex TW11 8PF","description":"","hours":"We 09:00-12:30","title":"Teddington Baptist Church"},"type":"Feature"},
		{"geometry":{"coordinates":[-0.33597,51.42659],"type":"Point"},"properties":{"_source":"warm_welcome","address":"The Peter & Paul Centre, ByChurch End, Teddington, Middlesex TW11 8PS","description":"","hours":"Mo 13:30-16:30","title":"Teddington Community Cafe"},"type":"Feature"},
		{"geometry":{"coordinates":[-0.33563,51.42906],"type":"Point"},"properties":{"_source":"warm_welcome","address":"Waldegrave Road, Teddington, Middlesex TW11 8NY","description":" Computer access must be booked in advance","hours":"Mo 09:30-19:00; Tu 09:30-18:00; We 10:00-19:00; Th 09:30-18:00; Fr 09:30-18:00; Sa 09:30-16:00; Su 13:00-17:00","title":"Teddington Library"},"type":"Feature"},
		{"geometry":{"coordinates":[-0.22437,51.41220],"type":"Point"},"properties":{"_source":"warm_welcome","address":"Worple Road, Raynes Park, London SW20 8RA","description":"Open from 01-11-22.","hours":"Tu 12:00-16:00; We 12:00-16:00; Fr 12:00-16:00","title":"The Lantern Methodist Church"},"type":"Feature"},
		{"geometry":{"coordinates":[-0.22806,51.54724],"type":"Point"},"properties":{"_source":"warm_welcome","address":"WILLESDEN GREEN LIBRARY CENTRE, 95 HIGH ROAD, London Borough of Brent NW10 2SF","description":" Much more than a library, this modern cultural centre provides a library, gallery, community meeting rooms and performance space as well as the Brent Archives, Brent Museum and a Brent Start learning centre.","hours":"Mo 10:30-20:00; Tu 10:30-20:00; We 10:30-20:00; Th 10:30-20:00; Fr 10:30-20:00; Sa 10:30-17:00; Su 12:00-17:00","title":"The Library at Willesden Green"},"type":"Feature"},
		{"geometry":{"coordinates":[-0.07393,51.56001],"type":"Point"},"properties":{"_source":"warm_welcome","address":"106a Stoke Newington High Street, London N16 7NY","description":"Focus is on people who do not have secure accomadation, but all people are welcome. No charges are made.","hours":"Tu 11:00-13:00","title":"The Listening Place"},"type":"Feature"},
		{"geometry":{"coordinates":[-0.08689,51.59782],"type":"Point"},"properties":{"_source":"warm_welcome","address":"Lordship Hub, Lordship Recreation Ground, Higham Rd, Tottenham, London N17 6NU","description":" We provide free delicious hot lunches and drinks freshly prepared onsite by our fantastic chefs. Our food bank provides a range of fresh, chilled and ambient foods to collect. ","hours":"Th 13:00-15:00","title":"The OK Foundation"},"type":"Feature"},
		{"geometry":{"coordinates":[-0.08245,51.41807],"type":"Point"},"properties":{"_source":"warm_welcome","address":"58 Westow Street, Crystal Palace, London SE193AF","description":"Open from 30 October 2022.","hours":"We 14:00-15:00; Th 14:00-15:30; Fr 18:15-19:45; Su 10:00-13:00","title":"The Salvation Army"},"type":"Feature"},
		{"geometry":{"coordinates":[-0.05397,51.55432],"type":"Point"},"properties":{"_source":"warm_welcome","address":"122-124 Lower Clapton Road, Clapton, Hackney E5 0QR","description":"","hours":"Mo 13:00-17:00; Fr 10:00-12:00","title":"The Salvation Army - Clapton"},"type":"Feature"},
		{"geometry":{"coordinates":[-0.22878,51.58690],"type":"Point"},"properties":{"_source":"warm_welcome","address":"1-5 Brampton Grove, Hendon, London NW4 4AE","description":"Open from 01-11-2022.","hours":"Tu 10:00-13:00","title":"The Salvation Army Hendon"},"type":"Feature"},
		{"geometry":{"coordinates":[-0.16574,51.42657],"type":"Point"},"properties":{"_source":"warm_welcome","address":"75 Mitcham Road, Tooting , London SW17 9PD","hours":"Mo 09:00-19:00; Tu 09:00-19:00; Th 09:00-19:00; Fr 09:00-17:00; Sa 09:00-17:00; Su 13:00-17:00","title":"Tooting Library"},"type":"Feature"},
		{"geometry":{"coordinates":[-0.32773,51.44763],"type":"Point"},"properties":{"_source":"warm_welcome","address":"Garfield Road, Twickenham, Middlesex TW1 3JT","description":" Computer access must be booked in advance","hours":"Mo 09:30-19:00; Tu 09:30-18:00; We 10:00-19:00; Th 09:30-18:00; Fr 09:30-18:00; Sa 09:30-16:00","title":"Twickenham Library"},"type":"Feature"},
		{"geometry":{"coordinates":[-0.30209,51.45795],"type":"Point"},"properties":{"_source":"warm_welcome","address":"Vineyard Community Centre , Richmond , London / Surrey TW10 6AQ","description":"Anyone looking for some warm, friendly community or feeling the impact of the cost-of-living crisis. Come join us! Free Hot Food, Foodbank, WiFi, Friendship & Support","hours":"Mo 13:00-16:00; Tu 13:00-16:00; We 13:00-16:00; Th 13:00-16:00; Fr 13:00-16:00","title":"Vineyard Community"},"type":"Feature"},
		{"geometry":{"coordinates":[-0.19256,51.45616],"type":"Point"},"properties":{"_source":"warm_welcome","address":"11 Garratt Lane, Wandsworth, London SW18 4AQ","hours":"Tu 09:00-19:00; We 09:00-19:00; Th 09:00-19:00; Fr 09:00-17:00; Sa 09:00-17:00","title":"Wandsworth Town Library"},"type":"Feature"},
		{"geometry":{"coordinates":[-0.28824,51.56107],"type":"Point"},"properties":{"_source":"warm_welcome","address":"44 Wembley Park Drive, Wembley, London HA9 8HA","description":"","hours":"Fr 11:30-14:30","title":"Wembley Friendship Centre"},"type":"Feature"},
		{"geometry":{"coordinates":[-0.28113,51.55889],"type":"Point"},"properties":{"_source":"warm_welcome","address":"Brent Civic Centre, Engineers Way, Wembley HA9 0FJ","description":"Wembley Library is located in Brent Civic Centre. Visitors can access the internet, utilise reference material, newspapers, magazines, participate in activities, events and more. Wembley library has resources for children, young people and adults The library is open 8am – 10.30am (Monday to Friday), with self-service provision (borrow, return and reserve items), with seating available for customers to read/relax. The community Hub is open every weekday from 10am-2pm.","hours":"Mo 10:30-20:00; Tu 10:30-20:00; We 10:30-20:00; Th 10:30-20:00; Fr 10:30-20:00; Sa 10:30-17:00; Su 12:00-17:00","title":"Wembley Library: Brent Civic Centre"},"type":"Feature"},
		{"geometry":{"coordinates":[-0.29821,51.56242],"type":"Point"},"properties":{"_source":"warm_welcome","address":"East Lane, , Wembley , Middlesex HA9 7PD","description":"","hours":"Su 10:30-12:00","title":"Wembley Park UR Church"},"type":"Feature"},
		{"geometry":{"coordinates":[-0.20846,51.42214],"type":"Point"},"properties":{"_source":"warm_welcome","address":"35 Wimbledon Hill Road, Wimbledon, London SW19 7NB","description":"","hours":"Mo 09:30-19:00; Tu 09:30-19:00; We 09:30-19:00; Th 09:30-19:00; Fr 09:30-19:00; Sa 09:30-17:00","title":"Wimbledon Library"},"type":"Feature"},
		{"geometry":{"coordinates":[-0.10896,51.49221],"type":"Point"},"properties":{"_source":"warm_welcome","address":"25A Wincott Street, London, Kennington SE11 4NT","description":"","hours":"Tu 09:30-16:00; We 14:00-16:00; Th 09:30-16:00","title":"WLM St Luke's"},"type":"Feature"},
		{"geometry":{"coordinates":[-0.17513,51.46717],"type":"Point"},"properties":{"_source":"warm_welcome","address":"34 Lavender Rd, London SW11 2UG","description":"","hours":"Tu 12:00-18:00; We 10:00-19:00; Th 12:00-17:00; Fr 11:00-17:00; Sa 10:00-14:30","title":"York Garden's Library"},"type":"Feature"},
		{"geometry":{"coordinates":[-0.18631,51.44212],"type":"Point"},"properties":{"_source":"warm_spaces","address":"271 Magdalen Road, London, England, SW18 3NZ","title":"Earlsfield Baptist Church Warm Space","url":"https://Www.earlsfieldbaptist.org.uk"},"type":"Feature"},
		{"geometry":{"coordinates":[-0.07684,51.51566],"type":"Point"},"properties":{"_source":"warm_spaces","address":"1 Artizan Street, London, E1 7AF, ","title":"Artizan Street Library and Community Centre","url":"https://www.cityoflondon.gov.uk/services/libraries/artizan-street-library"},"type":"Feature"},
		{"geometry":{"coordinates":[-0.09331,51.52010],"type":"Point"},"properties":{"_source":"warm_spaces","address":"Barbican Library, Barbican Centre, London, England, EC2Y 8DS","title":"Barbican Library","url":"https://www.cityoflondon.gov.uk/services/libraries"},"type":"Feature"},
		{"geometry":{"coordinates":[-0.19496,51.41973],"type":"Point"},"properties":{"_source":"warm_spaces","address":"240 The Broadway, London, England, SW19 1SD","title":"Polka Theatre","url":"https://www.polkatheatre.com"},"type":"Feature"},
		{"geometry":{"coordinates":[-0.09828,51.45254],"type":"Point"},"properties":{"_source":"warm_spaces","address":"Half Moon Lane, London, England, SE24 9HU","title":"Herne Hill Baptist Church 'Warm Mondays'","url":"https://hhbc.org.uk"},"type":"Feature"},
		{"geometry":{"coordinates":[-0.13052,51.42995],"type":"Point"},"properties":{"_source":"warm_spaces","address":"Immanuel &amp; St Andrew Church, Streatham High Road, London, England, SW16 1HT","title":"Immanuel &amp; St Andrew Warm Hub","url":"https://immanuelstreatham.org.uk"},"type":"Feature"},
		{"geometry":{"coordinates":[-0.05591,51.41949],"type":"Point"},"properties":{"_source":"warm_spaces","address":"Penge East Railway Station Carpark, Station Road, London, England, SE20 7BE","title":"Penge East Community Centre","url":"https://twitter.com/eastpengegarden"},"type":"Feature"},
		{"geometry":{"coordinates":[-0.20014,51.41918],"type":"Point"},"properties":{"_source":"warm_spaces","address":"The Broadway, London, England, SW19","title":"Holy Trinity Church South Wimbledon"},"type":"Feature"},
		{"geometry":{"coordinates":[-0.34314,51.56791],"type":"Point"},"properties":{"_source":"warm_spaces","address":"Roxeth Hill, Harrow, England, HA2 0JN","title":"Christ Church, Roxeth","url":"https://www.ccrharrow.org"},"type":"Feature"},
		{"geometry":{"coordinates":[-0.04092,51.51210],"type":"Point"},"properties":{"_source":"warm_spaces","address":"The Royal Foundation of St Katharine, 2 Butcher Row, London, England, E14 8DS","title":"The Yurt Cafe and Community Hub","url":"https://yurtcafe.london"},"type":"Feature"},
		{"geometry":{"coordinates":[-0.08379,51.50968],"type":"Point"},"properties":{"_source":"warm_spaces","address":"11-15 Saint Mary at Hill, London, England, EC3R 8EE","title":"In Kind Direct","url":"https://inkinddirect.org/charities"},"type":"Feature"},
		{"geometry":{"coordinates":[-0.10895,51.49217],"type":"Point"},"properties":{"_source":"warm_spaces","address":"25A Wincott Street, London, England, SE11 4NT","title":"WLM St Luke's Community Hub","url":"https://www.wlm.org.uk"},"type":"Feature"},
		{"geometry":{"coordinates":[-0.12978,51.53109],"type":"Point"},"properties":{"_source":"warm_spaces","address":"St Pancras &amp; Somers Town Living Centre, 2 Ossulston Street, London, England, NW1 1DF","title":"Stay Warm","url":"https://www.thelivingcentre.org"},"type":"Feature"},
		{"geometry":{"coordinates":[-0.11726,51.48245],"type":"Point"},"properties":{"_source":"warm_spaces","address":"Ashmole Community Hall, 113 Claylands Road, London, England, SW8 1PL","title":"Metropolitan Thames Valley Housing","url":"https://www.mtvh.co.uk"},"type":"Feature"},
		{"geometry":{"coordinates":[-0.13207,51.44822],"type":"Point"},"properties":{"_source":"warm_spaces","address":"Clapham Park Cube, 116 Kings Avenue, London, England, SW4 8EP","title":"Metropolitan Thames Valley Housing","url":"https://www.mtvh.co.uk"},"type":"Feature"},
		{"geometry":{"coordinates":[-0.17440,51.59650],"type":"Point"},"properties":{"_source":"barnet_council","address":"Ann Owens Centre, Oak Lane, East Finchley, N2 8LT","title":"Ann Owens Centre - Age UK","url":"https://www.barnet.gov.uk/directories/warm-spaces/ann-owens-centre-age-uk"},"type":"Feature"},
		{"geometry":{"coordinates":[-0.17629,51.61300],"type":"Point"},"properties":{"_source":"barnet_council","address":"5 Nether Street, Tally Ho Corner, North Finchley, London, N12 0GA","title":"artsdepot","url":"https://www.barnet.gov.uk/directories/warm-spaces/artsdepot"},"type":"Feature"},
		{"geometry":{"coordinates":[-0.24497,51.60240],"type":"Point"},"properties":{"_source":"barnet_council","address":"The Old Library, The Concourse, NW9 5XA","title":"Colindale Communities Trust","url":"https://www.barnet.gov.uk/directories/warm-spaces/colindale-communities-trust"},"type":"Feature"},
		{"geometry":{"coordinates":[-0.24564,51.59760],"type":"Point"},"properties":{"_source":"barnet_council","address":"7 Bristol Avenue, Colindale, NW9 4BR","title":"Colindale library","url":"https://www.barnet.gov.uk/directories/warm-spaces/colindale-library"},"type":"Feature"},
		{"geometry":{"coordinates":[-0.19467,51.60020],"type":"Point"},"properties":{"_source":"barnet_council","address":"318 Regents Park Rd, London, N3 2LN","title":"Finchley Church End library","url":"https://www.barnet.gov.uk/directories/warm-spaces/finchley-church-end-library"},"type":"Feature"},
		{"geometry":{"coordinates":[-0.15345,51.61350],"type":"Point"},"properties":{"_source":"barnet_council","address":"Friern Barnet Road, London, N113DS","title":"Friern Barnet Community Library","url":"https://www.barnet.gov.uk/directories/warm-spaces/friern-barnet-community-library"},"type":"Feature"},
		{"geometry":{"coordinates":[-0.21782,51.58960],"type":"Point"},"properties":{"_source":"barnet_council","address":"Finchley Lane, Hendon, NW4 1DJ","title":"Hendon Baptist Church","url":"https://www.barnet.gov.uk/directories/warm-spaces/hendon-baptist-church"},"type":"Feature"},
		{"geometry":{"coordinates":[-0.24443,51.60220],"type":"Point"},"properties":{"_source":"barnet_council","address":"7 The Concourse, London, NW9 5XB","title":"Living Way Ministries","url":"https://www.barnet.gov.uk/directories/warm-spaces/living-way-ministries"},"type":"Feature"},
		{"geometry":{"coordinates":[-0.27488,51.61650],"type":"Point"},"properties":{"_source":"barnet_council","address":"Chartwell House, 292-294 Hale Lane, Edgware, HA8 8NP ","title":"Personal Improvement Limited","url":"https://www.barnet.gov.uk/directories/warm-spaces/personal-improvement-limited"},"type":"Feature"},
		{"geometry":{"coordinates":[-0.27812,51.61180],"type":"Point"},"properties":{"_source":"barnet_council","address":"St Margaretâs Church, 1 Station Road, Edgware, HA8 7JE","title":"St Margaretâs Church - Age UK","url":"https://www.barnet.gov.uk/directories/warm-spaces/st-margarets-church-age-uk"},"type":"Feature"},
		{"geometry":{"coordinates":[-0.19701,51.60050],"type":"Point"},"properties":{"_source":"barnet_council","address":"St Margaret's URC Church, Victoria Avenue, Finchley Central, N3 1BD","title":"St Margaret's URC Church - Age UK","url":"https://www.barnet.gov.uk/directories/warm-spaces/st-margarets-urc-church-age-uk"},"type":"Feature"},
		{"geometry":{"coordinates":[-0.14907,51.60200],"type":"Point"},"properties":{"_source":"barnet_council","address":"St Peterâs Church, Albion Avenue, Friern Barnet, N10 1AQ","title":"St Peterâs Church - Age UK","url":"https://www.barnet.gov.uk/directories/warm-spaces/st-peters-church-age-uk"},"type":"Feature"},
		{"geometry":{"coordinates":[-0.22523,51.61540],"type":"Point"},"properties":{"_source":"barnet_council","address":"The Mount International School, Milespit Hill, Mill Hill, NW7 2RX","title":"The Mount International School - Age UK","url":"https://www.barnet.gov.uk/directories/warm-spaces/mount-international-school-age-uk"},"type":"Feature"},
		{"geometry":{"coordinates":[-0.20090,51.54521],"type":"Point"},"properties":{"_source":"camden_council","address":" 5 Netherwood Street, NW6 2QU (","contact":"Phone: 020 7974 5003; Email: Camdenrise@camden.gov.uk","description":"Netherwood Youth and Family Hub aims to offer a âwarm welcome' provision two days a week. Guests will have access to the kitchen to prepare food, as well as books, board games and a small gym.","hours":"Mo 11:30-15:30; Th 11:30-15:30","title":"Netherwood Youth and Family Hub","url":"https://cindex.camden.gov.uk/kb5/camden/cd/service.page?id=A6tEQsWmxfk"},"type":"Feature"},
		{"geometry":{"coordinates":[-0.12952,51.53118],"type":"Point"},"properties":{"_source":"camden_council","address":"2 Ossulston Street, London NW1 1DF (","contact":"Phone: 020 7380 0453; Email: hello@thelivingcentre.org","description":"Somers Town Community Association and The St Pancras and Somers Town Living Centre is offering a space for local residents to come, keep warm and meet over a hot drink and biscuits. ","title":"Somers Town Community Association","url":"https://www.somerstown.org.uk/"},"type":"Feature"},
		{"geometry":{"coordinates":[-0.13294,51.53278],"type":"Point"},"properties":{"_source":"camden_council","address":"134 Chalton Street, London NW1 1RX (","contact":"Phone: 020 7974 8257; Email: Joanne.peet@camden.gov.uk","description":"Somers Town Youth Centre offers after school and evening sessions for local young people. It will also be adding two sessions a week for adults, including hot drinks, reading materials and activities.","title":"Somers Town Youth Centre","url":"https://cindex.camden.gov.uk/kb5/camden/cd/service.page?id=bHoVoLtHFuA"},"type":"Feature"},
		{"geometry":{"coordinates":[-0.18143,51.54794],"type":"Point"},"properties":{"_source":"camden_council","address":"The Venue Hall (located on level 2), 255 Finchley Road, NW3 6LU (","contact":"Phone: 020 7974 7716; Email: o2security@mitie.com","description":"The O2 Centre is opening its Venue hall as a warm space every Wednesday from 11am to 1pm. WiFi and hot drinks are available, and staff from the Streets Food Project will be on hand to offer support and advice.","hours":"We 11:00-13:00","title":"The O2 Centre","url":"https://o2centre.co.uk/"},"type":"Feature"},
		{"geometry":{"coordinates":[-0.14181,51.52933],"type":"Point"},"properties":{"_source":"camden_council","address":"Cumberland Market, Regent's Park, London NW1 3RH (","contact":"Phone: 020 7383 4922; Email: info@thirdageproject.org.uk","description":"The Third Age Project welcomes local older residents (60 years plus) for hot drinks, refreshments and friendly company. It provides free organised activities within the centre, including cost-price lunch clubs. ","hours":"Mo-Fr 10:00-16:00","title":"Third Age Project ","url":"https://thirdageproject.org.uk/"},"type":"Feature"},
		{"geometry":{"coordinates":[-0.13394,51.53507],"type":"Point"},"properties":{"_source":"camden_council","address":" 7-9 Crowndale Road, Camden NW1 1TU","contact":"Phone: 020 7383 2803; Email: info@britishsomali.org","description":"British Somali Community Centre provides practical and emotional support by staff and volunteers. It provides WiFi, hot drinks, magazines, newspapers and other activities.","hours":"Tu 10:30-16:00","title":"British Somali Community Centre","url":"http://www.britishsomali.org"},"type":"Feature"},
		{"geometry":{"coordinates":[-0.13247,51.54829],"type":"Point"},"properties":{"_source":"camden_council","address":" 17 Busby Place, NW5 2SP","contact":"Phone: 020 7482 3212; Email: info@ktcc.org.uk","description":"Kentish Town Community Centre welcomes residents for a cup of tea or coffee, and encourages you to access services including their film club, arts club, community meals, wellbeing classes and coffee mornings. Please call the centre before coming.","hours":"Tu-Th 10:00-15:00","title":"Kentish Town Community Centre","url":"http://www.ktcc.org.uk"},"type":"Feature"},
		{"geometry":{"coordinates":[-0.11805,51.52149],"type":"Point"},"properties":{"_source":"camden_council","address":" 35 Emerald Street, WC1N 3QW","contact":"Phone: 020 7405 2370; Email: admin@holborncommunity.co.uk","description":"Holborn House Community Centre provides a range of activities for all ages. Most activities are free. Some activity classes may have a fee, but everyone is welcome to visit and make use of the centre's lobby, WiFi, or chat about what's on offer.","title":"Holborn Community Association - Holborn House Community Centre","url":"https://www.holborncommunity.co.uk/"},"type":"Feature"},
		{"geometry":{"coordinates":[-0.11752,51.52307],"type":"Point"},"properties":{"_source":"camden_council","address":" 50 Millman Street, WC1N 3EW","contact":"Phone: 020 7405 2370; Email: admin@holborncommunity.co.uk","description":"Millman Street Community Centre provides care, support and activities for older adults aged 55+. Activities are available for free to people who want to 'drop in' to the centre and make use of the space.","hours":"Mo-Fr 09:00-16:00","title":"Holborn Community Association - Millman Street Community Centre","url":"https://www.holborncommunity.co.uk/"},"type":"Feature"},
		{"geometry":{"coordinates":[-0.15165,51.55024],"type":"Point"},"properties":{"_source":"camden_council","address":"45 Ashdown Crescent, NW5 4QE","contact":"Phone: 020 7267 6635; Email: info@qcca.org.uk","description":"Queens Crescent Community Association offers a wide range of free activities for the whole community, including specialist programmes for 8 to 19 year-olds and the over 55s. A weekly timetable is available on its website - from yoga and Zumba to bingo, health talks and a music studio. There are also tea and coffee mornings, a weekly lunch and a foodbank.<span style=\"font-size: 1rem;\"></span>","hours":"Mo-Fr 10:00-18:00","title":"Queens Crescent Community Association","url":"http://www.qcca.org.uk"},"type":"Feature"},
		{"geometry":{"coordinates":[-0.12241,51.52094],"type":"Point"},"properties":{"_source":"camden_council","address":"44 Queen Square, WC1N 3AH","contact":"Phone: 020 7404 4407; Email: ops@sgtm.org","description":"St George the Martyr offers a free warm space, hot drinks and an art gallery featuring the work of Charlie Mackesy, author of The Boy, The Fox, The Mole and The Horse. ","hours":"Tu-Th 10:00-14:00","title":"St George the Martyr Church","url":"http://sgtm.org/"},"type":"Feature"},
		{"geometry":{"coordinates":[-0.18194,51.54049],"type":"Point"},"properties":{"_source":"camden_council","address":"Alexandra Resource Centre, Opposite 109 Rowley Way, NW8 0SW","contact":"Phone: 0300 365 2003; Email: arc@shakonline.co.uk","description":"A space for young people aged 9 to 19 years old, they offer an after-school club during term time, school holiday activities that include a free meal and a place for young people to relax with friends.","title":"South Hampstead and Kilburn Partnership (SHAK) - The ARC Youth Club","url":"http://www.shakonline.co.uk"},"type":"Feature"},
		{"geometry":{"coordinates":[-0.18343,51.53881],"type":"Point"},"properties":{"_source":"camden_council","address":"Shell 2 - Fielding House, Boundary Road, NW8 0HU","contact":"Phone: 0300 365 2003; Email: shell@shakonline.co.uk","description":"A space that provides advice, support and activities for everyone.","title":"South Hampstead and Kilburn Partnership (SHAK) - Shell Centre 2","url":"http://www.shakonline.co.uk"},"type":"Feature"},
		{"geometry":{"coordinates":[-0.11138,51.52069],"type":"Point"},"properties":{"_source":"camden_council","address":"Allen Hall, Unit 1 Dobson Court, Bourne Estate EC1N 7AA","contact":"Phone: n/a; Email: bourneestate@gmail.com","description":"A space for everyone to get online, watch movies, read and play games, with kitchen facilities to make food and someone on-site to talk to.","hours":"Mo-Fr 09:30-14:00"},"type":"Feature"},
		{"geometry":{"coordinates":[-0.13884,51.52831],"type":"Point"},"properties":{"_source":"camden_council","address":"The Surma Community Centre, 1 Robert Street, NW1 3JU","contact":"Phone: 020 7388 7313; Email: info@bwa-surma.org","description":"A warm space to do activities with free hot drinks and advice available every Wednesday.","hours":"Mo-Fr 00:00-00:00","title":"Bengali Workers Association","url":"http://bwa-surma.org/"},"type":"Feature"},
		{"geometry":{"coordinates":[-0.28762,51.49162],"type":"Point"},"properties":{"_source":"hounslow_council","address":"1a Thomas Layton Way, Underwood House, Brentford, TW8 0SB","description":"Facilities: Hot drinks, Wi-Fi, Seating area, Tables for working or recreation, Books / games / etc, Activities will be offered","hours":"Mo 09:30-13:00","title":"Brentford FC CST (27)"},"type":"Feature"},
		{"geometry":{"coordinates":[-0.33179,51.46741],"type":"Point"},"properties":{"_source":"hounslow_council","address":"Redlees Park, Worton Road Isleworth, TW7 6DW","description":"Facilities: Hot drinks, Wi-Fi, Seating area, Tables for working or recreation, Books / games / etc, Activities will be offered, Cooked / prepared food","hours":"Mo-Su 11:00-23:00","title":"Isleworth Bowls Club (28)"},"type":"Feature"},
		{"geometry":{"coordinates":[-0.33145,51.45813],"type":"Point"},"properties":{"_source":"hounslow_council","address":"The BridgeLink Centre, 373 Summerwood Road, Isleworth, TW7 7QR","description":"Facilities: Hot drinks, Wi-Fi, Seating area, Tables for working or recreation, Books / games / etc, Activities will be offered","hours":"We 09:30-12:00; Fr 09:30-12:00","title":"Ivybridgelink (24)"},"type":"Feature"},
		{"geometry":{"coordinates":[-0.33701,51.48143],"type":"Point"},"properties":{"_source":"hounslow_council","address":"Osterley Sports &amp; Athletics Centre, TW7 5FF","description":"Facilities: Seating area, Tables","hours":"Mo-Fr 10:00-19:00; Sa 10:00-18:00; Su 10:00-18:00","title":"Lampton Leisure (12)"},"type":"Feature"},
		{"geometry":{"coordinates":[-0.30841,51.48676],"type":"Point"},"properties":{"_source":"hounslow_council","address":"Brentford Library, 11F Boston Manor Road, Hounslow TW8 8DW","description":"Facilities: Hot drinks, Wi-Fi, Seating area, Tables for working or recreation, Public Computers, Books, Existing activities already offered by the library","hours":"Mo 09:30-20:00; Tu 09:30-17:30; Th 09:30-20:00; Sa 09:30-17:30","title":"LBH Brentford Library (3)"},"type":"Feature"},
		{"geometry":{"coordinates":[-0.26111,51.49169],"type":"Point"},"properties":{"_source":"hounslow_council","address":"Chiswick Library, 1 Duke&apos;s Avenue, Chiswick W4 2AB","description":"Facilities: Hot drinks, Wi-Fi, Seating area, Tables for working or recreation, Public Computers, Books, Existing activities already offered by the library","hours":"Mo 09:30-20:00; Tu 09:30-17:30; We 09:30-17:30; Th 09:30-20:00; Fr 09:30-17:30; Sa 09:30-17:30","title":"LBH Chiswick Library (4)"},"type":"Feature"},
		{"geometry":{"coordinates":[-0.33050,51.46664],"type":"Point"},"properties":{"_source":"hounslow_council","address":"Isleworth Library, Twickenham Road, Isleworth TW7 7EU","description":"Facilities: Hot drinks, Wi-Fi, Seating area, Tables for working or recreation, Public Computers, Books, Existing activities already offered by the library","hours":"Mo 09:30-20:00; Tu 09:30-17:30; Th 09:30-20:00; Sa 09:30-17:30","title":"LBH Isleworth Library (11)"},"type":"Feature"},
		{"geometry":{"coordinates":[-0.34645,51.48236],"type":"Point"},"properties":{"_source":"hounslow_council","address":"Osterley Library, 11 St Mary&apos;s Crescent, Isleworth TW7 4NB","description":"Facilities: Hot drinks, Wi-Fi, Seating area, Tables for working or recreation, Public Computers, Books, Existing activities already offered by the library","hours":"Mo 09:30-20:00; Tu 09:30-17:30; Th 09:30-20:00; Sa 09:30-17:30","title":"LBH Osterley Library (8)"},"type":"Feature"},
		{"geometry":{"coordinates":[-0.28993,51.48952],"type":"Point"},"properties":{"_source":"hounslow_council","address":"Green Dragon LaneBrentford TW8 0EN","description":"Facilities: Hot drinks, Wi-Fi, Seating area, Tables for working or recreation, Books / games / etc, Activities will be offered","hours":"Th-Su 10:00-16:00","title":"London Museum of Water and Steam (30)"},"type":"Feature"},
		{"geometry":{"coordinates":[-0.17255,51.51485],"type":"Point"},"properties":{"_source":"hounslow_council","address":"Dukes Meadow Community Centre, Alexandra Gardens, Chiswick, W2 2RY","description":"Facilities: Hot drinks, Wi-Fi, Seating area, Tables for working or recreation, Books / games / etc, Activities will be offered, Cooked / prepared food","title":"Riana (14)"},"type":"Feature"},
		{"geometry":{"coordinates":[-0.26997,51.48746],"type":"Point"},"properties":{"_source":"hounslow_council","address":"Elmswood Road, Chiswick,W4 3DZ","description":"Facilities: Hot drinks, Wi-Fi, Seating area, Tables for working or recreation, Toys and games for children","hours":"Tu 14:00-17:00; We 14:00-17:00; Th 10:00-15:00","title":"St Michaels Church (17)"},"type":"Feature"},
		{"geometry":{"coordinates":[-0.25103,51.48617],"type":"Point"},"properties":{"_source":"hounslow_council","address":"Church Lane, Chiswick,W4 2PH","description":"Facilities: Hot drinks, Wi-Fi, Seating area, Tables for working or recreation, Books / games / etc, Cooked / prepared food, Collecting donations","hours":"We 10:00-17:00","title":"St Nicholas Church (16)"},"type":"Feature"},
		{"geometry":{"coordinates":[-0.30596,51.48488],"type":"Point"},"properties":{"_source":"hounslow_council","address":"St Paul&apos;s Road, Brentford, TW8 0PN","description":"Facilities: Hot drinks, Wi-Fi, Seating area, Tables for working or recreation, ACCESSIBLE TOILETS/CHARGING FACILITIES / CHILD FRIENDLY","hours":"Tu-Sa 08:30-15:30","title":"St Pauls Church (31)"},"type":"Feature"},
		{"geometry":{"coordinates":[-0.10740,51.52556],"type":"Point"},"properties":{"_source":"islington_council","address":"EC1R 0HU","title":"The Peel, Three Corners Centre","url":"https://findyour.islington.gov.uk/kb5/islington/directory/service.page?id=cnJWskBkuTw"},"type":"Feature"},
		{"geometry":{"coordinates":[-0.10355,51.52316],"type":"Point"},"properties":{"_source":"islington_council","address":"EC1V 4JJ","title":"Museum Of The Order Of Saint John","url":"https://findyour.islington.gov.uk/kb5/islington/directory/service.page?id=177tGBDEZy0"},"type":"Feature"},
		{"geometry":{"coordinates":[-0.10455,51.52648],"type":"Point"},"properties":{"_source":"islington_council","address":"EC1V 4NB","title":"Finsbury Library","url":"https://www.islington.gov.uk/libraries-arts-and-heritage/libraries/your-local-libraries/finsbury-library"},"type":"Feature"},
		{"geometry":{"coordinates":[-0.09666,51.52740],"type":"Point"},"properties":{"_source":"islington_council","address":"EC1V 8AJ","title":"St Lukeâs Community Centre","url":"https://findyour.islington.gov.uk/kb5/islington/directory/service.page?id=Z1RulyRjPck"},"type":"Feature"},
		{"geometry":{"coordinates":[-0.09759,51.52778],"type":"Point"},"properties":{"_source":"islington_council","address":"EC1V 8DA","title":"St Clementâs Church","url":"https://findyour.islington.gov.uk/kb5/islington/directory/service.page?id=eTQEbwTQRdg"},"type":"Feature"},
		{"geometry":{"coordinates":[-0.09276,51.52530],"type":"Point"},"properties":{"_source":"islington_council","address":"EC1V 9NH","title":"Vibast Community Centre","url":"https://findyour.islington.gov.uk/kb5/islington/directory/service.page?id=I4TU0bbG1iQ&amp;communitychannelnew=15"},"type":"Feature"},
		{"geometry":{"coordinates":[-0.08709,51.52383],"type":"Point"},"properties":{"_source":"islington_council","address":"EC1Y 1AU","title":"Wesley&apos;s Chapel and Leysian Mission","url":"https://findyour.islington.gov.uk/kb5/islington/directory/service.page?id=iWU4Pa2q8sg"},"type":"Feature"},
		{"geometry":{"coordinates":[-0.13224,51.54375],"type":"Point"},"properties":{"_source":"islington_council","address":"NW1 9XB","title":"London Irish Centre","url":"https://findyour.islington.gov.uk/kb5/islington/directory/service.page?id=g8ZiCCfGu1E"},"type":"Feature"},
		{"geometry":{"coordinates":[-0.11786,51.54065],"type":"Point"},"properties":{"_source":"islington_council","address":"N1 0DX","title":"Jean Stokes Community Centre","url":"https://findyour.islington.gov.uk/kb5/islington/directory/service.page?id=dudx6pDbkEY"},"type":"Feature"},
		{"geometry":{"coordinates":[-0.11655,51.54074],"type":"Point"},"properties":{"_source":"islington_council","address":"N1 1BD","title":"West Library","url":"/libraries-arts-and-heritage/libraries/your-local-libraries/west-library"},"type":"Feature"},
		{"geometry":{"coordinates":[-0.09890,51.53894],"type":"Point"},"properties":{"_source":"islington_council","address":"N1 2SL","title":"South Library","url":"/libraries-arts-and-heritage/libraries/your-local-libraries/south-library"},"type":"Feature"},
		{"geometry":{"coordinates":[-0.10201,51.53840],"type":"Point"},"properties":{"_source":"islington_council","address":"N1 2TX","title":"St Maryâs Church","url":"https://findyour.islington.gov.uk/kb5/islington/directory/service.page?id=Bgc4FGIf7m0&amp;communitychannelnew=15"},"type":"Feature"},
		{"geometry":{"coordinates":[-0.08232,51.54664],"type":"Point"},"properties":{"_source":"islington_council","address":"N1 4AG","title":"Our Lady &amp; St Josephâs Church","url":"https://findyour.islington.gov.uk/kb5/islington/directory/service.page?id=vcbF9DnKG8k&amp;communitychannelnew=15"},"type":"Feature"},
		{"geometry":{"coordinates":[-0.08445,51.54811],"type":"Point"},"properties":{"_source":"islington_council","address":"N1 4NA","title":"Mildmay Library","url":"/libraries-arts-and-heritage/libraries/your-local-libraries/mildmay-library"},"type":"Feature"},
		{"geometry":{"coordinates":[-0.08172,51.54895],"type":"Point"},"properties":{"_source":"islington_council","address":"N1 4PL","title":"St Jude and St Paul&apos;s Church","url":"https://findyour.islington.gov.uk/kb5/islington/directory/service.page?id=Fr972G8P4_g&amp;communitychannelnew=15"},"type":"Feature"},
		{"geometry":{"coordinates":[-0.09554,51.53613],"type":"Point"},"properties":{"_source":"islington_council","address":"N1 7DF","title":"The Arc","url":"https://findyour.islington.gov.uk/kb5/islington/directory/service.page?id=LrjEm2yIKc0&amp;communitychannelnew=15"},"type":"Feature"},
		{"geometry":{"coordinates":[-0.10076,51.53655],"type":"Point"},"properties":{"_source":"islington_council","address":"N1 8HX","title":"Chabad Islington Jewish Community Centre and Art Gallery","url":"https://findyour.islington.gov.uk/kb5/islington/directory/service.page?id=KxViIBM5oD4"},"type":"Feature"},
		{"geometry":{"coordinates":[-0.10778,51.53262],"type":"Point"},"properties":{"_source":"islington_council","address":"N1 9PD","title":"Claremont","url":"https://findyour.islington.gov.uk/kb5/islington/directory/service.page?id=gGholuYR3dk"},"type":"Feature"},
		{"geometry":{"coordinates":[-0.10299,51.56362],"type":"Point"},"properties":{"_source":"islington_council","address":"N4 2DW","title":"N4 Library","url":"/libraries-arts-and-heritage/libraries/your-local-libraries/n4-library"},"type":"Feature"},
		{"geometry":{"coordinates":[-0.11865,51.57217],"type":"Point"},"properties":{"_source":"islington_council","address":"N4 4BY","title":"Brickworks Community Centre","url":"https://findyour.islington.gov.uk/kb5/islington/directory/service.page?id=UZY7-wdy_ko&amp;communitychannelnew=15"},"type":"Feature"},
		{"geometry":{"coordinates":[-0.09911,51.55970],"type":"Point"},"properties":{"_source":"islington_council","address":"N5 1ED","title":"Elizabeth House Community Centre","url":"https://findyour.islington.gov.uk/kb5/islington/directory/service.page?id=dOw7mbWckKE&amp;communitychannelnew=15"},"type":"Feature"},
		{"geometry":{"coordinates":[-0.10715,51.54923],"type":"Point"},"properties":{"_source":"islington_council","address":"N5 1PF","title":"Central Library","url":"https://directory.islington.gov.uk/kb5/islington/directory/service.page?id=IUVtB6bQAWU"},"type":"Feature"},
		{"geometry":{"coordinates":[-0.10049,51.55048],"type":"Point"},"properties":{"_source":"islington_council","address":"N5 1QL","title":"Highbury Baptist Church","url":"https://findyour.islington.gov.uk/kb5/islington/directory/service.page?id=ULkOSSQeoE0"},"type":"Feature"},
		{"geometry":{"coordinates":[-0.09856,51.55222],"type":"Point"},"properties":{"_source":"islington_council","address":"N5 1SA","title":"Christ Church Highbury","url":"https://findyour.islington.gov.uk/kb5/islington/directory/service.page?id=zZOPHiVR4h4"},"type":"Feature"},
		{"geometry":{"coordinates":[-0.09388,51.55712],"type":"Point"},"properties":{"_source":"islington_council","address":"N5 2UT","title":"Highbury Roundhouse at Sotheby Mews Centre","url":"https://findyour.islington.gov.uk/kb5/islington/directory/service.page?id=I0C8est8PNc"},"type":"Feature"},
		{"geometry":{"coordinates":[-0.12939,51.55241],"type":"Point"},"properties":{"_source":"islington_council","address":"N7 0JE","title":"Hilldrop Community Centre","url":"https://findyour.islington.gov.uk/kb5/islington/directory/service.page?id=HZizAjX_cm4&amp;communitychannelnew=15"},"type":"Feature"},
		{"geometry":{"coordinates":[-0.12507,51.55271],"type":"Point"},"properties":{"_source":"islington_council","address":"N7 0JN","title":"Cat and Mouse Library","url":"/libraries-arts-and-heritage/libraries/your-local-libraries/cat-and-mouse-library"},"type":"Feature"},
		{"geometry":{"coordinates":[-0.12528,51.55627],"type":"Point"},"properties":{"_source":"islington_council","address":"N7 0ND","title":"St George and All Saints Tufnell Park","url":"https://findyour.islington.gov.uk/kb5/islington/directory/service.page?id=GiCNsQclFeU&amp;communitychannelnew=15"},"type":"Feature"},
		{"geometry":{"coordinates":[-0.12195,51.56034],"type":"Point"},"properties":{"_source":"islington_council","address":"N7 6JX","title":"North Library","url":"/libraries-arts-and-heritage/libraries/your-local-libraries/north-library"},"type":"Feature"},
		{"geometry":{"coordinates":[-0.12074,51.56110],"type":"Point"},"properties":{"_source":"islington_council","address":"N7 6LA","title":"Manor Gardens Welfare Trust","url":"https://findyour.islington.gov.uk/kb5/islington/directory/service.page?id=EUvEQv3JZys&amp;communitychannelnew=15"},"type":"Feature"},
		{"geometry":{"coordinates":[-0.11697,51.55873],"type":"Point"},"properties":{"_source":"islington_council","address":"N7 6QT","title":"Holloway Neighbourhood Group","url":"https://findyour.islington.gov.uk/kb5/islington/directory/service.page?id=d8AkLfBE-Lw&amp;communitychannelnew=15"},"type":"Feature"},
		{"geometry":{"coordinates":[-0.11312,51.56330],"type":"Point"},"properties":{"_source":"islington_council","address":"N7 7RY","title":"Andover Community Centre","url":"/advice/voluntary-and-community-sector/andover-estate-community-centre"},"type":"Feature"},
		{"geometry":{"coordinates":[-0.11615,51.54847],"type":"Point"},"properties":{"_source":"islington_council","address":"N7 8DE","title":"Light Project Pro International","url":"https://findyour.islington.gov.uk/kb5/islington/directory/service.page?id=8VV0dSIrSi4"},"type":"Feature"},
		{"geometry":{"coordinates":[-0.12544,51.54825],"type":"Point"},"properties":{"_source":"islington_council","address":"N7 9EW","title":"Goodinge Community Centre","url":"https://findyour.islington.gov.uk/kb5/islington/directory/service.page?id=72osdKPEtFg&amp;communitychannelnew=15"},"type":"Feature"},
		{"geometry":{"coordinates":[-0.08122,51.55081],"type":"Point"},"properties":{"_source":"islington_council","address":"N16 8NA","title":"Mildmay Community Centre","url":"https://findyour.islington.gov.uk/kb5/islington/directory/service.page?id=VemG2_zmfLA&amp;communitychannelnew=15"},"type":"Feature"},
		{"geometry":{"coordinates":[-0.12328,51.57112],"type":"Point"},"properties":{"_source":"islington_council","address":"N19 3AD","title":"St Maryâs Hornsey Rise","url":"https://findyour.islington.gov.uk/kb5/islington/directory/service.page?id=43yXsjAJ1C4&amp;communitychannelnew=15"},"type":"Feature"},
		{"geometry":{"coordinates":[-0.12906,51.56998],"type":"Point"},"properties":{"_source":"islington_council","address":"N19 3RQ","title":"Caxton House Community Centre","url":"https://findyour.islington.gov.uk/kb5/islington/directory/service.page?id=8WFQw6BlyDA&amp;communitychannelnew=15"},"type":"Feature"},
		{"geometry":{"coordinates":[-0.13219,51.57276],"type":"Point"},"properties":{"_source":"islington_council","address":"N19 3YJ","title":"Hornsey Lane Estate Community Centre","url":"https://findyour.islington.gov.uk/kb5/islington/directory/service.page?id=BIVpsGqRQM8&amp;communitychannelnew=15"},"type":"Feature"},
		{"geometry":{"coordinates":[-0.12963,51.56113],"type":"Point"},"properties":{"_source":"islington_council","address":"N19 4RS","title":"Whittington Park Community Centre","url":"https://findyour.islington.gov.uk/kb5/islington/directory/service.page?id=iPR-dUvPhRM&amp;communitychannelnew=15"},"type":"Feature"},
		{"geometry":{"coordinates":[-0.13563,51.56567],"type":"Point"},"properties":{"_source":"islington_council","address":"N19 5PH","title":"Archway Library","url":"/libraries-arts-and-heritage/libraries/your-local-libraries/archway-library"},"type":"Feature"},
		{"geometry":{"coordinates":[-0.10168,51.50125],"type":"Point"},"properties":{"_source":"southwalk_council","address":"1 Rushworth Street, SE1 0RB (<a href=\"https://goo.gl/maps/g2rNzireF7gbJmnA7\">find on Google Maps</a>)<br> 020 7928 9521<br> <a href=\"https://www.blackfriars-settlement.org.uk/\">Visit the Blackfriars Settlement website</a>","hours":"Mo 14:00-17:00; Tu 09:30-14:00; We 09:30-13:00; Th 09:30-16:00","title":"Blackfriars Settlement"},"type":"Feature"},
		{"geometry":{"coordinates":[-0.04648,51.49505],"type":"Point"},"properties":{"_source":"southwalk_council","address":"T&amp;T, Surrey Quays Shopping Centre, Redriff Road, SE16 7NB (<a href=\"https://goo.gl/maps/mokmYhXJsbEDVjFJ7\">find on Google Maps</a>)<br> <a href=\"mailto:info@timeandtalents.org.uk\">Email Time and Talents</a> or <a href=\"https://www.timeandtalents.org.uk/\">visit the Time and Talents website</a>.</p><p>Hot drinks, games, puzzles and reading materials will be on offer along with information about staying warm, energy bills, grants and more. Scarves, hats and slipper socks are also free for participants to take away as needed.","hours":"Mo 10:30-12:30; We 13:00-15:00","title":"Time and Talents"},"type":"Feature"},
		{"geometry":{"coordinates":[-0.07042,51.49287],"type":"Point"},"properties":{"_source":"southwalk_council","address":"Healthy Living and Learning Service, 95 Southwark Park Road, Bermondsey SE16 3TY (<a href=\"https://goo.gl/maps/VHdxjHFaDG5ASc3HA\">find on Google Maps</a>)<br> 020 7237 0860","hours":"Mo-Fr 09:00-17:00","title":"Age UK Yalding Road"},"type":"Feature"},
		{"geometry":{"coordinates":[-0.05991,51.49645],"type":"Point"},"properties":{"_source":"southwalk_council","address":"4-5 Gataker House Slippers Place, Bermondsey SE16 2EN (<a href=\"https://goo.gl/maps/3KUamfGzhutJhLbL6\">find on Google Maps</a>)<br> <a href=\"mailto:kathy.heather@icloud.com\">Email Love North Southwark</a>","title":"Love North Southwark"},"type":"Feature"},
		{"geometry":{"coordinates":[-0.09894,51.49956],"type":"Point"},"properties":{"_source":"southwalk_council","address":"11 Scovell Road, SE1 1QQ (<a href=\"https://goo.gl/maps/2WR4yGGSGPYbibr39\">find on Google Maps</a>)<br> 07495722523","hours":"Sa 11:30-16:30","title":"London Senior Social"},"type":"Feature"},
		{"geometry":{"coordinates":[-0.10477,51.49686],"type":"Point"},"properties":{"_source":"southwalk_council","address":"St Jude&#39;s Centre, Colnbrook Street, SE1 6EZ (<a href=\"https://goo.gl/maps/Rh5PxzuXNqNzkddQA\">find on Google Maps</a>)<br> <a href=\"mailto:stjudescentre@gmail.com \">Email St Jude&#39;s Centre </a>or call 020 8928 0606","hours":"Mo-Th 00:00-00:00","title":"St Jude&#39;s"},"type":"Feature"},
		{"geometry":{"coordinates":[-0.06396,51.49273],"type":"Point"},"properties":{"_source":"southwalk_council","address":"Market Place, SE16 3UQ (<a href=\"https://goo.gl/maps/LaQfyJhnjJDV8CqDA\">find on Google Maps</a>)<br> <a href=\"mailto:southwark.libraries@southwark.gov.uk\">Email Southwark Libraries</a> or <a href=\"https://www.southwark.gov.uk/libraries/find-a-library?chapter=2\">find out more about Southwark Libraries</a>.","hours":"Mo 09:00-19:00; Tu 09:00-19:00; Th 09:00-19:00; Fr 10:00-18:00; Sa 09:00-17:00","title":"Blue Anchor Library"},"type":"Feature"},
		{"geometry":{"coordinates":[-0.04918,51.49780],"type":"Point"},"properties":{"_source":"southwalk_council","address":"21 Surrey Quays Rd, SE16 7AR (<a href=\"https://goo.gl/maps/bej37P75kjB3H2Pt6\">find on Google Maps</a>)<br> <a href=\"mailto:southwark.libraries@southwark.gov.uk\">Email Southwark Libraries</a> or <a href=\"https://www.southwark.gov.uk/libraries/find-a-library?chapter=2\">find out more about Southwark Libraries</a>.","hours":"Mo 08:00-20:00; Tu 08:00-20:00; We 08:00-20:00; Th 08:00-20:00; Fr 08:00-20:00; Sa 09:00-17:00; Su 12:00-16:00","title":"Canada Water Library"},"type":"Feature"},
		{"geometry":{"coordinates":[-0.09239,51.50169],"type":"Point"},"properties":{"_source":"southwalk_council","address":"211 Borough High St, SE1 1JA (<a href=\"https://goo.gl/maps/bej37P75kjB3H2Pt6\">find on Google Maps</a>)<br> <a href=\"mailto:southwark.libraries@southwark.gov.uk\">Email Southwark Libraries</a> or <a href=\"https://www.southwark.gov.uk/libraries/find-a-library?chapter=2\">find out more about Southwark Libraries</a>.","hours":"Mo 09:00-19:00; Tu 09:00-19:00; We 09:00-19:00; Th 09:00-19:00; Fr 09:00-19:00; Sa 09:00-17:00","title":"John Harvard Library"},"type":"Feature"},
		{"geometry":{"coordinates":[-0.09939,51.50761],"type":"Point"},"properties":{"_source":"southwalk_council","address":"Tate Modern Bankside, SE1 9TG (<a href=\"https://goo.gl/maps/amivyBDsqTQepQWE8\">find on Google Maps</a>)<br> <a href=\"http://www.tate.org.uk/visit/tate-modern\">Visit the Tate Modern website</a>, <a href=\"mailto:hello@tate.org.uk\">email Tate Modern</a> or call 020 7887 8888","hours":"Mo-Su 10:00-18:00","title":"Tate Modern"},"type":"Feature"},
		{"geometry":{"coordinates":[-0.09351,51.47593],"type":"Point"},"properties":{"_source":"southwalk_council","address":"Southwark Pensioners Centre, 305-307 Camberwell Rd, SE5 0HQ (<a href=\"https://goo.gl/maps/R8URaurkXqWVijrQ9\">find on Google Maps</a>)<br> 020 7708 4556","hours":"Sa 10:00-16:00","title":"Southwark Pensioners"},"type":"Feature"},
		{"geometry":{"coordinates":[-0.07730,51.46624],"type":"Point"},"properties":{"_source":"southwalk_council","address":"Copleston Centre, Copleston Road, Peckham SE15 4AN (<a href=\"https://goo.gl/maps/HD8SwD2UmwC2XoWj7\">find on Google Maps</a>)<br> 020 7732 3435<br> <a href=\"https://coplestoncentre.org.uk/\">Visit the Coplestone Centre website</a>.","hours":"Mo 12:00-14:00","title":"Copleston Centre"},"type":"Feature"},
		{"geometry":{"coordinates":[-0.09465,51.48350],"type":"Point"},"properties":{"_source":"southwalk_council","address":"3rd Floor, Walworth Methodist Church, 54 Camberwell Road, SE5 0EN (<a href=\"https://goo.gl/maps/jNfmiRcFz8DqBRnM7\">find on Google Maps</a>)","title":"Southwark Carers"},"type":"Feature"},
		{"geometry":{"coordinates":[-0.06536,51.47333],"type":"Point"},"properties":{"_source":"southwalk_council","address":"1 Clayton Rd, SE15 5JA (<a href=\"https://g.page/princeofpeckham?share\">find on Google Maps</a>)","title":"Prince of Peckham"},"type":"Feature"},
		{"geometry":{"coordinates":[-0.07326,51.47035],"type":"Point"},"properties":{"_source":"southwalk_council","address":"86-88 Bellenden Road, Peckham SE15 4RQ (<a href=\"https://goo.gl/maps/LjsaYJUqf3pdrMur5\">find on Google Maps</a>)<br> 0207 358 9502<br> <a href=\"mailto:elimhousecas@gmail.com\">Email Elimhouse</a> or <a href=\"http://www.elimhousedaycentre.com\">visit the Elimhouse website</a>.","hours":"We 11:00-17:00","title":"Elimhouse"},"type":"Feature"},
		{"geometry":{"coordinates":[-0.05928,51.47798],"type":"Point"},"properties":{"_source":"southwalk_council","address":"12b Asylum Road, SE15 2RL (<a href=\"https://goo.gl/maps/cbYsahasQwCKzwvL7\">find on Google Maps</a>)<br> <a href=\"mailto:angelo@covo.org.uk\">Email COVO Connecting</a> or <a href=\"http://covo.org.uk/\">visit the COVO Connecting website</a>.</p><p>People can come along on their own, or with a friend every Wednesday between 2pm and 4pm to take part in the wellbeing sessions such us making music, using iPads, physical exercises, mindfulness and cooking workshops</p><h3><a id=\"camberwell-library\" name=\"camberwell-library\"></a><br> Camberwell Library</h3><p>48 Camberwell Green, SE5 7AL (<a href=\"https://goo.gl/maps/9QV4SCFZveWq8Hbd9\">find on Google Maps</a>)<br> <a href=\"mailto:southwark.libraries@southwark.gov.uk\">Email Southwark Libraries</a> or <a href=\"https://www.southwark.gov.uk/libraries/find-a-library?chapter=2\">find out more about Southwark Libraries</a>.","hours":"Mo 09:00-20:00; Tu 09:00-20:00; We 09:00-20:00; Th 09:00-20:00; Fr 09:00-20:00; Sa 09:00-17:00; Su 12:00-16:00","title":"COVO Connecting"},"type":"Feature"},
		{"geometry":{"coordinates":[-0.08109,51.47409],"type":"Point"},"properties":{"_source":"southwalk_council","address":"65 Peckham Road &amp; 82 Peckham Road SE5 8UH (<a href=\"https://goo.gl/maps/9ABxsHNQA99CgBWFA\">find on Google Maps</a>)<br> <a href=\"mailto:mail@southlondongallery.org\">Email South London Gallery</a>, <a href=\"https://www.southlondongallery.org/\">visit the South London Gallery website</a> or call 020 7703 6120.","hours":"Tu-Su 11:00-18:00","title":"South London Gallery"},"type":"Feature"},
		{"geometry":{"coordinates":[-0.07796,51.45887],"type":"Point"},"properties":{"_source":"southwalk_council","address":"United Reformed Church, Tell Grove, SE22 8RH (<a href=\"https://goo.gl/maps/azUmwqqkMeTU1UYZ6\">find on Google Maps</a>)<br> <a href=\"mailto:info@linkagesouthwark.org\">Email Link Age Southwark</a> or call 020 8299 2623","hours":"Fr 13:00-15:00","title":"Link Age Southwark"},"type":"Feature"},
		{"geometry":{"coordinates":[-0.07327,51.44961],"type":"Point"},"properties":{"_source":"southwalk_council","address":"Christ Church, 263 Barry Road, Dulwich, SE22 0JT (<a href=\"https://goo.gl/maps/t7mPxzskyLFN2h7j6\">find on Google Maps</a>)<br> <a href=\"mailto:christchurched.lcl@yahoo.com\">Email Christ Church for details </a></p><h3><a id=\"lordship-lane-church\" name=\"lordship-lane-church\"></a><br> Lordship Lane Church</h3><p>287, Lordship Lane, East Dulwich, SE22 8JG (<a href=\"https://goo.gl/maps/kBrr4bcsPwnVqdRP9\">find on Google Maps</a>)<br> <a href=\"https://lordshiplanebaptistchurch.weebly.com/\">Visit the Lordship Lane Baptist Church website</a>.","title":"Christ Church"},"type":"Feature"},
		{"geometry":{"coordinates":[-0.05956,51.46502],"type":"Point"},"properties":{"_source":"southwalk_council","address":"Nunhead Community Centre, 5 Nunhead Green, SE15 3QQ (<a href=\"http://goo.gl/maps/pGdBKFJRVukTimgcA\">find on Google Maps</a>)<br> <a href=\"mailto:southwarkandlambeth@alzheimers.org.uk\">Email Daffodil Caf&eacute;</a> or call 020 7735 5850","hours":"Mo 11:00-13:00","title":""},"type":"Feature"},
		{"geometry":{"coordinates":[-0.05956,51.46502],"type":"Point"},"properties":{"_source":"southwalk_council","address":"5 Nunhead Green, Nunhead, SE15 3QQ (<a href=\"https://goo.gl/maps/pGdBKFJRVukTimgcA\">find on Google Maps</a>)<br> <a href=\"http://www.thegreennunhead.org/\">Visit the Green Nunhead website.</a>","hours":"Th 10:00-14:30","title":"Ivy Club (Green Nunhead)"},"type":"Feature"},
		{"geometry":{"coordinates":[-0.07458,51.44880],"type":"Point"},"properties":{"_source":"southwalk_council","address":"368 Lordship Lane, SE22 8NB (<a href=\"https://goo.gl/maps/hdyf6nipj3B8Db9P6\">find on Google Maps</a>)<br> <a href=\"mailto:southwark.libraries@southwark.gov.uk\">Email Southwark Libraries</a> or <a href=\"https://www.southwark.gov.uk/libraries/find-a-library?chapter=2\">find out more about Southwark Libraries</a>.","hours":"Mo 09:00-20:00; Tu 10:00-20:00; We 09:00-20:00; Th 09:00-20:00; Fr 09:00-20:00; Sa 09:00-17:00; Su 12:00-16:00","title":"Dulwich Library"},"type":"Feature"},
		{"geometry":{"coordinates":[-0.08002,51.46146],"type":"Point"},"properties":{"_source":"southwalk_council","address":"18-22 Grove Vale, London SE22 8EF (<a href=\"https://goo.gl/maps/y7fHvDQeVBGagkULA\">find on Google Maps</a>)<br> <a href=\"mailto:southwark.libraries@southwark.gov.uk\">Email Southwark Libraries</a> or <a href=\"https://www.southwark.gov.uk/libraries/find-a-library?chapter=2\">find out more about Southwark Libraries</a>.","hours":"Mo 10:00-19:00; Tu 10:00-19:00; Th 10:00-19:00; Fr 10:00-15:00; Sa 10:00-17:00","title":"Grove Vale Library"},"type":"Feature"},
		{"geometry":{"coordinates":[-0.05985,51.46597],"type":"Point"},"properties":{"_source":"southwalk_council","address":"88-138 Gordon Rd, SE15 3RB (<a href=\"https://goo.gl/maps/VAzHUZjJ3WbTsp4w9\">find on Google Maps</a>)<br> <a href=\"mailto:southwark.libraries@southwark.gov.uk\">Email Southwark Libraries</a> or <a href=\"https://www.southwark.gov.uk/libraries/find-a-library?chapter=2\">find out more about Southwark Libraries</a>.","hours":"Mo 14:00-19:00; Tu 14:00-19:00; We 10:00-15:00; Th 14:00-19:00; Fr 10:00-15:00; Sa 10:00-17:00","title":"Nunhead Library"},"type":"Feature"},
		{"geometry":{"coordinates":[-0.08091,51.48967],"type":"Point"},"properties":{"_source":"southwalk_council","address":"Walworth Living Room, All Saints Hall, Surrey Square, SE17 2JU (<a href=\"https://goo.gl/maps/JQ2xNZEP5Jfy1MAq9\">find on Google Maps</a>)<br> <a href=\"http://info@pembrokehouse.org.uk\">Email Pembroke House</a> or call 020 7703 3803","hours":"Th 10:00-15:00; Fr 10:00-15:00","title":"Walworth Living Room (Pembroke House)"},"type":"Feature"},
		{"geometry":{"coordinates":[-0.10114,51.49156],"type":"Point"},"properties":{"_source":"southwalk_council","address":"Draper Hall, Hampton Street, SE17 3AN (<a href=\"https://goo.gl/maps/CKXMhvTksAXzcZRP6\">find on Google Maps</a>)<br> <a href=\"mailto:info@drapertogether.org\">Email Draper Hall </a>or <a href=\"https://www.drapertogether.org/\">visit the Draper Hall website</a>","hours":"We 10:00-15:00","title":"Draper Hall"},"type":"Feature"},
		{"geometry":{"coordinates":[-0.10114,51.49156],"type":"Point"},"properties":{"_source":"southwalk_council","address":"Draper Hall, Hampton Street, SE17 3AN (<a href=\"https://goo.gl/maps/CKXMhvTksAXzcZRP6\">find on Google Maps</a>)<br> <a href=\"mailto:info@mentalfightclub.art\">Email Mental Fight Club</a> or <a href=\"https://www.dragoncafe.co.uk/\">visit the Dragon Caf&eacute; website to find out more about Mental Fight Club</a>.</p><h4>Opening times</h4><ul> <li>21 November 2022 (12 noon onwards)</li> <li>12 December 2022 (12 noon onwards)</li> <li>19 December 2022 (12 noon onwards)</li> </ul><p>The Dragon Caf&eacute; brings people together to join in creative activities such as creative writing sessions, a singing group, poetry, drawing, mindful meditation, and a dance group. The emphasis of these activities is always to have fun and to feel connected to other members of the community. These events also provide much needed connection with peers and an opportunity to socialise and will provide free food for those who attend. </p><h3><a id=\"british-legion\" name=\"british-legion\"></a><br> British Legion</h3><p>34 Gaza St, SE17 3RD (<a href=\"https://goo.gl/maps/2tKEJSXb2R8UjcMo7\">find on Google Maps</a>)<br> 020 7582 8662","hours":"Mo 10:00-16:00; Th 10:00-16:00","title":"Mental Fight Club"},"type":"Feature"},
		{"geometry":{"coordinates":[-0.09465,51.48350],"type":"Point"},"properties":{"_source":"southwalk_council","address":"Walworth Methodist Church Hall, 54 Camberwell Road SE5 0EN (<a href=\"https://goo.gl/maps/jNfmiRcFz8DqBRnM7\">find on Google Maps</a>)<br> 07306 187476","hours":"Tu 10:00-15:00","title":"Golden Oldies"},"type":"Feature"},
		{"geometry":{"coordinates":[-0.09725,51.49146],"type":"Point"},"properties":{"_source":"southwalk_council","address":"147 Walworth Rd, SE17 1RW (<a href=\"https://goo.gl/maps/PsvA1yxSaFPFCYhm6\">find on Google Maps</a>)<br> <a href=\"mailto:southwark.libraries@southwark.gov.uk\">Email Southwark Libraries</a> or <a href=\"https://www.southwark.gov.uk/libraries/find-a-library?chapter=2\">find out more about Southwark Libraries</a>.","hours":"Mo 10:00-20:00; Tu 10:00-20:00; We 10:00-20:00; Th 10:00-20:00; Fr 10:00-20:00; Sa 10:00-17:00; Su 12:00-16:00","title":"Southwark Heritage Centre and Walworth Library"},"type":"Feature"},
		{"geometry":{"coordinates":[-0.10305,51.48266],"type":"Point"},"properties":{"_source":"southwalk_council","address":"Maddock Way, SE17 3NH (<a href=\"https://goo.gl/maps/3nEUBLJtx5ujv13Q8\">find on Google Maps</a>)<br> <a href=\"mailto:southwark.libraries@southwark.gov.uk\">Email Southwark Libraries</a> or <a href=\"https://www.southwark.gov.uk/libraries/find-a-library?chapter=2\">find out more about Southwark Libraries</a>.","hours":"Mo 14:00-19:00; Tu 14:00-19:00; Th 14:00-19:00; Fr 10:00-15:00; Sa 10:00-17:00","title":"Brandon Library"},"type":"Feature"},
		{"geometry":{"coordinates":[-0.15433,51.44544],"type":"Point"},"properties":{"_source":"wandsworth_council","address":"16 Ramsden Road,Â London, SW12 8QY","description":"Open to all.","title":"Balham Library"},"type":"Feature"},
		{"geometry":{"coordinates":[-0.15685,51.44168],"type":"Point"},"properties":{"_source":"wandsworth_council","address":"Rowfant Road, London, SW17 7AP","description":"Open to all. Run by Vineyard 61 Church.","hours":"Mo 11:00-14:00","title":"St Marks Church Hall"},"type":"Feature"},
		{"geometry":{"coordinates":[-0.16413,51.46410],"type":"Point"},"properties":{"_source":"wandsworth_council","address":"265 Lavender Hill,Â LondonÂ SW11 1JB","description":"Open to all.","title":"Battersea Library"},"type":"Feature"},
		{"geometry":{"coordinates":[-0.15458,51.47445],"type":"Point"},"properties":{"_source":"wandsworth_council","address":"309 Battersea Park Road London SW11 4NF","description":"Open to all.","title":"Battersea Park Library"},"type":"Feature"},
		{"geometry":{"coordinates":[-0.15654,51.46507],"type":"Point"},"properties":{"_source":"wandsworth_council","address":"2A Stormont Road, London, SW11 5EN","description":"For families with children aged 8 to 19.","hours":"Mo-Fr 04:00-18:00; Mo-Fr 06:00-21:00","title":"Devas Club"},"type":"Feature"},
		{"geometry":{"coordinates":[-0.17356,51.46925],"type":"Point"},"properties":{"_source":"wandsworth_council","address":"126 Fawcett Close, London, SW11 2LU","description":"Run by Isensorycic. Open to all.","title":"Kambala Community Centre"},"type":"Feature"},
		{"geometry":{"coordinates":[-0.16429,51.45535],"type":"Point"},"properties":{"_source":"wandsworth_council","address":"155e Northcote Road,Â London SW11 6HW","description":"Open to all.","title":"Northcote Library"},"type":"Feature"},
		{"geometry":{"coordinates":[-0.17720,51.46790],"type":"Point"},"properties":{"_source":"wandsworth_council","address":"Lavender Road, Clapham Junction, London, SW11 2UG","description":"For under 5s and their extended families only.","hours":"Mo-Fr 09:00-15:00","title":"York Gardens Children's Centre"},"type":"Feature"},
		{"geometry":{"coordinates":[-0.17788,51.46722],"type":"Point"},"properties":{"_source":"wandsworth_council","address":"34 Lavender Road, London SW11 2UG","description":"Open to all.","title":"York Gardens Library"},"type":"Feature"},
		{"geometry":{"coordinates":[-0.18637,51.44235],"type":"Point"},"properties":{"_source":"wandsworth_council","address":"271 Magdalen Road, London, SW18 3NZ","description":"Open to all, from Sunday 27 November 2022.","hours":"Su 01:00-16:00","title":"Earlsfield Baptist Church"},"type":"Feature"},
		{"geometry":{"coordinates":[-0.18659,51.44239],"type":"Point"},"properties":{"_source":"wandsworth_council","address":"276 Magdalen Road, London, SW18 3NY","description":"Open to all.","title":"Earlsfield Library"},"type":"Feature"},
		{"geometry":{"coordinates":[-0.14156,51.47836],"type":"Point"},"properties":{"_source":"wandsworth_council","address":"22 Ascalon Street, London, SW8 4AN","description":"Open to all.","hours":"Mo 10:00-20:00","title":"ROSE Community Clubroom"},"type":"Feature"},
		{"geometry":{"coordinates":[-0.13472,51.47445],"type":"Point"},"properties":{"_source":"wandsworth_council","address":"2 Thessaly Road, Nine Elms, London, SW8 4HT","description":"For under 5s and their extended families only.","hours":"Mo-Fr 09:00-18:00","title":"Yvonne Carr Children's Centre"},"type":"Feature"},
		{"geometry":{"coordinates":[-0.21603,51.46166],"type":"Point"},"properties":{"_source":"wandsworth_council","address":"5/7 Disraeli Road, London SW15 2DR","description":"Open to all.","title":"Putney Library"},"type":"Feature"},
		{"geometry":{"coordinates":[-0.24437,51.45233],"type":"Point"},"properties":{"_source":"wandsworth_council","address":"166 Roehampton Lane, Roehampton, London, SW15 4HR","description":"For under 5s and their extended families only.","hours":"Mo-Fr 09:00-18:00","title":"Eastwood Children's Centre"},"type":"Feature"},
		{"geometry":{"coordinates":[-0.24184,51.44976],"type":"Point"},"properties":{"_source":"wandsworth_council","address":"2 Danebury Avenue, London, SW15 4HD","description":"Open to all.","title":"Roehampton Library"},"type":"Feature"},
		{"geometry":{"coordinates":[-0.21823,51.44744],"type":"Point"},"properties":{"_source":"wandsworth_council","address":"Montfort Place, London, SW19 6QL","description":"Open to all. Run by the Ackroyden Community Church.","hours":"Mo 01:00-15:00","title":"Ackroydon Community HallÂ "},"type":"Feature"},
		{"geometry":{"coordinates":[-0.19889,51.45026],"type":"Point"},"properties":{"_source":"wandsworth_council","address":"Brathway Road, London, SW18 4BE","description":"Open to all. Run by St Michael's & All Angels Church.","hours":"Tu 10:00-15:00","title":"Brathway Hall"},"type":"Feature"},
		{"geometry":{"coordinates":[-0.20260,51.45035],"type":"Point"},"properties":{"_source":"wandsworth_council","address":"71 Wimbledon Park Road, London, SW18 5TT","description":"Open to all.","hours":"We 12:00-14:00","title":"St Michael's & All Angels Church"},"type":"Feature"},
		{"geometry":{"coordinates":[-0.20858,51.44352],"type":"Point"},"properties":{"_source":"wandsworth_council","address":"300 Wimbledon Park Road, London SW19 6NL","description":"Open to all.","title":"Southfields Library"},"type":"Feature"},
		{"geometry":{"coordinates":[-0.15978,51.42783],"type":"Point"},"properties":{"_source":"wandsworth_council","address":"221 Franciscan Road, Tooting, London, SW17 8HQ","description":"For under 5s and their extended families only.","hours":"Mo-Fr 09:00-18:00","title":"Franciscan Children's Centre"},"type":"Feature"},
		{"geometry":{"coordinates":[-0.16188,51.43793],"type":"Point"},"properties":{"_source":"wandsworth_council","address":"74 Trinity Road, London, SW17 7RH","description":"Open to all.","hours":"Mo 02:00-16:00; We 12:00-16:00","title":"Holy Trinity Church"},"type":"Feature"},
		{"geometry":{"coordinates":[-0.17356,51.46925],"type":"Point"},"properties":{"_source":"wandsworth_council","address":"14-16 Lynwood Road, Tooting, London, SW17 8SA","description":"Open to all.","hours":"We 11:00-15:00","title":"Lynwood Christian Fellowship"},"type":"Feature"},
		{"geometry":{"coordinates":[-0.17959,51.43101],"type":"Point"},"properties":{"_source":"wandsworth_council","address":"Smallwood Primary School, Smallwood Road, London, SW17 0TW","description":"For under 5s and their extended families only.","hours":"Mo-Fr 09:00-18:00","title":"Smallwood Children's Centre"},"type":"Feature"},
		{"geometry":{"coordinates":[-0.16684,51.43066],"type":"Point"},"properties":{"_source":"wandsworth_council","address":"16 Broadwater Road, London, SW17 0EF","description":"Open to all.","hours":"Th 12:00-16:00","title":"St Augustine's Church"},"type":"Feature"},
		{"geometry":{"coordinates":[-0.16752,51.44399],"type":"Point"},"properties":{"_source":"wandsworth_council","address":"210 Trinity Road, London, SW17 7HP","description":"Open to all.","title":"St Mary Magdalene Church"},"type":"Feature"},
		{"geometry":{"coordinates":[-0.16574,51.42650],"type":"Point"},"properties":{"_source":"wandsworth_council","address":"75 Mitcham Road, London, SW17 9PD","description":"Open to all.","title":"Tooting Library"},"type":"Feature"},
		{"geometry":{"coordinates":[-0.18867,51.45727],"type":"Point"},"properties":{"_source":"wandsworth_council","address":"182 East Hill, London, SW18 2HD","hours":"Mo-Th 10:00-15:00; Fr 04:00-18:00; Sa 10:00-15:00","title":"East Hill Baptist Church"},"type":"Feature"},
		{"geometry":{"coordinates":[-0.19242,51.45617],"type":"Point"},"properties":{"_source":"wandsworth_council","address":"11 Garratt Lane,Â LondonÂ SW18 4AQ","description":"Open to all.","title":"Wandsworth Town Library"},"type":"Feature"},
		{"geometry":{"coordinates":[-0.19625,51.45460],"type":"Point"},"properties":{"_source":"wandsworth_council","address":"King George&apos;s Park, Buckhold Road, Wandsworth, SW18 4AS","description":"For under 5s and their extended families only.","hours":"Mo-Fr 09:00-16:00","title":"West Hill in the Park Children's Centre"},"type":"Feature"}
	]
}
