{
	"type": "FeatureCollection",
	"features": [
		{"geometry":{"coordinates":[-0.21740,51.36017],"type":"Point"},"properties":{"_source":"warm_welcome","address":"Cheam Library, Church Road, Cheam, Sutton SM3 8QH","description":" Cheam Library is accessible on the ground floor where all services and public toilets are located. There is a public pay & display car park adjacent plus spaces for Blue Badge holders. Please note Warm Space Volunteers are located at nearby Sutton Library.","hours":"Tu 09:30-19:00; We 09:30-17:00; Th 09:30-18:00; Fr 09:30-17:00; Sa 09:30-17:00","title":"Cheam Library"},"type":"Feature"},
		{"geometry":{"coordinates":[-0.24778,51.34882],"type":"Point"},"properties":{"_source":"warm_welcome","address":"Christ Church Ewell, Cheam Road, Ewell, Surrey KT17 1AD","description":"Lonely people welcome and anyone else! Wednesdays 10am - 12Noon. Coffee Drop In with hot filter coffee, tea, quality biscuits, opportunity to meet others in the community, scrabble, rummikub","hours":"We 10:00-12:00","title":"Christ Church Ewell"},"type":"Feature"},
		{"geometry":{"coordinates":[-0.17644,51.38736],"type":"Point"},"properties":{"_source":"warm_welcome","address":"Circle Library, Green Wrythe Lane, Carshalton, Sutton SM5 1JJ","description":" Circle Library is fully accessible and has automatic doors. Free car parking is available at the rear of the building. Warm Space Volunteers will be on site Thursday & Friday, 10am-1pm & 1-4pm to signpost for information and advice.","hours":"Tu 09:30-19:00; We 09:30-17:00; Th 09:30-18:00; Fr 09:30-17:00; Sa 09:30-17:00","title":"Circle Library"},"type":"Feature"},
		{"geometry":{"coordinates":[-0.07424,51.32865],"type":"Point"},"properties":{"_source":"warm_welcome","address":"Epsom Methodist Church, Epsom, Surrey KT19 5AQ","description":"Open from 02-11-2022.","hours":"We 09:00-18:00","title":"Epsom Methodist Church"},"type":"Feature"},
		{"geometry":{"coordinates":[-0.16850,51.35332],"type":"Point"},"properties":{"_source":"warm_welcome","address":"Queen Marys Avenue, Carshalton, Surrey SM5 4NP","description":"Maximum number - 20 A busy space with quiet rooms for working.","hours":"Th 10:00-14:00","title":"Good Shepherd"},"type":"Feature"},
		{"geometry":{"coordinates":[-0.24097,51.37842],"type":"Point"},"properties":{"_source":"warm_welcome","address":"c/o SOS!SEN Charity Shop, 92 Central Road, Worcester Park, Surrey KT4 8HU","description":"Open from 11-11-2022. We are renting space from the SOS!SEN Charity Shop - you'll find signs on the front door when we are meeting","hours":"Fr 10:00-12:00","title":"Grace Church Worcester Park"},"type":"Feature"},
		{"geometry":{"coordinates":[-0.23649,51.39875],"type":"Point"},"properties":{"_source":"warm_welcome","address":"Adela Avenue , Motspur Park , New Malden KT3 6HT","description":"Open from 03-11-2022.","hours":"Th 13:00-16:00","title":"Holy Cross Church "},"type":"Feature"},
		{"geometry":{"coordinates":[-0.17462,51.24965],"type":"Point"},"properties":{"_source":"warm_welcome","address":"Carlton Road, Redhill, Surrey RH12BX","description":"","hours":"Mo 10:30-12:00","title":"Holy Trinity Church"},"type":"Feature"},
		{"geometry":{"coordinates":[-0.14909,51.36472],"type":"Point"},"properties":{"_source":"warm_welcome","address":"Maldon Road, Wallington, Surrey SM6 8BL","hours":"We 09:30-15:00; Th 09:30-15:00; Su 09:30-12:00","title":"Holy Trinity Church Wallington"},"type":"Feature"},
		{"geometry":{"coordinates":[-0.17483,51.38441],"type":"Point"},"properties":{"_source":"warm_welcome","address":"Horizon Church Sutton, Assembly Walk, Carshalton, Sutton SM5 1JH","hours":"Mo 09:00-12:00; Su 10:00-12:00","title":"Horizon Church Sutton"},"type":"Feature"},
		{"geometry":{"coordinates":[-0.23815,51.39489],"type":"Point"},"properties":{"_source":"warm_welcome","address":"West Barnes Library, Motspur Park, -London (South) KT3 6JF","description":"","hours":"Mo 08:00-19:00; Tu 08:00-19:00; We 08:00-19:00; Th 08:00-19:00; Fr 08:00-19:00; Sa 08:00-17:00","title":"http://www.merton.gov.uk/libraries"},"type":"Feature"},
		{"geometry":{"coordinates":[-0.20250,51.37842],"type":"Point"},"properties":{"_source":"warm_welcome","address":"Sutton Life Centre, 24 Alcorn Close, Sutton, Surrey SM3 9PX","description":" Library @ The Life Centre is located within the Sutton Life Centre. The Library is fully accessible via a ramp from street level and has automatic doors. Warm Space Volunteers will be on site Mon-Fri 10am-1pm & 1-4pm to signpost for information and advice.","hours":"Mo 09:30-19:00; Tu 09:30-19:00; We 09:30-19:00; Th 09:30-19:00; Fr 09:30-17:00; Sa 09:30-17:00","title":"Library @ the Life Centre"},"type":"Feature"},
		{"geometry":{"coordinates":[-0.13350,51.35294],"type":"Point"},"properties":{"_source":"warm_welcome","address":"Library @ the Phoenix Centre, Mollison Drive, Roundshaw, Wallington SM6 9NZ","description":" Located within the Leisure Centre. Fully accessible & with free car parking. The library is self-service only from 9-9:30am Mon-Sat & 10:00-16:00 on Sun. Warm Space Volunteers will be on site Tue & Thu 10am-1pm & 1-4pm to signpost for information & advice.","hours":"Mo 09:00-19:00; Tu 09:00-19:00; We 09:00-17:00; Th 09:00-18:00; Fr 09:00-17:00; Sa 09:00-17:00; Su 10:00-16:00","title":"Library @ the Phoenix Centre"},"type":"Feature"},
		{"geometry":{"coordinates":[-0.00775,51.33921],"type":"Point"},"properties":{"_source":"warm_welcome","address":"39 Arnhem Drive, New Addington, Croydon CR0 0EE","description":"Open from 01-11-2022. All are welcome to join in the groups or to come and enjoy time alongside them in the cafe (you don't have to join in!) Community Cafe is open on a pay as you feel basis. Tues 10-12 Crafty Needles (Knitting and Crochet), 1.15pm-2.45pm Stay and Play Toddlers. Weds 10-12 Poppy Cafe Mental Health Support Group. ","hours":"Tu 10:00-15:00; We 10:00-12:00","title":"New Addington Baptist Church"},"type":"Feature"},
		{"geometry":{"coordinates":[-0.11269,51.36032],"type":"Point"},"properties":{"_source":"warm_welcome","address":"St George's Church, Barrow Road, Croydon, London CR0 4EZ","description":" Monday is specifically designed for children, with play equipment. Parents/carers must supervise. On Thursdays a two course meal is available for £6","hours":"Mo 09:00-10:30; Th 11:00-13:00","title":"St George's Church Waddon"},"type":"Feature"},
		{"geometry":{"coordinates":[-0.20855,51.22738],"type":"Point"},"properties":{"_source":"warm_welcome","address":"5 Church Rd, Reigate, Surrey RH2 8HY","description":" Lunch available on 2nd & 4th Wednesday of the month (for optional donation)","hours":"We 11:30-14:00","title":"St Luke's Church"},"type":"Feature"},
		{"geometry":{"coordinates":[-0.08345,51.36028],"type":"Point"},"properties":{"_source":"warm_welcome","address":"Croham Road / Croham Park Avenue, South Croydon, Croydon CR2 7HF","description":"Open from From 20 October 2022 to end March 2023. All volunteers are fully DBS checked and we welcome people of all ages. Those under 14 should be accompanied by an adult please. Call or text ahead if you are coming so we know numbers. We quiet rooms as well as board games, etc available for all ages","hours":"Th 15:30-18:30","title":"St Paul's United Reformed Church"},"type":"Feature"},
		{"geometry":{"coordinates":[-0.31412,51.31180],"type":"Point"},"properties":{"_source":"warm_welcome","address":"Barnett Wood Lane, Ashtead, Surrey KT21 2DR","description":"Everyone is welcome We have a cafe, buy one hot drink and we can refill for free.","hours":"Mo 08:30-14:30; Tu 08:30-14:30; We 08:30-14:30; Th 08:30-14:30; Fr 08:30-14:30","title":"St. George's Church"},"type":"Feature"},
		{"geometry":{"coordinates":[-0.19490,51.36467],"type":"Point"},"properties":{"_source":"warm_welcome","address":"Sutton Central Library, St. Nicholas Way,, Sutton, London SM1 1EA","description":" Sutton Library is the largest library in the borough. The library is fully accessible and has an on site café (open Mon-Sun 9am-4pm). Warm Space Volunteers will be on site Mon-Fri 10am-1pm & 1-4pm to signpost for information and advice.","hours":"Mo 09:00-20:00; Tu 09:00-20:00; We 09:00-20:00; Th 09:00-20:00; Fr 09:00-17:00; Sa 09:00-17:00; Su 13:00-16:30","title":"Sutton Central Library"},"type":"Feature"},
		{"geometry":{"coordinates":[-0.19727,51.36388],"type":"Point"},"properties":{"_source":"warm_welcome","address":"3 Robin Hood Lane, Sutton, Surrey SM1 2SW","description":"Open from 3.1.2023. We cater for people with visual impairment and sight loss","hours":"Tu 13:00-15:00; We 10:00-12:00","title":"Sutton Vision"},"type":"Feature"},
		{"geometry":{"coordinates":[-0.33454,51.35802],"type":"Point"},"properties":{"_source":"warm_welcome","address":"Emmanuel Hall, 49 Common Rd, Claygate, Surrey KT10 0HU","description":" The Well is for young people aged 11-18 and such has a large variety of food and things to do while there, including board games, game consoles and craft activities.","hours":"Mo 15:30-18:00; We 15:30-18:00; Th 15:30-18:00","title":"The Well, Holy Trinity Church"},"type":"Feature"},
		{"geometry":{"coordinates":[-0.09167,51.28689],"type":"Point"},"properties":{"_source":"warm_welcome","address":"25 Chaldon Road, Caterham, Surrey CR3 5PG","description":"Our warm space is very suitable for adults looking for somewhere to relax - children are welcome with supporting adults. Activities available on site","hours":"Mo 10:00-15:00; Tu 10:00-15:00; We 10:00-15:00; Th 10:00-15:00; Fr 10:00-15:00; Sa 10:00-15:00; Su 10:00-15:00","title":"The Westway"},"type":"Feature"},
		{"geometry":{"coordinates":[-0.15126,51.35752],"type":"Point"},"properties":{"_source":"warm_welcome","address":"Wallington Library, Shotfield, Wallington, Sutton SM6 0HY","description":" Wallington Library is fully accessible with ground floor public toilets and a café on site. There is a public pay & display car park adjacent plus spaces for Blue Badge holders. Please note Warm Space Volunteers are located at nearby Phoenix Library.","hours":"Tu 09:30-19:00; We 09:30-17:00; Th 09:30-18:00; Fr 09:30-17:00; Sa 09:30-17:00","title":"Wallington Library"},"type":"Feature"},
		{"geometry":{"coordinates":[-0.03705,51.37699],"type":"Point"},"properties":{"_source":"warm_welcome","address":"West Wickham and Shirley Baptist Church, Croydon, Surrey CR08EH","description":"","hours":"Mo 09:00-17:00","title":"West Wickham and Shirley Baptist Church"},"type":"Feature"},
		{"geometry":{"coordinates":[-0.15678,51.36752],"type":"Point"},"properties":{"_source":"warm_welcome","address":"Westcroft Leisure Centre, Westcroft Road, Carshalton, Sutton SM5 2TG","description":" Located within the Leisure Centre. Fully accessible & free car parking. Library is self-service only Mon-Thu 7am-9.30am & 7pm-9pm, Fri 7am-9.30am & 5pm-9pm, Sat 8am-9.30am & 5pm-7pm & Sun all day. Warm Space Volunteers are located at nearby Circle Library.","hours":"Mo 07:00-21:00; Tu 07:00-21:00; We 07:00-21:00; Th 07:00-21:00; Fr 07:00-21:00; Sa 08:00-19:00; Su 08:00-19:00","title":"Westcroft Library"},"type":"Feature"},
		{"geometry":{"coordinates":[-0.24143,51.37786],"type":"Point"},"properties":{"_source":"warm_welcome","address":"Worcester Park Library, Stone Place, Windsor Road, Worcester Park, Sutton KT4 8ES","description":" Worcester Park library is fully accessible with pay & display parking including bays for Blue Badge holders. Ground floor toilets on site & a community garden outside. Please note Warm Space Volunteers are located at nearby Cheam or Life Centre libraries.","hours":"Tu 09:30-19:00; We 09:30-17:00; Th 09:30-18:00; Fr 09:30-17:00; Sa 09:30-17:00","title":"Worcester Park Library"},"type":"Feature"},
		{"geometry":{"coordinates":[-0.06328,51.38105],"type":"Point"},"properties":{"_source":"warm_spaces","address":"30 Bingham Road, Croydon, England, CR0 7EB","title":"St Mildred's Warm Hub","url":"https://stmildredschurch.org.uk"},"type":"Feature"},
		{"geometry":{"coordinates":[-0.10521,51.37983],"type":"Point"},"properties":{"_source":"warm_spaces","address":"93 London Road, Croydon, England, CR0 2RF","title":"West Croydon Methodist Church 'Warm Wednesdays'","url":"https://www.facebook.com/MHACommSouthLondon"},"type":"Feature"},
		{"geometry":{"coordinates":[-0.07963,51.39709],"type":"Point"},"properties":{"_source":"warm_spaces","address":"Church Hall (Rear of Holy Innocents Church) , 192A Selhurst Road, London, England, SE25 6XX","title":"Big Dinner Evening"},"type":"Feature"},
		{"geometry":{"coordinates":[-0.08353,51.36039],"type":"Point"},"properties":{"_source":"warm_spaces","address":"St Paul&#39;s United Reformed Church, South Croydon, Croham Park Ave, Croham Road, South Croydon, England, CR2 7HF","title":"St Paul's Warm Space","url":"https://www.stpaulsurc.org.uk"},"type":"Feature"},
		{"geometry":{"coordinates":[-0.16654,51.20439],"type":"Point"},"properties":{"_source":"surrey_county_council_warm_hubs","address":"5 Honeycrock Ln, Salfords, Redhill RH1 5DG","hours":"Fr[1] 11:00-12:30","title":"Salfords Village Hall"},"type":"Feature"},
		{"geometry":{"coordinates":[-0.09187,51.28610],"type":"Point"},"properties":{"_source":"surrey_county_council_warm_hubs","address":"25 Chaldon Rd, Caterham CR3 5PG","hours":"Mo-Super ","title":"The Westway"},"type":"Feature"},
		{"geometry":{"coordinates":[-0.26663,51.33226],"type":"Point"},"properties":{"_source":"surrey_county_council_warm_hubs","address":"77 Ashley Rd, Epsom KT18 5AQ","hours":"Fr 12:30-14:00","title":"Epsom Methodist Church / Roots Commuity Cafe"},"type":"Feature"},
		{"geometry":{"coordinates":[-0.26815,51.36452],"type":"Point"},"properties":{"_source":"surrey_county_council_warm_hubs","address":"Ruxley Lane, Ewell","hours":"Th 11:30-14:30","title":"Ruxley Church"},"type":"Feature"},
		{"geometry":{"coordinates":[-0.32402,51.21901],"type":"Point"},"properties":{"_source":"surrey_county_council_warm_hubs","address":"Stubs Hill, Dorking RH4 2QD","hours":"Mo 10:00-12:00; Tu 10:00-12:00; We 02:30-04:30; Th 10:00-12:00; Fr 10:00-12:00","title":"The Harvest Community Church"},"type":"Feature"},
		{"geometry":{"coordinates":[-0.23442,51.30140],"type":"Point"},"properties":{"_source":"surrey_county_council_warm_hubs","address":"Merland Rise Church, Epsom, Tadworth KT20 5JG","hours":"Tu 10:00-18:00","title":"Merland Rise Church"},"type":"Feature"},
		{"geometry":{"coordinates":[-0.14483,51.26037],"type":"Point"},"properties":{"_source":"surrey_county_council_warm_hubs","address":"2A Portland Dr, Merstham, Redhill RH1 3HX","hours":"Mo 14:00-16:00; Fr 14:00-16:00","title":"Merstham Mix Community Cafe"},"type":"Feature"},
		{"geometry":{"coordinates":[-0.16669,51.24739],"type":"Point"},"properties":{"_source":"surrey_county_council_warm_hubs","address":" Carlton Rd, Redhill RH1 2BX","hours":"Mo 10:30-12:00","title":"Holy Trinity Church, Redhill"},"type":"Feature"},
		{"geometry":{"coordinates":[-0.25200,51.35014],"type":"Point"},"properties":{"_source":"surrey_county_council_warm_hubs","address":"Bourne Hall, Spring St, Ewell KT17 1UF","hours":"Th 09:30-17:00; Fr 09:30-17:00; Sa 09:30-17:00; Tu 09:30-17:00; We 09:30-17:00","title":"Ewell Library"},"type":"Feature"},
		{"geometry":{"coordinates":[-0.26639,51.33431],"type":"Point"},"properties":{"_source":"surrey_county_council_warm_hubs","address":"6 Epsom Square, Epsom, Surrey KT19 8AG","hours":"Th 09:30-19:00; Fr 09:30-17:30; Sa 09:30-17:00; Mo 09:30-17:30; Tu 09:30-19:00; We 09:30-17:30","title":"Epsom Library "},"type":"Feature"},
		{"geometry":{"coordinates":[-0.33129,51.23309],"type":"Point"},"properties":{"_source":"surrey_county_council_warm_hubs","address":"St Martin's Walk, Dorking RH4 1UT","hours":"Th 09:30-19:00; Fr 09:30-17:30; Sa 09:30-17:00; Mo 09:30-17:30; Tu 09:30-19:00; We 09:30-17:30","title":"Dorking Library "},"type":"Feature"},
		{"geometry":{"coordinates":[-0.16794,51.24116],"type":"Point"},"properties":{"_source":"surrey_county_council_warm_hubs","address":"Warwick Rd, Redhill RH1 1NN, Floor 1 Quadrant shopping","hours":"Th 09:30-19:00; Fr 09:30-17:30; Sa 09:30-17:00; Mo 09:30-17:30; Tu 09:30-19:00; We 09:30-17:30","title":"Redhill Library "},"type":"Feature"},
		{"geometry":{"coordinates":[-0.08007,51.28317],"type":"Point"},"properties":{"_source":"surrey_county_council_warm_hubs","address":"Stafford Rd, Caterham CR3 6JG","hours":"Th 09:30-17:00; Fr 09:30-17:00; Sa 09:30-17:00; Tu 09:30-17:00; We 09:30-17:00","title":"Caterham Library "},"type":"Feature"},
		{"geometry":{"coordinates":[-0.33413,51.38693],"type":"Point"},"properties":{"_source":"surrey_county_council_warm_hubs","address":"Mercer Close, Thames Ditton, KT7 0BS","hours":"Mo 09:00-16:00; Th 09:00-16:00","title":"Thames Ditton Centre for the Community"},"type":"Feature"},
		{"geometry":{"coordinates":[-0.23165,51.30889],"type":"Point"},"properties":{"_source":"surrey_county_council_warm_hubs","address":"St Mark's Church Great Tattenhams Epsom Downs KT18 5RB","hours":"Fr 11:00-15:00","title":"St Mark's Food Club"},"type":"Feature"},
		{"geometry":{"coordinates":[-0.33289,51.39258],"type":"Point"},"properties":{"_source":"surrey_county_council_warm_hubs","address":"St. Nicholas Church Parish Office Summer Road Thames Ditton Surrey KT7 0QQ","hours":"Tu 09:30-14:00; Th 09:30-11:30","title":"St. Nicholas Church"},"type":"Feature"},
		{"geometry":{"coordinates":[-0.33899,51.36121],"type":"Point"},"properties":{"_source":"surrey_county_council_warm_hubs","address":"Claygate Centre for the Community, Elm Road, Claygate, KT10 0EH \n","hours":"Mo-Fr 09:00-16:30","title":"Claygate Centre for the CommunityClaygate Centre for the CommunityClaygate Centre for the CommunityClaygate Centre for the Community"},"type":"Feature"},
		{"geometry":{"coordinates":[-0.32758,51.29564],"type":"Point"},"properties":{"_source":"surrey_county_council_warm_hubs","address":"Leret Way, Leatherhead, KT22 8AH","hours":"Mo-Fr 10:00-00:00","title":"Fairfield Centre"},"type":"Feature"}
	]
}
