{
	"type": "FeatureCollection",
	"features": [
		{"geometry":{"coordinates":[-0.20538,51.09734],"type":"Point"},"properties":{"_source":"warm_welcome","address":"46 Broadfield Barton, Broadfield, Crawley, West Sussex RH11 9BA","description":" Whilst we do not have a public toilet we do have an accessible toilet in one of our bookable rooms that we do allow customers to use. There is a public car park in use for the whole Bartons. ","hours":"Mo 10:00-17:00, Tu 10:00-17:00, We 10:00-17:00, Th 10:00-17:00, Fr 10:00-17:00, Sa 10:00-14:00","title":"Broadfield Library "},"type":"Feature"},
		{"geometry":{"coordinates":[-0.19825,51.11898],"type":"Point"},"properties":{"_source":"warm_welcome","address":"The Charis Centre, West Green Drive, Crawley, West Sussex RH11 7EL","description":"","hours":"Mo 08:30-17:00, Tu 08:30-17:00, We 08:30-17:00, Th 08:30-17:00, Fr 08:30-17:00","title":"Crawley Community Church"},"type":"Feature"},
		{"geometry":{"coordinates":[-0.18291,51.11407],"type":"Point"},"properties":{"_source":"warm_welcome","address":"Southgate Avenue, Crawley, West Sussex RH10 6HG","description":" There is a cafe 'Esquire' on the premises. ","hours":"Mo 09:00-18:00, Tu 09:00-18:00, We 09:00-18:00, Th 09:00-18:00, Fr 09:00-18:00, Sa 09:00-17:00","title":"Crawley Library"},"type":"Feature"},
		{"geometry":{"coordinates":[-0.01684,51.12285],"type":"Point"},"properties":{"_source":"warm_welcome","address":"32-40 West Street , East Grinstead , West Sussex RH19 4SR","hours":"Mo 09:30-18:00, Tu 09:30-18:00, We 09:30-18:00, Th 09:30-18:00, Fr 09:30-18:00, Sa 09:30-17:00","title":"East Grinstead Library "},"type":"Feature"},
		{"geometry":{"coordinates":[-0.10044,50.99509],"type":"Point"},"properties":{"_source":"warm_welcome","address":"Haywards Heath Baptist Church, Haywards Heath, West Sussex RH16 4DZ","description":"Open from 28th November 2022.","hours":"Mo 09:00-17:00, We 09:00-17:00","title":"Haywards Heath Baptist Church"},"type":"Feature"},
		{"geometry":{"coordinates":[-0.10783,51.00198],"type":"Point"},"properties":{"_source":"warm_welcome","address":"34 Boltro Road, Haywards Heath, West Sussex RH16 1BN","description":"","hours":"Mo 09:30-18:00, Tu 09:30-18:00, We 09:30-18:00, Th 09:30-18:00, Fr 09:30-18:00, Sa 09:30-17:00","title":"Haywards Heath Library"},"type":"Feature"},
		{"geometry":{"coordinates":[-0.33258,51.06239],"type":"Point"},"properties":{"_source":"warm_welcome","address":"Lower Tanbridge Way, Horsham, West Sussex RH12 1PJ","hours":"Mo 09:00-18:00, Tu 09:00-18:00, We 09:00-18:00, Th 09:00-18:00, Fr 09:00-18:00, Sa 09:00-17:00","title":"Horsham Library"},"type":"Feature"},
		{"geometry":{"coordinates":[-0.31844,51.08087],"type":"Point"},"properties":{"_source":"warm_welcome","address":"Planet House, North Heath Lane, Horsham, West Sussex RH125QE","description":"Neurodivergent, disabled, chronically ill, all ages","title":"Sedsconnective theAutismconnective "},"type":"Feature"},
		{"geometry":{"coordinates":[-0.35013,51.02505],"type":"Point"},"properties":{"_source":"warm_welcome","address":"Beeson House,, Fairbank Road, Southwater RH13 9LA","hours":"Mo 10:00-17:00, Tu 10:00-17:00, We 10:00-17:00, Th 10:00-17:00, Fr 10:00-17:00, Sa 10:00-14:00","title":"Southwater Library"},"type":"Feature"},
		{"geometry":{"coordinates":[-0.29947,51.07417],"type":"Point"},"properties":{"_source":"warm_welcome","address":"St Andrews Methodist Church, Crawley Road, Horsham RH12 4DX","description":"Open from 24/10/2022. Our focus is on providing a safe and warm space for people to spend time with others, for company and friendship. A variety of opportunities to come in and keep warm through the week. Tuesday is the Horsham Matters Connecting Cafe with subsidised/pay-it-forward meals. Tea/coffee and simple refreshments will be available on all other days.","hours":"Mo 14:00-16:00, Tu 11:30-13:30, We 10:00-12:00, Th 10:00-12:00, Fr 10:30-13:30","title":"St Andrews Methodist Church"},"type":"Feature"},
		{"geometry":{"coordinates":[-0.31431,51.08281],"type":"Point"},"properties":{"_source":"warm_welcome","address":"St Marks Lane, Horsham, W Sussex RH12 5PU","description":" Our community cafe is open every Tuesday from 10am-12noon and on the 4th Saturday monthly. Hot drinks and home-made cakes are served, all free of charge, and there is free WiFi available. ","hours":"Tu 10:00-12:00","title":"St Marks Church, Holbrook"},"type":"Feature"},
		{"geometry":{"coordinates":[-0.18079,51.12067],"type":"Point"},"properties":{"_source":"warm_spaces","address":"Woodfield Road, Crawley, England, RH10","title":"Crawley Methodist Church - St Paul's","url":"https://www.crawleymethodistchurch.org.uk"},"type":"Feature"},
		{"geometry":{"coordinates":[-0.01447,51.17639],"type":"Point"},"properties":{"_source":"surrey_county_council_warm_hubs","address":"Church Road, Old Town Hill, Lingfiled RH7 6HA","hours":"Tu 10:00-15:00","title":"St Peter and St Paul's Church"},"type":"Feature"},
		{"geometry":{"coordinates":[-0.17348,51.17534],"type":"Point"},"properties":{"_source":"surrey_county_council_warm_hubs","address":"289 Ct Lodge Rd, Horley RH6 8RG","hours":"Th 10:00-17:30","title":"Horley Baptist Church"},"type":"Feature"},
		{"geometry":{"coordinates":[-0.01560,51.17423],"type":"Point"},"properties":{"_source":"surrey_county_council_warm_hubs","address":"54 High St, Lingfield RH7 6AA","hours":"Fr 10:00-15:00","title":"Victoria Sports Social Club"},"type":"Feature"},
		{"geometry":{"coordinates":[-0.01546,51.17462],"type":"Point"},"properties":{"_source":"surrey_county_council_warm_hubs","address":"High St, Lingfield RH7 6AB","hours":"We 10:00-15:00","title":"Lingfield & Dormansland Community Centre"},"type":"Feature"},
		{"geometry":{"coordinates":[-0.01838,51.17550],"type":"Point"},"properties":{"_source":"surrey_county_council_warm_hubs","address":"Vicarage Rd, Lingfield RH7 6EZ - Saturdays","title":"St Bernard's Catholic Church"},"type":"Feature"}
	]
}
