{
	"type": "FeatureCollection",
	"features": [
		{"geometry":{"coordinates":[-0.13070,50.83375],"type":"Point"},"properties":{"_source":"warm_welcome","address":"1-6 Park Crescent Terrace, Brighton, East Sussex BN2 3HD","description":"Open from 7.11.22. Our focus is catering for elderly people aged 50+","hours":"Mo 10:00-15:30, We 10:00-15:30, Fr 12:00-15:30","title":"Brighton Congress Hall Salvation Army"},"type":"Feature"},
		{"geometry":{"coordinates":[-0.01920,50.93700],"type":"Point"},"properties":{"_source":"warm_welcome","address":"South Common (A275), South Chailey, East Sussex BN8 4AN","description":"Open from 16/01/2023. We have board games, jigsaws, newspapers etc & toys for toddlers","hours":"Mo 11:00-15:00, We 11:00-15:00, Fr 11:00-15:00","title":"Chailey Free Church"},"type":"Feature"},
		{"geometry":{"coordinates":[-0.13141,50.84387],"type":"Point"},"properties":{"_source":"warm_welcome","address":"Citygate @ the dip 119d Hollingdean Terrace, Brighton, EAst Sussex BN1 7HB","description":"Open from 18-11-22. A small friendly space for families and individuals to come and keep warm. Free hot drinks and wifi access, as well as charging points. There will be some games and activities for children and space to sit and relax. All Welcome.","hours":"Fr 15:30-17:30","title":"City Gate Church "},"type":"Feature"},
		{"geometry":{"coordinates":[-0.27226,50.93147],"type":"Point"},"properties":{"_source":"warm_welcome","address":"Henfield Library, Off High Street, Henfield BN5 9HN","hours":"Mo 10:00-17:00, Tu 10:00-17:00, We 10:00-17:00, Th 10:00-17:00, Fr 10:00-17:00, Sa 10:00-14:00","title":"Henfield Library"},"type":"Feature"},
		{"geometry":{"coordinates":[-0.18817,50.83364],"type":"Point"},"properties":{"_source":"warm_welcome","address":"Portland Road, HOVE, East Sussex BN3 5QQ","description":"Open from 23/9/2022.","hours":"Fr 10:00-11:30","title":"Hove |Methodist Church"},"type":"Feature"},
		{"geometry":{"coordinates":[-0.32446,50.82822],"type":"Point"},"properties":{"_source":"warm_welcome","address":"Penstone Park, Lancing, West Sussex BN15 9DL","description":"","hours":"Mo 10:00-18:00, Tu 10:00-18:00, We 10:00-18:00, Th 10:00-18:00, Fr 10:00-18:00, Sa 10:00-16:00","title":"Lancing Library"},"type":"Feature"},
		{"geometry":{"coordinates":[-0.13710,50.83814],"type":"Point"},"properties":{"_source":"warm_welcome","address":"Florence Road, Brighton, East Sussex BN1 6DL","description":"","hours":"Tu 08:30-16:00, We 08:30-16:00, Th 08:30-16:00, Fr 08:30-16:00, Su 10:30-12:30","title":"One Church Brighton"},"type":"Feature"},
		{"geometry":{"coordinates":[-0.15137,50.84464],"type":"Point"},"properties":{"_source":"warm_welcome","address":"1 Knoyle Road, Brighton, East Sussex BN1 6RB","description":" Preston Coffee Pot is open from 10:45am on Wednesdays, following a weekday service of either Morning Prayer or Holy Communion. On Sundays, there is a service of Holy Communion at 10am, followed by refreshments.","hours":"We 09:30-12:00, Su 09:00-12:00","title":"Parish Church of St John the Evangelist, Preston, Brighton"},"type":"Feature"},
		{"geometry":{"coordinates":[-0.20881,50.83269],"type":"Point"},"properties":{"_source":"warm_welcome","address":"Station Road, Portslade, Portslade BN41 1AB","description":"Open from 02-11-2022.","hours":"Tu 14:30-16:00, We 10:30-12:30, Su 10:30-12:00","title":"Portslade United Reformed Church"},"type":"Feature"},
		{"geometry":{"coordinates":[-0.27334,50.83298],"type":"Point"},"properties":{"_source":"warm_welcome","address":"Shoreham Library, St Mary's Road, Shoreham-by-Sea, West Sussex BN43 5ZA","description":"","hours":"Mo 10:00-18:00, Tu 10:00-18:00, We 10:00-18:00, Th 10:00-18:00, Fr 10:00-18:00, Sa 10:00-16:00","title":"Shoreham Library"},"type":"Feature"},
		{"geometry":{"coordinates":[-0.17427,50.82828],"type":"Point"},"properties":{"_source":"warm_welcome","address":"163, Church Road, Hove, East Sussex BN3 2AD","description":" We are a church but you don't have to have ever been in a church before to come in! Everyone's welcome and please ask if you need anything you can't see","hours":"Tu 09:00-12:00, Th 09:00-12:00, Fr 10:00-12:00, Su 07:30-12:00","title":"St Andrew's Church, Hove"},"type":"Feature"},
		{"geometry":{"coordinates":[-0.12167,50.81875],"type":"Point"},"properties":{"_source":"warm_welcome","address":"St George's Church, St George's Road, Brighton, East Sussex BN21ED","description":"Open from 19/10/2022. Everyone - church and none church - are welcome to share our warm welcome space. We also have a few board games to entertain you... we also have a community centre and cafe - you are welcome to come and see if anything interests you","hours":"Mo 10:00-15:30, Tu 10:00-15:30, We 10:00-15:30, Th 10:00-15:30, Fr 10:00-15:30","title":"St George's Church"},"type":"Feature"},
		{"geometry":{"coordinates":[-0.31923,50.83588],"type":"Point"},"properties":{"_source":"warm_welcome","address":"Parish Office, Mill Road, Lancing, Sussex BN15 9XD","description":" Craft Club in St. Michael’s hall - 1st & 3rd Tues of the month 10-12. Ancient & Modern Group in St. Michael’s hall - 1st & 3rd Wed of the month 2-4. 1st Wed of the month at St. Peter’s 2-4pm","hours":"Tu 10:00-12:00, We 14:00-16:00, Th 10:00-12:00","title":"St Michael and All Angels, St Peter the Holy Apostle and St James the Less"},"type":"Feature"},
		{"geometry":{"coordinates":[-0.32712,50.88898],"type":"Point"},"properties":{"_source":"warm_welcome","address":"Steyning Library, Church Street, Steyning BN44 3YB","hours":"Mo 10:00-17:00, Tu 10:00-17:00, We 10:00-17:00, Th 10:00-17:00, Fr 10:00-17:00, Sa 10:00-14:00","title":"Steyning Library"},"type":"Feature"},
		{"geometry":{"coordinates":[-0.17546,50.83529],"type":"Point"},"properties":{"_source":"warm_welcome","address":"The Salvation Army, 159 Sackville Road/Conway Place, Hove BN3 3LW","description":" Everyone is welcome - our space has board games, crafts, a play area for children, puzzles, refreshments (and meals on Wednesdays). There is always a friendly face to meet and greet you.","hours":"Tu 10:00-12:30, We 11:00-14:00, Fr 10:00-16:00, Su 10:00-12:00","title":"The Salvation Army Hove"},"type":"Feature"},
		{"geometry":{"coordinates":[-0.13326,50.92310],"type":"Point"},"properties":{"_source":"warm_welcome","address":"Hassocks Library 9 Ewart close, Hassocks, West Sussex BN6 8FJ","description":"","hours":"Mo 09:00-13:00, Tu 09:00-13:00, We 09:00-13:00, Th 13:00-17:00, Fr 13:00-17:00, Sa 09:00-13:00","title":"West Sussex County Council"},"type":"Feature"},
		{"geometry":{"coordinates":[-0.13276,50.95575],"type":"Point"},"properties":{"_source":"warm_welcome","address":"Burgess Hill Library 15-19 The Martlets, Burgess Hill, West Sussex RH15 9NN","description":"","hours":"Mo 09:30-17:30, Tu 09:30-17:30, We 09:30-17:30, Th 09:30-17:30, Fr 09:30-17:30, Sa 10:00-16:00","title":"WSCC"},"type":"Feature"},
		{"geometry":{"coordinates":[-0.17439,50.93360],"type":"Point"},"properties":{"_source":"warm_welcome","address":"Hurstpierpoint Library, Trinity Road, Hurstpierpoint, West Sussex BN6 9UY","description":"","hours":"Mo 09:00-13:00, Tu 09:00-13:00, We 09:00-13:00, Th 13:00-17:00, Fr 13:00-17:00, Sa 09:00-13:00","title":"WSCC"},"type":"Feature"},
		{"geometry":{"coordinates":[-0.30455,50.88269],"type":"Point"},"properties":{"_source":"warm_spaces","address":"The HUB, Upper Beeding, 19 Church Lane, Steyning, England, BN44 3HP","title":"The Hub Beeding","url":"https://www.thehubbeeding.org/warmhub"},"type":"Feature"},
		{"geometry":{"coordinates":[-0.16704,50.83966],"type":"Point"},"properties":{"_source":"warm_spaces","address":"Hove Recreation Ground, Shirley Drive, , Hove, England, BN3 6NQ","title":"Hove Rugby Club","url":"https://www.hoverugby.club"},"type":"Feature"},
		{"geometry":{"coordinates":[-0.12971,50.82029],"type":"Point"},"properties":{"_source":"warm_spaces","address":"61 Saint James&#39;s Street, Brighton, England, BN2 1PR","title":"St Mary’s Kemp Town","url":"www.stmaryschurchbrighton.org.uk "},"type":"Feature"}
	]
}
