{
	"type": "FeatureCollection",
	"features": [
		{"geometry":{"coordinates":[-2.94018,54.88717],"type":"Point"},"properties":{"_source":"warm_welcome","address":"62 - 66 Denton Street, Carlisle, Cumbria CA25EH","description":"All are welcome! Free superfast wifi - Toilets - Baby changing - Pay it forward drinks available. We also have a selection of games and toys that can be used in Cornerstone. Join us every Thursday between 10am and 1pm for our weekly wellbeing café.","hours":{"_text":"Monday: 09:00 - 16:00, Tuesday: 09:00 - 16:00, Wednesday: 09:00 - 16:00, Thursday: 10:00 - 13:00, Friday: 09:00 - 16:00, Saturday: 10:00 - 13:00","opening":"Mo 09:00-16:00; Tu 09:00-16:00; We 09:00-16:00; Th 10:00-13:00; Fr 09:00-16:00; Sa 10:00-13:00"},"title":"Cornerstone"},"type":"Feature"},
		{"geometry":{"coordinates":[-2.96504,54.88298],"type":"Point"},"properties":{"_source":"warm_welcome","address":"Coleridge House, Shaddongate, Carlisle CA2 6PD","description":"Open from 15-11-2022.","hours":{"_text":"Tuesday: 10:00 - 12:00","opening":"Tu 10:00-12:00"},"title":"Restore (Cumbria)"},"type":"Feature"},
		{"geometry":{"coordinates":[-2.94124,54.89508],"type":"Point"},"properties":{"_source":"warm_welcome","address":"The Salvation Army,, Abbey Street, Carlisle, Cumbria CA3 8TX","hours":{"_text":"Wednesday: 10:30 - 13:00","opening":"We 10:30-13:00"},"title":"The Salvation Army"},"type":"Feature"},
		{"geometry":{"coordinates":[-3.16147,54.82505],"type":"Point"},"properties":{"_source":"cumbria_council","contact":"Tel: 01900844670; Email: info@ageukwestcumbria.org.uk","description":"Tuesdays: Conversation and debating group. Thursdays: Heartwarmer soup and sandwich lunch. Fridays: Craft Club. All sessions will provide access to information and advice services via Age UK West Cumbria","title":"Age UK West Cumbria - Wigton","url":"https://new.cumbria.gov.uk/node/3777"},"type":"Feature"},
		{"geometry":{"coordinates":[-2.97527,54.89587],"type":"Point"},"properties":{"_source":"cumbria_council","contact":"Tel: 07799623014; Email: Kathqueen19@outlook.com","description":"Church opening especially for this event at this time on this day","title":"Bell Vue Community Church, Carlisle","url":"https://new.cumbria.gov.uk/node/24893"},"type":"Feature"},
		{"geometry":{"coordinates":[-2.90505,54.89340],"type":"Point"},"properties":{"_source":"cumbria_council","contact":"Tel: 01228596992; Email: marion.allinson@botcherbycc.co.uk","description":"Community based cafe environment providing light refreshments","title":"Botcherby Community Centre, Carlisle","url":"https://new.cumbria.gov.uk/node/9191"},"type":"Feature"},
		{"geometry":{"coordinates":[-2.93437,54.89547],"type":"Point"},"properties":{"_source":"cumbria_council","contact":"Tel: 01228 227312","description":"Public Library environment. Seating in busy and quiet areas.","title":"Carlisle Library","url":"https://new.cumbria.gov.uk/node/3835"},"type":"Feature"},
		{"geometry":{"coordinates":[-2.94592,54.91226],"type":"Point"},"properties":{"_source":"cumbria_council","contact":"Tel: 01228511430; Email: office@stanwixchurch.org.uk","description":"St Marks opens specially for \" Chit Chat Cafe\" every Wednesday 2pm-4pm, Warm drinks provided aswell as a warm welcome.A warm welcoming space in the hub of the BELAH community. From 2-4pm every Wednesday afternoon! Free teas and coffees, lots of chatter.","title":"Chit Chat Cafe, Carlisle","url":"https://new.cumbria.gov.uk/node/9194"},"type":"Feature"},
		{"geometry":{"coordinates":[-2.93244,54.89573],"type":"Point"},"properties":{"_source":"cumbria_council","description":"Church opens weekly specifically for this event. The breakfasts are free and provided for people in need","title":"Church of Scotland, Carlisle","url":"https://new.cumbria.gov.uk/node/3940"},"type":"Feature"},
		{"geometry":{"coordinates":[-2.94025,54.88723],"type":"Point"},"properties":{"_source":"cumbria_council","contact":"Tel: 01228 549796; Email: manager@cornerstonecarlisle.org","description":"A community based café run by a team of volunteers. We provide free super fast wi-fi and offer toilet facilities. We run a food bank, sell preloved books and also run a wellbeing café and other weekly activities.","title":"Cornerstone","url":"https://new.cumbria.gov.uk/node/3770"},"type":"Feature"},
		{"geometry":{"coordinates":[-3.16004,54.82303],"type":"Point"},"properties":{"_source":"cumbria_council","contact":"Tel: 01697342468; Email: info@cornerstonemethodist.org.uk","description":"Coffee morning style setting with free drinks (donations welcome but not necessary)","title":"Cornerstone Methodist Church","url":"https://new.cumbria.gov.uk/node/3764"},"type":"Feature"},
		{"geometry":{"coordinates":[-2.94026,54.88719],"type":"Point"},"properties":{"_source":"cumbria_council","contact":"Tel: 01228 549796; Email: manager@cornerstonecarlisle.org","description":"Community based cafe, owned and run by St James Church. Affordable drinks and variety of tray bakes and other snacks on sale. Filter coffee from 50p. Pre paid drinks for those who require them. Food bank available. Free WiFi. Children's toys available.","title":"Cornerstone, Carlisle","url":"https://new.cumbria.gov.uk/node/23313"},"type":"Feature"},
		{"geometry":{"coordinates":[-2.93661,54.87911],"type":"Point"},"properties":{"_source":"cumbria_council","contact":"Tel: 01228 591868; Email: info@Currockcc.co.uk","description":"We will be providing a warm room with refreshments on offer at a very low cost. We will also provide access to our WIFI and staff will be supporting anyone who comes along.","title":"Currock Community Centre, Carlisle","url":"https://new.cumbria.gov.uk/node/10908"},"type":"Feature"},
		{"geometry":{"coordinates":[-2.98398,54.84146],"type":"Point"},"properties":{"_source":"cumbria_council","contact":"Tel: 01228 711583","description":"All are welcome to drop in for warm welcome. There'll be good company, magazines and games.We'll be serving tea, coffee and biscuits and from midday, soup.","title":"Dalston Church","url":"https://new.cumbria.gov.uk/node/24931"},"type":"Feature"},
		{"geometry":{"coordinates":[-2.98476,54.84070],"type":"Point"},"properties":{"_source":"cumbria_council","contact":"Email: sec.victoryhall@outlook.com","description":"A warm community space Serving hot drinks and biscuits but attendees are welcome to bring their own lunchThere will be board games, puzzles etc and other activities may evolve according to need and interest","title":"Dalston Victory Hall, Dalston","url":"https://new.cumbria.gov.uk/node/6547"},"type":"Feature"},
		{"geometry":{"coordinates":[-2.94177,54.88708],"type":"Point"},"properties":{"_source":"cumbria_council","contact":"Tel: 01228528692; Email: clair.hannah@dentonholmecc.co.uk","description":"Community based space offering a range of activities. The warm spot will be open alongside our Library.","title":"Denton Holme Community Association, Carlisle","url":"https://new.cumbria.gov.uk/node/3947"},"type":"Feature"},
		{"geometry":{"coordinates":[-2.93103,54.87054],"type":"Point"},"properties":{"_source":"cumbria_council","contact":"Tel: 01228817600","description":"We have a coffee lounge for families of our service users we can open to our neighbours on a Monday 130-330. They will be welcomed by our reception team.","title":"Eden Valley Hospice and Jigsaw Cumbria's Children's Hospice","url":"https://new.cumbria.gov.uk/node/3785"},"type":"Feature"},
		{"geometry":{"coordinates":[-2.89121,54.88072],"type":"Point"},"properties":{"_source":"cumbria_council","contact":"Tel: 01228 537831; Email: liz@harrabycommunitycentre.co.uk","description":"Community based cafe & library","title":"Harraby Community Campus, Carlisle","url":"https://new.cumbria.gov.uk/node/3926"},"type":"Feature"},
		{"geometry":{"coordinates":[-2.94404,54.89403],"type":"Point"},"properties":{"_source":"cumbria_council","contact":"Tel: 01228819101; Email: Jenna@icanfitnesscumbria.co.uk","description":"Warm Welcome, Wellbeing Information, Advice & Guidance, Company, Chatting, Board Games & doodling.","title":"ICan Health and Fitness, Carlisle","url":"https://new.cumbria.gov.uk/node/30432"},"type":"Feature"},
		{"geometry":{"coordinates":[-2.95015,54.91802],"type":"Point"},"properties":{"_source":"cumbria_council","contact":"Tel: 01228 598484; Email: office@kingmoorcbc.co.uk","description":"A warm and welcoming room","title":"Kingmoor Community and Business Centre","url":"https://new.cumbria.gov.uk/node/3795"},"type":"Feature"},
		{"geometry":{"coordinates":[-2.92806,54.88951],"type":"Point"},"properties":{"_source":"cumbria_council","contact":"Tel: 07944954900; Email: mealbank108@hebronec.co.uk","description":"A hot two course meal, cuppa and choice of two rooms to chat and play games if they’d like to","title":"Mealbank108","url":"https://new.cumbria.gov.uk/node/3769"},"type":"Feature"},
		{"geometry":{"coordinates":[-2.96376,54.88572],"type":"Point"},"properties":{"_source":"cumbria_council","contact":"Tel: 07716697254; Email: tim.linford@Mortoncc.co.uk","description":"Warm friendly atmosphere in either lounge or conservatory","title":"Morton Manor Community Centre, Carlisle","url":"https://new.cumbria.gov.uk/node/6548"},"type":"Feature"},
		{"geometry":{"coordinates":[-3.06621,54.81885],"type":"Point"},"properties":{"_source":"cumbria_council","contact":"Tel: 07376225134; Email: benefits@northernfellsgroup.org.uk","description":"Community based warm space, games, books, newspapers, activities","title":"Northern Fells Group - Rosley Village Hall","url":"https://new.cumbria.gov.uk/node/29424"},"type":"Feature"},
		{"geometry":{"coordinates":[-2.83882,54.86452],"type":"Point"},"properties":{"_source":"cumbria_council","contact":"Tel: 01228560082; Email: Volunteer@oaktreeanimals.org.uk","description":"Welcoming tearoom with a friendly team offering homemade cakes and hot drinks. A great day out for the whole family, including your dog!","title":"Oak Tree Animals' Charity - Tearoom","url":"https://new.cumbria.gov.uk/node/3832"},"type":"Feature"},
		{"geometry":{"coordinates":[-2.94306,54.89260],"type":"Point"},"properties":{"_source":"cumbria_council","contact":"Tel: 03003038037; Email: welcome@wearepeoplefirst.co.uk","description":"Modern café space","title":"People First","url":"https://new.cumbria.gov.uk/node/3794"},"type":"Feature"},
		{"geometry":{"coordinates":[-2.94398,54.89413],"type":"Point"},"properties":{"_source":"cumbria_council","contact":"Tel: 01228535333 or 07988713568; Email: opsadmin@restorecumbria.co.uk","description":"We have developed a community based cafe environment, with hot drinks, biscuits, puzzles, games and books to read","title":"Restore (Cumbria), Coleridge House, Carlisle","url":"https://new.cumbria.gov.uk/node/10113"},"type":"Feature"},
		{"geometry":{"coordinates":[-2.87226,54.88785],"type":"Point"},"properties":{"_source":"cumbria_council","contact":"Email: scotbyvillagehall@gmail.com","description":"Coffee morning type of affair with free tea, coffee & biscuits (happy to take donations if offered). Dominoes & cards available for friendly games & icebreaker.","title":"Scotby Village Hall","url":"https://new.cumbria.gov.uk/node/25084"},"type":"Feature"},
		{"geometry":{"coordinates":[-3.15571,54.82733],"type":"Point"},"properties":{"_source":"cumbria_council","contact":"Tel: 07813 327305","description":"Additional to the food pantry and coffee morning running between 9am and 12noonCoffee/Tea & biscuits, jigsaws, books to read, newspapers.","title":"St Cuthbert's Wigton Food Pantry, Wigton","url":"https://new.cumbria.gov.uk/node/24260"},"type":"Feature"},
		{"geometry":{"coordinates":[-2.93826,54.89355],"type":"Point"},"properties":{"_source":"cumbria_council","contact":"Tel: 01228 642858; Email: Lisa.Wilson@nwsynod.org.uk","description":"A warm welcome and free hot drinks.","title":"St George's Church, Carlisle","url":"https://new.cumbria.gov.uk/node/9113"},"type":"Feature"},
		{"geometry":{"coordinates":[-2.92599,54.89363],"type":"Point"},"properties":{"_source":"cumbria_council","contact":"Email: louise_dias@yahoo.com","description":"Church Hall opening specifically for this event. Hot drinks and biscuits provided, bring a packed lunch. Activities will generate according to agreed proposals, e.g bring your own crafts, board games, talks, etc.","title":"St Vincent de Paul Society, Carlisle","url":"https://new.cumbria.gov.uk/node/37636"},"type":"Feature"},
		{"geometry":{"coordinates":[-2.93149,54.89527],"type":"Point"},"properties":{"_source":"cumbria_council","contact":"Tel: +441228267247; Email: stickybitscafe@hotmail.co.uk","description":"We are a community based cafe who work specifically with the LGBTQ+ community to ensure that have a safe space to meet, we welcome any one into the space as long as they are respectful to the other users of the centreA warm welcoming quirky space","title":"Sticky Bits Cafe, Carlisle","url":"https://new.cumbria.gov.uk/node/23080"},"type":"Feature"},
		{"geometry":{"coordinates":[-2.91603,54.89742],"type":"Point"},"properties":{"_source":"cumbria_council","contact":"Tel: 01228810580","description":"Warming restaurant environment. We are a welcoming casual dining restaurant on a municipal golf course just outside the city centre","title":"Stonyholme Golf Club, Carlisle","url":"https://new.cumbria.gov.uk/node/10075"},"type":"Feature"},
		{"geometry":{"coordinates":[-2.96710,54.89112],"type":"Point"},"properties":{"_source":"cumbria_council","contact":"Tel: 07731372048","description":"A warm, friendly environment. Free WI-FI. Hot and cold drinks. Library link. Office with computer and printer. Friendly faces","title":"The Lookout community hub","url":"https://new.cumbria.gov.uk/node/3776"},"type":"Feature"},
		{"geometry":{"coordinates":[-2.94187,54.89534],"type":"Point"},"properties":{"_source":"cumbria_council","contact":"Tel: 01228526503; Email: melanie.scoulding@salvationarmy.org.uk","description":"Refreshments and activities","title":"The Salvation Army, Carlisle","url":"https://new.cumbria.gov.uk/node/3936"},"type":"Feature"},
		{"geometry":{"coordinates":[-3.16075,54.82378],"type":"Point"},"properties":{"_source":"cumbria_council","contact":"Tel: 01900 706170; Email: workington.library@cumbria.gov.uk","description":"All public libraries with access to the space, free membership of the library, pc access, borrowing resources, printing, regular groups and events","title":"Wigton Library","url":"https://new.cumbria.gov.uk/node/3858"},"type":"Feature"},
		{"geometry":{"coordinates":[-2.97926,54.88827],"type":"Point"},"properties":{"_source":"cumbria_council","contact":"Email: ruth.crane@yewdalecc.co.uk","description":"We will have refreshments and lounge seating along with tables where people can do their own activities and have a tea or coffee. There are also warm snacks available and access to TV","title":"Yewdale Community Centre","url":"https://new.cumbria.gov.uk/node/3913"},"type":"Feature"}
	]
}
