{
	"type": "FeatureCollection",
	"features": [
		{"geometry":{"coordinates":[-3.02337,54.46044],"type":"Point"},"properties":{"_source":"warm_spaces","address":"Grasmere Village Hall, Broadgate, Ambleside, England, LA22 9TA, United Kingdom","description":"Free Food/Drink, Free Wi-Fi, People to chat to, Space to work, Wheelchair Accessible, Toilets, Accessible Toilet, Parking, Child Friendly","hours":{"_text":"10am-12.30pm"},"title":"Grasmere Village Hall","url":"https://www.facebook.com/GrasmereVillageHall"},"type":"Feature"},
		{"geometry":{"coordinates":[-2.96329,54.42980],"type":"Point"},"properties":{"_source":"cumbria_council","description":"Various activities for all ages. Free wi-fi. Public PCs to all members, easy to join. Books and online resources available to members.","title":"Ambleside Library","url":"https://new.cumbria.gov.uk/node/3849"},"type":"Feature"},
		{"geometry":{"coordinates":[-3.02341,54.46019],"type":"Point"},"properties":{"_source":"cumbria_council","contact":"Tel: 015394 35628; Email: enquiries@grasmerehall.org.uk","description":"Very welcoming community based cafe","title":"Grasmere Village Hall, Grasmere","url":"https://new.cumbria.gov.uk/node/10036"},"type":"Feature"},
		{"geometry":{"coordinates":[-2.90135,54.37329],"type":"Point"},"properties":{"_source":"cumbria_council","contact":"Tel: 07515999406; Email: Mtaylor.lakescom@gmail.com","description":"Tuesday, Coffee, Tea and Prayer. Friday, Knit and Natter. Cafe environment","title":"Lakes Christian Centre, Windermere","url":"https://new.cumbria.gov.uk/node/3868"},"type":"Feature"},
		{"geometry":{"coordinates":[-3.07860,54.36915],"type":"Point"},"properties":{"_source":"cumbria_council","contact":"Tel: 01539441442; Email: parish@coniston.info","description":"People are welcome to sit and warm themselves in the bar around a real fire.","title":"Love Consiton, The Sun Hotel, Coniston","url":"https://new.cumbria.gov.uk/node/60677"},"type":"Feature"},
		{"geometry":{"coordinates":[-2.90549,54.37605],"type":"Point"},"properties":{"_source":"cumbria_council","contact":"Tel: 07810430933; Email: socialclub55andup@gmail.com","description":"Community Based Group with Tea, coffee, quizzes and gamesWarm welcome Refreshments -hot drinks/ juice Reading material Quiet areas Homemade hot soup from 12pm to 2pm","title":"Marchesi Centre, Windermere","url":"https://new.cumbria.gov.uk/node/3839"},"type":"Feature"},
		{"geometry":{"coordinates":[-2.91163,54.38897],"type":"Point"},"properties":{"_source":"cumbria_council","contact":"Tel: 015394 88409; Email: debbie.riviere@nationaltrust.org.uk","description":"The Footprint is based within the St.Catherines estate with beautiful woodlands, becks and parkland. We will be offering a warm spot as part of our craft afternoon, so participants should bring a craft to do too.","title":"National Trust - The Footprint, Windermere","url":"https://new.cumbria.gov.uk/node/30358"},"type":"Feature"},
		{"geometry":{"coordinates":[-2.96659,54.43079],"type":"Point"},"properties":{"_source":"cumbria_council","contact":"Email: reverendjanemarylou@gmail.com","description":"Church opening specifically for this event","title":"St Mary's Church, Ambleside","url":"https://new.cumbria.gov.uk/node/60638"},"type":"Feature"},
		{"geometry":{"coordinates":[-2.81796,54.37810],"type":"Point"},"properties":{"_source":"cumbria_council","contact":"Email: staveleytogether@gmail.com","description":"Warm space, Optional free lunch Opportunity to improve digital literacy using iPadsAn opportunity to chat, information about our village and what is going on, friendly people, magazines and games.","title":"Staveley with Ings Together, Staveley","url":"https://new.cumbria.gov.uk/node/3833"},"type":"Feature"},
		{"geometry":{"coordinates":[-2.90606,54.37676],"type":"Point"},"properties":{"_source":"cumbria_council","description":"Various activities for all ages. Free wi-fi. Public PCs to all members, easy to join. Books and online resources available to members.","title":"Windermere Library","url":"https://new.cumbria.gov.uk/node/3850"},"type":"Feature"},
		{"geometry":{"coordinates":[-2.91741,54.36816],"type":"Point"},"properties":{"_source":"cumbria_council","contact":"Tel: 07521041899","description":"Brew, Biscuits & Company.","title":"Windermere Rugby Union Football Club","url":"https://new.cumbria.gov.uk/node/60890"},"type":"Feature"}
	]
}
