{
	"type": "FeatureCollection",
	"features": [
		{"geometry":{"coordinates":[-2.89230,54.04800],"type":"Point"},"properties":{"_source":"warm_welcome","address":"396 Heysham Road, Heysham, Morecambe LA3 2BJ","description":"Our libraries in Lancashire are all warm, safe and welcome spaces. You don't need to be a member of the library.","hours":{"_text":"Monday: 09:00 - 17:00, Tuesday: 09:00 - 17:00, Wednesday: 09:00 - 13:00, Thursday: 09:00 - 19:00, Friday: 09:00 - 17:00, Saturday: 09:00 - 13:00","opening":"Mo 09:00-17:00; Tu 09:00-17:00; We 09:00-13:00; Th 09:00-19:00; Fr 09:00-17:00; Sa 09:00-13:00"},"title":"Heysham library Lancashire County Council"},"type":"Feature"},
		{"geometry":{"coordinates":[-2.86469,54.07130],"type":"Point"},"properties":{"_source":"warm_welcome","address":"Central Drive, Morecambe, Lancashire LA4 5DL","description":"Our libraries in Lancashire are all warm, safe and welcome spaces. You don't need to be a member of the library.","hours":{"_text":"Monday: 09:00 - 17:00, Tuesday: 13:00 - 19:00, Wednesday: 09:00 - 13:00, Thursday: 09:00 - 17:00, Friday: 09:00 - 17:00, Saturday: 09:00 - 17:00","opening":"Mo 09:00-17:00; Tu 13:00-19:00; We 09:00-13:00; Th 09:00-17:00; Fr 09:00-17:00; Sa 09:00-17:00"},"title":"Morecambe library Lancashire County Council"},"type":"Feature"},
		{"geometry":{"coordinates":[-2.83252,54.06479],"type":"Point"},"properties":{"_source":"warm_welcome","address":"Torrisholme Methodist Church, Norwood Drive, Morecambe LA46LT","description":"Open from September 2022 Warm Spaces . Our focus is supporting people with Neurological Conditions","hours":{"_text":"Monday: 10:00 - 2:00, Tuesday: 10:00 - 2:00, Thursday: 10:00 - 2:00","opening":"Mo 10:00-02:00; Tu 10:00-02:00; Th 10:00-02:00"},"title":"Neuro DropIn"},"type":"Feature"},
		{"geometry":{"coordinates":[-2.88338,54.05885],"type":"Point"},"properties":{"_source":"warm_welcome","address":"131 Balmoral Road, Morecambe, lancashire LA3 1JH","hours":{"_text":"Thursday: 13:00 - 15:00","opening":"Th 13:00-15:00"},"title":"Salvation Army"},"type":"Feature"},
		{"geometry":{"coordinates":[-2.85954,54.07488],"type":"Point"},"properties":{"_source":"warm_welcome","address":"Matthias Street, Morecmabe, Lancaster LA4 5JR","description":"Open from 07/01/2022.","hours":{"_text":"Wednesday: 12:30 - 15:00, Thursday: 12:30 - 15:00","opening":"We 12:30-15:00; Th 12:30-15:00"},"title":"St Mary's Church Hall"},"type":"Feature"},
		{"geometry":{"coordinates":[-2.88476,54.06218],"type":"Point"},"properties":{"_source":"warm_welcome","address":"Stanley Road, Morecambe, Lancashire LA3 1UP","hours":{"_text":"Monday: 9:30 - 12:30","opening":"Mo 09:30-12:30"},"title":"Stanley Road Baptist Church, Morecambe"},"type":"Feature"},
		{"geometry":{"coordinates":[-2.86358,54.07278],"type":"Point"},"properties":{"_source":"warm_welcome","address":"7-9 plaza shopping arcade , Morecambe , Lancashire La4 5yj","description":"We welcome everyone,all ages and abilities A safe warm and creative space","hours":{"_text":"Tuesday: 14:00 - 17:00, Wednesday: 10:00 - 18:00, Friday: 10:00 - 17:00","opening":"Tu 14:00-17:00; We 10:00-18:00; Fr 10:00-17:00"},"title":"WISE UP Workshops cic"},"type":"Feature"},
		{"geometry":{"coordinates":[-3.12317,54.15752],"type":"Point"},"properties":{"_source":"cumbria_council","contact":"Tel: 01229587200; Email: revlucielunn@btinternet.com","description":"Community coffee morning all welcome. Mobile PO available. Friendly and welcoming hosts.","title":"Urswick Church","url":"https://new.cumbria.gov.uk/node/3930"},"type":"Feature"},
		{"geometry":{"coordinates":[-2.88076,54.06474],"type":"Point"},"properties":{"_source":"lancashire_council","address":"MORE MUSIC IN MORECAMBE, 11-17, DEVONSHIRE ROAD, MORECAMBE, LANCASHIRE, LA3 1QT","contact":"Tel: 01524 831997, Email: info@moremusic.org.uk","description":"Arts Organisation","hours":{"_text":"Sundays 1pm - 4pm. There's hot food, live music and a warm and welcoming space. Feel free to come along, under 16's must be accompanied.","opening":"Su 13:00-16:00"},"title":"More Music","url":"http://www.moremusic.org.uk"},"type":"Feature"},
		{"geometry":{"coordinates":[-2.89264,54.04770],"type":"Point"},"properties":{"_source":"lancashire_council","address":"396 HEYSHAM ROAD, HEYSHAM, LA3 2BJ","title":"HEYSHAM LIBRARY"},"type":"Feature"},
		{"geometry":{"coordinates":[-2.86540,54.07123],"type":"Point"},"properties":{"_source":"lancashire_council","address":"CENTRAL DRIVE, MORECAMBE, LA4 5DL","title":"MORECAMBE CENTRAL NEIGHBOURHOOD CENTRE","url":"https://www.lancashire.gov.uk/libraries-and-archives/libraries/find-a-library/morecambe-library/"},"type":"Feature"}
	]
}
