{
	"type": "FeatureCollection",
	"features": [
		{"geometry":{"coordinates":[-2.83252,54.06479],"type":"Point"},"properties":{"_source":"warm_welcome","address":"Torrisholme Methodist Church, Norwood Drive, Morecambe LA46LT","description":"Open from September 2022 Warm Spaces . Our focus is supporting people with Neurological Conditions","hours":{"_text":"Monday: 10:00 - 2:00, Tuesday: 10:00 - 2:00, Thursday: 10:00 - 2:00","opening":"Mo 10:00-02:00; Tu 10:00-02:00; Th 10:00-02:00"},"title":"Neuro DropIn"},"type":"Feature"},
		{"geometry":{"coordinates":[-2.88338,54.05885],"type":"Point"},"properties":{"_source":"warm_welcome","address":"131 Balmoral Road, Morecambe, lancashire LA3 1JH","hours":{"_text":"Thursday: 13:00 - 15:00","opening":"Th 13:00-15:00"},"title":"Salvation Army"},"type":"Feature"},
		{"geometry":{"coordinates":[-2.88476,54.06218],"type":"Point"},"properties":{"_source":"warm_welcome","address":"Stanley Road, Morecambe, Lancashire LA3 1UP","hours":{"_text":"Monday: 9:30 - 12:30","opening":"Mo 09:30-12:30"},"title":"Stanley Road Baptist Church, Morecambe"},"type":"Feature"},
		{"geometry":{"coordinates":[-2.86358,54.07278],"type":"Point"},"properties":{"_source":"warm_welcome","address":"7-9 plaza shopping arcade , Morecambe , Lancashire La4 5yj","description":"We welcome everyone,all ages and abilities A safe warm and creative space","hours":{"_text":"Tuesday: 14:00 - 17:00, Wednesday: 10:00 - 18:00, Friday: 10:00 - 17:00","opening":"Tu 14:00-17:00; We 10:00-18:00; Fr 10:00-17:00"},"title":"WISE UP Workshops cic"},"type":"Feature"},
		{"geometry":{"coordinates":[-2.87524,54.06473],"type":"Point"},"properties":{"_source":"warm_spaces","address":"88 Balmoral Road, Morecambe, England, LA4 4JR","hours":{"_text":"Monday 3pm-5pm","opening":"Mo 15:00-17:00"},"title":"Gods Kitchen","url":"www.lwcf-heysham.church"},"type":"Feature"},
		{"geometry":{"coordinates":[-2.86900,54.07249],"type":"Point"},"properties":{"_source":"warm_spaces","address":"Morecambe Hire The Consult Centre , Morecambe, England, LA4 4BQ","hours":{"_text":"Monday-Friday, 8.30am-6pm ","opening":"Mo-Fr 08:30-18:00"},"title":"Morecambe Hire The Consult Centre","url":"https://Www.morecambehire.com"},"type":"Feature"},
		{"geometry":{"coordinates":[-3.12317,54.15752],"type":"Point"},"properties":{"_source":"cumbria_council","contact":"Tel: 01229587200; Email: revlucielunn@btinternet.com","description":"Community coffee morning all welcome. Mobile PO available. Friendly and welcoming hosts.","hours":{},"title":"Urswick Church","url":"https://new.cumbria.gov.uk/node/3930"},"type":"Feature"}
	]
}
