{
	"type": "FeatureCollection",
	"features": [
		{"geometry":{"coordinates":[-2.83252,54.06479],"type":"Point"},"properties":{"_source":"warm_welcome","address":"Torrisholme Methodist Church, Norwood Drive, Morecambe LA46LT","description":"Open from September 2022 Warm Spaces . Our focus is supporting people with Neurological Conditions","hours":{"_text":"Monday: 10:00 - 2:00, Tuesday: 10:00 - 2:00, Thursday: 10:00 - 2:00","opening":"Mo 10:00-02:00; Tu 10:00-02:00; Th 10:00-02:00"},"title":"Neuro DropIn"},"type":"Feature"},
		{"geometry":{"coordinates":[-2.88338,54.05885],"type":"Point"},"properties":{"_source":"warm_welcome","address":"131 Balmoral Road, Morecambe, lancashire LA3 1JH","hours":{"_text":"Thursday: 13:00 - 15:00","opening":"Th 13:00-15:00"},"title":"Salvation Army"},"type":"Feature"},
		{"geometry":{"coordinates":[-2.85954,54.07488],"type":"Point"},"properties":{"_source":"warm_welcome","address":"Matthias Street, Morecmabe, Lancaster LA4 5JR","description":"Open from 07/01/2022.","hours":{"_text":"Wednesday: 12:30 - 15:00, Thursday: 12:30 - 15:00","opening":"We 12:30-15:00; Th 12:30-15:00"},"title":"St Mary's Church Hall"},"type":"Feature"},
		{"geometry":{"coordinates":[-2.88476,54.06218],"type":"Point"},"properties":{"_source":"warm_welcome","address":"Stanley Road, Morecambe, Lancashire LA3 1UP","hours":{"_text":"Monday: 9:30 - 12:30","opening":"Mo 09:30-12:30"},"title":"Stanley Road Baptist Church, Morecambe"},"type":"Feature"},
		{"geometry":{"coordinates":[-2.86358,54.07278],"type":"Point"},"properties":{"_source":"warm_welcome","address":"7-9 plaza shopping arcade , Morecambe , Lancashire La4 5yj","description":"We welcome everyone,all ages and abilities A safe warm and creative space","hours":{"_text":"Tuesday: 14:00 - 17:00, Wednesday: 10:00 - 18:00, Friday: 10:00 - 17:00","opening":"Tu 14:00-17:00; We 10:00-18:00; Fr 10:00-17:00"},"title":"WISE UP Workshops cic"},"type":"Feature"},
		{"geometry":{"coordinates":[-2.87524,54.06473],"type":"Point"},"properties":{"_source":"warm_spaces","address":"88 Balmoral Road, Morecambe, England, LA4 4JR","hours":{"_text":"Monday 3pm-5pm","opening":"Mo 15:00-17:00"},"title":"Gods Kitchen","url":"www.lwcf-heysham.church"},"type":"Feature"},
		{"geometry":{"coordinates":[-2.86900,54.07249],"type":"Point"},"properties":{"_source":"warm_spaces","address":"Morecambe Hire The Consult Centre , Morecambe, England, LA4 4BQ","hours":{"_text":"Monday-Friday, 8.30am-6pm ","opening":"Mo-Fr 08:30-18:00"},"title":"Morecambe Hire The Consult Centre","url":"https://Www.morecambehire.com"},"type":"Feature"},
		{"geometry":{"coordinates":[-3.12317,54.15752],"type":"Point"},"properties":{"_source":"cumbria_council","contact":"Tel: 01229587200; Email: revlucielunn@btinternet.com","description":"Community coffee morning all welcome. Mobile PO available. Friendly and welcoming hosts.","hours":{},"title":"Urswick Church","url":"https://new.cumbria.gov.uk/node/3930"},"type":"Feature"},
		{"geometry":{"coordinates":[-2.87801,54.06451],"type":"Point"},"properties":{"_source":"lancashire_council","address":"St Barnabas Church Regent Road Morecambe LA3 1TF","contact":"Tel: 01524 941521, Email: westendpriest@gmail.com","description":"Parish Church of the West End of Morecambe\nCommunity Centre (attached to the church building) which provides essential services for local residents (Homeless Action, The Well Communities, Alcoholics Anonymous)","hours":{"_text":"Sunday 9.00am - 12 noon (Sunday Service at 10.00am)\n\nWednesday 9.00am - 10.30am\n\nFriday 9:00am -1.00pm\n\nAnd at other times during the week (no fixed pattern at present)\n\n","opening":"Su 09:00-12:00; We 09:00-10:30; Fr 09:00-13:00"},"title":"St Barnabas Church and Community Centre"},"type":"Feature"},
		{"geometry":{"coordinates":[-2.88314,54.06125],"type":"Point"},"properties":{"_source":"lancashire_council","address":"STANLEYS YOUTH AND COMMUNITY CENTRE, 79-83, STANLEY ROAD, HEYSHAM, LANCASHIRE, LA3 1UT","contact":"Tel: 01524410076, Email: Stanleyscommunitycentre.info@gmail.com","description":"Community centre","hours":{"_text":"Monday - Friday 9am till 3pm ","opening":"Mo-Fr 09:00-12:00"},"title":"Stanleys community centre","url":"http://www.stanleyscommunitycentre.co.uk"},"type":"Feature"},
		{"geometry":{"coordinates":[-2.83464,54.06531],"type":"Point"},"properties":{"_source":"lancashire_council","address":"TORRISHOLME METHODIST CHURCH, NORWOOD DRIVE, MORECAMBE, LANCASHIRE, LA4 6LT","contact":"Tel: 07920326307, Email: torrisholmemethodist@gmail.com","description":"Church and Community Centre","hours":{"_text":"10 to 2pm\n\nMonday....Tuesday.....Thursday"},"title":"Torrisholme Methodist Churc h","url":"ww.torrisholmemethodist church.org"},"type":"Feature"},
		{"geometry":{"coordinates":[-2.88593,54.06454],"type":"Point"},"properties":{"_source":"lancashire_council","address":"WEST END IMPACT, 4-10, HEYSHAM ROAD, HEYSHAM, LANCASHIRE, LA3 1DG","contact":"Tel: 01524 888929, Email: info@westendimpact.org.uk","description":"Christian Charity","hours":{"_text":"Thursday 10 am - 1 pm","opening":"Th 10:00-13:00"},"title":"West End Impact","url":"http://www.westendimpact.org.uk"},"type":"Feature"},
		{"geometry":{"coordinates":[-2.89264,54.04770],"type":"Point"},"properties":{"_source":"lancashire_council","address":"396 HEYSHAM ROAD, HEYSHAM, LA3 2BJ","hours":{},"title":"HEYSHAM LIBRARY"},"type":"Feature"},
		{"geometry":{"coordinates":[-2.86540,54.07123],"type":"Point"},"properties":{"_source":"lancashire_council","address":"CENTRAL DRIVE, MORECAMBE, LA4 5DL","hours":{},"title":"MORECAMBE CENTRAL NEIGHBOURHOOD CENTRE","url":"https://www.lancashire.gov.uk/libraries-and-archives/libraries/find-a-library/morecambe-library/"},"type":"Feature"}
	]
}
