{
	"type": "FeatureCollection",
	"features": [
		{"geometry":{"coordinates":[-2.85270,51.43581],"type":"Point"},"properties":{"_source":"warm_welcome","address":"Station Road, Clevedon, North Somerset BS21 6NH","description":"SPACE OPENING ON 6th November 2023** A warm and welcoming space for people of all ages. People to chat with and delicious refreshments.","hours":{"_text":"Monday: 10:00 - 16:00","opening":"Mo 10:00-16:00"},"title":"Clevedon Baptist Church"},"type":"Feature"},
		{"geometry":{"coordinates":[-3.12817,51.50419],"type":"Point"},"properties":{"_source":"warm_welcome","address":"Brachdy House, Cardiff, Caerdydd CF3 3BG","description":"A place you enter as strangers and leave as friends. Warm, friendly and welcoming","hours":{"_text":"Monday: 09:00 - 02:00, Tuesday: 09:00 - 02:00, Wednesday: 09:00 - 02:00, Thursday: 09:00 - 02:00, Friday: 09:00 - 12:00","opening":"Mo 09:00-02:00; Tu 09:00-02:00; We 09:00-02:00; Th 09:00-02:00; Fr 09:00-12:00"},"title":"Rumney Forum Community"},"type":"Feature"},
		{"geometry":{"coordinates":[-2.98002,51.59913],"type":"Point"},"properties":{"_source":"warm_welcome","address":"St Julians Methodist Church, St Julians Avenue, NEWPORT, GWENT NP19 7JT NP19 7JT","description":"SPACE OPENING ON 4th November 2023** Open from 10:00am to 2:00pm every Saturday from November to March 2024. Free tea, coffee, cake and biscuits from 10:00am with soup and a roll provided from 12noon.","hours":{"_text":"Thursday: 10:30 - 12:00, Saturday: 10:00 - 14:00","opening":"Th 10:30-12:00; Sa 10:00-14:00"},"title":"Simon David Oram"},"type":"Feature"},
		{"geometry":{"coordinates":[-3.15300,51.48357],"type":"Point"},"properties":{"_source":"warm_welcome","address":"S T A R Recreation & Community Centre, South Glamorgan CF24 2BZ","description":"The space is accessible and open to all.","hours":{"_text":"Monday: 10:00 - 12:00, Wednesday: 10:00 - 12:00, Thursday: 08:30 - 10:30, Friday: 10:00 - 12:00","opening":"Mo 10:00-12:00; We 10:00-12:00; Th 08:30-10:30; Fr 10:00-12:00"},"title":"Splott Community Volunteers"},"type":"Feature"},
		{"geometry":{"coordinates":[-2.87438,51.43168],"type":"Point"},"properties":{"_source":"warm_welcome","address":"St. Andrews Church Centre, Avon BS21 7UF","description":"Church community space","hours":{"_text":"Friday: 12:00 - 15:00","opening":"Fr 12:00-15:00"},"title":"St Andrews Church Centre"},"type":"Feature"},
		{"geometry":{"coordinates":[-2.96790,51.60067],"type":"Point"},"properties":{"_source":"warm_welcome","address":"33 Beaufort Road, Gwent NP19 7PZ","description":"Space is open on Mondays 2.30 to 5pm for hot drinks and cake and light refreshments","hours":{"_text":"Monday: 14:30 - 17:00","opening":"Mo 14:30-17:00"},"title":"St Julians Baptist Church Newport"},"type":"Feature"},
		{"geometry":{"coordinates":[-3.15300,51.48357],"type":"Point"},"properties":{"_source":"warm_welcome","address":"S T A R Recreation & Community Centre, South Glamorgan CF24 2BZ","description":"A warm, welcoming, space for all","title":"STAR Centre, Splott Road, Cardiff CF24 2BZ"},"type":"Feature"},
		{"geometry":{"coordinates":[-3.00463,51.58305],"type":"Point"},"properties":{"_source":"warm_welcome","address":"Stow Park Community Centre, Newport, Newport NP20 4FX","description":"TUESDAYS - Art (£1) and beans on toast (free) Pop in try some art and join us for beans on toast lunch. We have a lovely café area where you can help yourself to free tea and coffee, meet people and chat. WEDNESDAYS - Two-course Community lunch (free or donation)","hours":{"_text":"Tuesday: 10:30 - 13:30, Wednesday: 12:30 - 14:00","opening":"Tu 10:30-13:30; We 12:30-14:00"},"title":"Stow Park Warm Hub"},"type":"Feature"},
		{"geometry":{"coordinates":[-3.12813,51.50413],"type":"Point"},"properties":{"_source":"warm_welcome","address":"Rumney Gospel Chapel, Brachdy Road, Rumney, Cardiff CF3 3BG","description":"Drop in any time for a warm welcome to a warm space.","hours":{"_text":"Monday: 09:00 - 17:00, Wednesday: 09:00 - 15:00, Friday: 09:00 - 15:00, Sunday: 09:00 - 11:00","opening":"Mo 09:00-17:00; We 09:00-15:00; Fr 09:00-15:00; Su 09:00-11:00"},"title":"The Living Room"},"type":"Feature"},
		{"geometry":{"coordinates":[-2.97507,51.58848],"type":"Point"},"properties":{"_source":"warm_welcome","address":"25 Eveswell Street, Gwent NP19 8EP","description":"Community rooms in Eveswell in Newport","hours":{"_text":"Friday: Closed - 01:24"},"title":"Toc H Eveswell Community Hub"},"type":"Feature"},
		{"geometry":{"coordinates":[-3.11052,51.51639],"type":"Point"},"properties":{"_source":"warm_welcome","address":"Trowbridge Community Centre, Cardiff, South Glamorgan CF3 1TN","description":"Our focus is on people in need in Trowbridge, but all are welcome! Our Warm Space is a friendly extra to our community pantry. Everyone is welcome to come and keep warm and safe, meet new people and enjoy hot drinks and refreshments.","hours":{"_text":"Friday: 10:00 - 14:00","opening":"Fr 10:00-14:00"},"title":"Trowbridge Pantry"},"type":"Feature"},
		{"geometry":{"coordinates":[-2.98078,51.59850],"type":"Point"},"properties":{"_source":"warm_spaces","address":"1 Saint Julian&#39;s Avenue, Newport, Wales, NP19 7JT, United Kingdom","description":"Free Food/Drink, Free Wi-Fi, People to chat to, Wheelchair Accessible, Toilets, Accessible Toilet","hours":{"_text":"Saturday 10am-2pm","opening":"Sa 10:00-14:00"},"title":"St Julians Methodist Church","url":"https://stjuliansmethodist.wixsite.com/st-julians"},"type":"Feature"},
		{"geometry":{"coordinates":[-3.11249,51.52924],"type":"Point"},"properties":{"_source":"warm_spaces","address":"Tyr Winch Road, Cardiff, Wales, CF3, United Kingdom","description":"Free Food/Drink, Free Wi-Fi, People to chat to, Wheelchair Accessible, Toilets, Accessible Toilet, Parking, Child Friendly","hours":{"_text":"Tuesday 12.30pm-3.00pm","opening":"Tu 12:30-15:00"},"title":"St Mellons Baptist Church","url":"https://www.stmellonsbaptist.church"},"type":"Feature"},
		{"geometry":{"coordinates":[-3.10270,51.52545],"type":"Point"},"properties":{"_source":"warm_spaces","address":"4 Crickhowell Road, Cardiff, Wales, CF3 0EF, United Kingdom","description":"Free Food/Drink, Device Charging, People to chat to, Toilets, Accessible Toilet, Parking, Child Friendly, Games","hours":{"_text":"Sunday 3pm-5pm","opening":"Su 15:00-17:00"},"title":"Church of the Resurrection St Mellons 'Warm Space Sunday Afternoons'","url":"https://www.cotr.org.uk"},"type":"Feature"},
		{"geometry":{"coordinates":[-2.85677,51.43535],"type":"Point"},"properties":{"_source":"warm_spaces","address":"Coleridge Vale Road North, Clevedon, England, BS21, United Kingdom","description":"Free Wi-Fi, Device Charging, People to chat to, Wheelchair Accessible, Toilets, Parking, Hot Drinks, Cuppa-soup and biscuits","hours":{"_text":"Tuesday 10.30am-2pm","opening":"Tu 10:30-14:00"},"title":"Clevedon Christadelphian Church","url":"https://www.readthebible.org.uk"},"type":"Feature"},
		{"geometry":{"coordinates":[-2.85264,51.42876],"type":"Point"},"properties":{"_source":"warm_spaces","address":"Kenn Road, Clevedon, England, BS21 6LH, United Kingdom","description":"Free Food/Drink, People to chat to, Wheelchair Accessible, Toilets, Accessible Toilet, Parking, Child Friendly","hours":{"_text":"Monday 10am-12pm","opening":"Mo 10:00-12:00"},"title":"Cafe4U at Kenn Road Methodist Church","url":"https://www.kennroadmethodist.co.uk"},"type":"Feature"},
		{"geometry":{"coordinates":[-3.12693,51.50422],"type":"Point"},"properties":{"_source":"warm_spaces","address":"Brachdy Road, Cardiff, Wales, CF3 3BG, United Kingdom","description":"Free Food/Drink, Free Wi-Fi, Device Charging, Advice, People to chat to, Space to work, Wheelchair Accessible, Toilets, Accessible Toilet, Parking, Child Friendly","hours":{"_text":"7am-5pm"},"title":"The Living Room","url":"https://www.rumneychapel.org/thelivingroom"},"type":"Feature"},
		{"geometry":{"coordinates":[-2.99621,51.58735],"type":"Point"},"properties":{"_source":"warm_spaces","address":"174 Commercial Street, Newport, Wales, NP20 1JN, United Kingdom","description":"Free Wi-Fi, Device Charging, People to chat to, Space to work, Food/Drink for sale, Wheelchair Accessible, Toilets, Accessible Toilet, Child Friendly","hours":{"_text":"Mon-Fri 12pm-10pm, Sat 10am-10pm, Sun 11am- 8pm","opening":"Mo-Fr 12:00-22:00; Sa 10:00-22:00; Su 11:00-20:00"},"title":"Geek Retreat Newport","url":"https://www.facebook.com/GeekRetreatNewport"},"type":"Feature"},
		{"geometry":{"coordinates":[-3.12693,51.50422],"type":"Point"},"properties":{"_source":"warm_spaces","address":"Brachdy Road, Cardiff, Wales, CF3 3BG, United Kingdom","description":"Free Food/Drink, Free Wi-Fi, Device Charging, Advice, People to chat to, Space to work, Wheelchair Accessible, Toilets, Accessible Toilet, Parking, Child Friendly","hours":{"_text":"Open 7 days a week - More details on our website"},"title":"The Living Room","url":"https://www.rumneychapel.org/thelivingroom"},"type":"Feature"},
		{"geometry":{"coordinates":[-3.12747,51.50403],"type":"Point"},"properties":{"_source":"warm_spaces","address":"Brachdy House, 50 Brachdy Road, Cardiff, Wales, CF3 3BG, United Kingdom","hours":{"_text":"9am-2pm"},"title":"Rumney Forum"},"type":"Feature"}
	]
}
