{
	"type": "FeatureCollection",
	"features": [
		{"geometry":{"coordinates":[-2.87438,51.43168],"type":"Point"},"properties":{"_source":"warm_welcome","address":"St. Andrews Church Centre, Avon BS21 7UF","description":"Church community space","hours":{"_text":"Friday: 12:00 - 15:00","opening":"Fr 12:00-15:00"},"title":"St Andrews Church Centre"},"type":"Feature"},
		{"geometry":{"coordinates":[-2.96790,51.60067],"type":"Point"},"properties":{"_source":"warm_welcome","address":"33 Beaufort Road, Gwent NP19 7PZ","description":"Space is open on Mondays 2.30 to 5pm for hot drinks and cake and light refreshments","hours":{"_text":"Monday: 14:30 - 17:00","opening":"Mo 14:30-17:00"},"title":"St Julians Baptist Church Newport"},"type":"Feature"},
		{"geometry":{"coordinates":[-3.15300,51.48357],"type":"Point"},"properties":{"_source":"warm_welcome","address":"S T A R Recreation & Community Centre, South Glamorgan CF24 2BZ","description":"A warm, welcoming, space for all","title":"STAR Centre, Splott Road, Cardiff CF24 2BZ"},"type":"Feature"},
		{"geometry":{"coordinates":[-2.98078,51.59850],"type":"Point"},"properties":{"_source":"warm_spaces","address":"1 Saint Julian&#39;s Avenue, Newport, Wales, NP19 7JT, United Kingdom","description":"Free Food/Drink, Free Wi-Fi, People to chat to, Wheelchair Accessible, Toilets, Accessible Toilet","hours":{"_text":"Saturday 10am-2pm","opening":"Sa 10:00-14:00"},"title":"St Julians Methodist Church","url":"https://stjuliansmethodist.wixsite.com/st-julians"},"type":"Feature"},
		{"geometry":{"coordinates":[-3.11249,51.52924],"type":"Point"},"properties":{"_source":"warm_spaces","address":"Tyr Winch Road, Cardiff, Wales, CF3, United Kingdom","description":"Free Food/Drink, Free Wi-Fi, People to chat to, Wheelchair Accessible, Toilets, Accessible Toilet, Parking, Child Friendly","hours":{"_text":"Tuesday 12.30pm-3.00pm","opening":"Tu 12:30-15:00"},"title":"St Mellons Baptist Church","url":"https://www.stmellonsbaptist.church"},"type":"Feature"},
		{"geometry":{"coordinates":[-3.10270,51.52545],"type":"Point"},"properties":{"_source":"warm_spaces","address":"4 Crickhowell Road, Cardiff, Wales, CF3 0EF, United Kingdom","description":"Free Food/Drink, Device Charging, People to chat to, Toilets, Accessible Toilet, Parking, Child Friendly, Games","hours":{"_text":"Sunday 3pm-5pm","opening":"Su 15:00-17:00"},"title":"Church of the Resurrection St Mellons 'Warm Space Sunday Afternoons'","url":"https://www.cotr.org.uk"},"type":"Feature"},
		{"geometry":{"coordinates":[-2.85677,51.43535],"type":"Point"},"properties":{"_source":"warm_spaces","address":"Coleridge Vale Road North, Clevedon, England, BS21, United Kingdom","description":"Free Wi-Fi, Device Charging, People to chat to, Wheelchair Accessible, Toilets, Parking, Hot Drinks, Cuppa-soup and biscuits","hours":{"_text":"Tuesday 10.30am-2pm","opening":"Tu 10:30-14:00"},"title":"Clevedon Christadelphian Church","url":"https://www.readthebible.org.uk"},"type":"Feature"},
		{"geometry":{"coordinates":[-2.85264,51.42876],"type":"Point"},"properties":{"_source":"warm_spaces","address":"Kenn Road, Clevedon, England, BS21 6LH, United Kingdom","description":"Free Food/Drink, People to chat to, Wheelchair Accessible, Toilets, Accessible Toilet, Parking, Child Friendly","hours":{"_text":"Monday 10am-12pm","opening":"Mo 10:00-12:00"},"title":"Cafe4U at Kenn Road Methodist Church","url":"https://www.kennroadmethodist.co.uk"},"type":"Feature"},
		{"geometry":{"coordinates":[-3.12693,51.50422],"type":"Point"},"properties":{"_source":"warm_spaces","address":"Brachdy Road, Cardiff, Wales, CF3 3BG, United Kingdom","description":"Free Food/Drink, Free Wi-Fi, Device Charging, Advice, People to chat to, Space to work, Wheelchair Accessible, Toilets, Accessible Toilet, Parking, Child Friendly","hours":{"_text":"7am-5pm"},"title":"The Living Room","url":"https://www.rumneychapel.org/thelivingroom"},"type":"Feature"},
		{"geometry":{"coordinates":[-2.99621,51.58735],"type":"Point"},"properties":{"_source":"warm_spaces","address":"174 Commercial Street, Newport, Wales, NP20 1JN, United Kingdom","description":"Free Wi-Fi, Device Charging, People to chat to, Space to work, Food/Drink for sale, Wheelchair Accessible, Toilets, Accessible Toilet, Child Friendly","hours":{"_text":"Mon-Fri 12pm-10pm, Sat 10am-10pm, Sun 11am- 8pm","opening":"Mo-Fr 12:00-22:00; Sa 10:00-22:00; Su 11:00-20:00"},"title":"Geek Retreat Newport","url":"https://www.facebook.com/GeekRetreatNewport"},"type":"Feature"},
		{"geometry":{"coordinates":[-3.12693,51.50422],"type":"Point"},"properties":{"_source":"warm_spaces","address":"Brachdy Road, Cardiff, Wales, CF3 3BG, United Kingdom","description":"Free Food/Drink, Free Wi-Fi, Device Charging, Advice, People to chat to, Space to work, Wheelchair Accessible, Toilets, Accessible Toilet, Parking, Child Friendly","hours":{"_text":"Open 7 days a week - More details on our website"},"title":"The Living Room","url":"https://www.rumneychapel.org/thelivingroom"},"type":"Feature"},
		{"geometry":{"coordinates":[-3.12747,51.50403],"type":"Point"},"properties":{"_source":"warm_spaces","address":"Brachdy House, 50 Brachdy Road, Cardiff, Wales, CF3 3BG, United Kingdom","hours":{"_text":"9am-2pm"},"title":"Rumney Forum"},"type":"Feature"}
	]
}
