{
	"type": "FeatureCollection",
	"features": [
		{"geometry":{"coordinates":[-3.09208,51.60663],"type":"Point"},"properties":{"_source":"warm_welcome","address":"Channel View Community Centre, Hafod-y-Bryn Hall, Risca, Caerphilly NP11 6LL","description":"Thursday mornings, 9:30am-12.30pm. All ages welcome. Free hot drinks and refreshments. Crafts, table top games, books, jigsaws, quiet space, play equipment for toddlers and babies.","hours":{"_text":"Thursday: 9:30 - 12:30","opening":"Th 09:30-12:30"},"title":"Agape Community Church Ty Sign"},"type":"Feature"},
		{"geometry":{"coordinates":[-3.15476,51.48821],"type":"Point"},"properties":{"_source":"warm_welcome","address":"88-92 Broadway , Adamsdown, Cardiff CF24 1NH","description":"Open from 10/12/2022.","hours":{"_text":"Monday: 11:30 - 16:30, Tuesday: 11:30 - 16:30, Wednesday: 11:30 - 16:30, Thursday: 11:30 - 16:30","opening":"Mo 11:30-16:30; Tu 11:30-16:30; We 11:30-16:30; Th 11:30-16:30"},"title":"Al-Ikhlas Centre"},"type":"Feature"},
		{"geometry":{"coordinates":[-3.16139,51.49371],"type":"Point"},"properties":{"_source":"warm_welcome","address":"Albany Road Baptist Church, Albany Road, Roath, Cardiff, South Glamorgan CF24 3NU","description":"Everyone Welcome We provide a pop up cafe where you pay what you feel, if you can't afford to pay that's fine as well. Fresh ground coffee, tea, hot chocolate and biscuits","hours":{"_text":"Wednesday: 09:30 - 11:00, Thursday: 10:00 - 12:30","opening":"We 09:30-11:00; Th 10:00-12:30"},"title":"Albany Road Baptist Church"},"type":"Feature"},
		{"geometry":{"coordinates":[-3.04748,51.59059],"type":"Point"},"properties":{"_source":"warm_welcome","address":"Cefn Road, Rogerstone , Newport NP10 9AS","description":"Open from 11 11 2022. All are welcome we offer free hot drinks and free soup and toasted sandwich","hours":{"_text":"Friday: 11:30 - 14:30","opening":"Fr 11:30-14:30"},"title":"Bethesda baptist Church"},"type":"Feature"},
		{"geometry":{"coordinates":[-3.09980,51.60630],"type":"Point"},"properties":{"_source":"warm_welcome","address":"75 Tredegar Street, Risca, Newport NP11 6BW","description":"Everyone welcome Lunch time closure between 13:00 - 14:00 week days Saturday open all day.","hours":{"_text":"Monday: 9:30 - 18:00 / -, Tuesday: 9:30 - 17:00 / -, Wednesday: 9:30 - 18:00 / -, Thursday: 9:30 - 17:00 / -, Friday: 9:30 - 17:00 / -, Saturday: 9:30 - 16:00 / -","opening":"Mo 09:30-18:00; Tu 09:30-17:00; We 09:30-18:00; Th 09:30-17:00; Fr 09:30-17:00; Sa 09:30-16:00"},"title":"Caerphilly Borough Council"},"type":"Feature"},
		{"geometry":{"coordinates":[-3.15487,51.47347],"type":"Point"},"properties":{"_source":"warm_welcome","address":"Tolven Court, Cardiff, Select your county CF24 5LQ","description":"Open from 09-12-2022.","hours":{"_text":"Thursday: 11:00 - 15:00, Friday: 12:00 - 16:00","opening":"Th 11:00-15:00; Fr 12:00-16:00"},"title":"Cardiff Community Housing Association-Trowbridge Gardening Club"},"type":"Feature"},
		{"geometry":{"coordinates":[-3.04674,51.58450],"type":"Point"},"properties":{"_source":"warm_welcome","address":"3 Thornbury Park, Rogerstone, Newport NP10 9DP","description":"Open from 07 11 2022. all are welcome we offer free hot drinks we also offer free soup and toasted sandwich","hours":{"_text":"Monday: 11:30 - 14:30","opening":"Mo 11:30-14:30"},"title":"Cefn Wood Baptist church"},"type":"Feature"},
		{"geometry":{"coordinates":[-2.85270,51.43581],"type":"Point"},"properties":{"_source":"warm_welcome","address":"Station Road, Clevedon, North Somerset BS216NH","hours":{"_text":"Monday: 10:00 - 16:00","opening":"Mo 10:00-16:00"},"title":"Clevedon Baptist Church"},"type":"Feature"},
		{"geometry":{"coordinates":[-2.85682,51.43539],"type":"Point"},"properties":{"_source":"warm_welcome","address":"Coleridge Vale Road North, Clevedon, North Somerset BS21 6NL","description":"Not open 27th December","hours":{"_text":"Tuesday: 10:30 - 14:00","opening":"Tu 10:30-14:00"},"title":"Clevedon Christadelphian Church"},"type":"Feature"},
		{"geometry":{"coordinates":[-2.85507,51.43599],"type":"Point"},"properties":{"_source":"warm_welcome","address":"37 Old Church Road , Clevedon BS21 6NN","hours":{"_text":"Monday: 09:30 - 17:00, Tuesday: 09:30 - 17:00, Friday: 09:30 - 17:00, Saturday: 09:30 - 13:00","opening":"Mo 09:30-17:00; Tu 09:30-17:00; Fr 09:30-17:00; Sa 09:30-13:00"},"title":"Clevedon Library"},"type":"Feature"},
		{"geometry":{"coordinates":[-3.15856,51.51282],"type":"Point"},"properties":{"_source":"warm_welcome","address":"Circle Way West, Llanedeyrn, Cardiff CF23 6UW","hours":{"_text":"Friday: 10:00 - 14:00","opening":"Fr 10:00-14:00"},"title":"Glenwood Church Centre and Wellbeing Space"},"type":"Feature"},
		{"geometry":{"coordinates":[-3.15378,51.48269],"type":"Point"},"properties":{"_source":"warm_welcome","address":"Railway Gardens, End of Adeline Street , Splott, Cardiff CF24 2BH","description":"Open from Wednesday mornings & Thursday afternoons: Please check railwaygardens.co.uk for full details.. Everyone is welcome We are a fully wheelchair accessible site with accessible toilet. On arrival please turn left as you enter the site and follow the path to the end of the row of containers to find us! Hot drinks and biscuits/ cake are available and free during sessions.","hours":{"_text":"Wednesday: 10:30 - 12:30, Thursday: 2:00 - 4:00, Saturday: 10:00 - 12:00","opening":"We 10:30-12:30; Th 02:00-04:00; Sa 10:00-12:00"},"title":"Green Squirrel CIC"},"type":"Feature"},
		{"geometry":{"coordinates":[-3.09651,51.51754],"type":"Point"},"properties":{"_source":"warm_welcome","address":"Beacon Centre, Harrison Drive, St Mellons, Cardiff CF3 0PJ","description":"Free hot drinks and cake, crafts, table-top games and a warm welcome for all!","hours":{"_text":"Tuesday: 10:00 - 13:00, Wednesday: 10:00 - 12:00","opening":"Tu 10:00-13:00; We 10:00-12:00"},"title":"Hope St Mellons"},"type":"Feature"},
		{"geometry":{"coordinates":[-2.84900,51.43506],"type":"Point"},"properties":{"_source":"warm_welcome","address":"Kenn Rd, , Clevedon , N Somerset BS21 6HL","hours":{"_text":"Monday: 10:00 - 12:00","opening":"Mo 10:00-12:00"},"title":"Kenn Road Methodist Church"},"type":"Feature"},
		{"geometry":{"coordinates":[-3.11970,51.52188],"type":"Point"},"properties":{"_source":"warm_welcome","address":"Countisbury Avenue, Cardiff, Cardiff CF3 5NQ","hours":{"_text":"Monday: 09:00 - 18:00 / -, Tuesday: 09:00 - 18:00 / -, Wednesday: 09:00 - 18:00 / -, Thursday: 09:00 - 18:00 / -, Friday: 10:00 - 19:00 / -, Saturday: 09:00 - 17:30 / -","opening":"Mo 09:00-18:00; Tu 09:00-18:00; We 09:00-18:00; Th 09:00-18:00; Fr 10:00-19:00; Sa 09:00-17:30"},"title":"Llanrumney Hub"},"type":"Feature"},
		{"geometry":{"coordinates":[-3.14423,51.59494],"type":"Point"},"properties":{"_source":"warm_welcome","address":"Machen Library, Machen, CCBC CF83 8ND","hours":{"_text":"Tuesday: 09:30 - 13:00 / 14:00 - 18:00, Thursday: 14:00 - 18:00, Saturday: 09:30 - 13:00","opening":"Tu 09:30-13:00,14:00-18:00; Th 14:00-18:00; Sa 09:30-13:00"},"title":"Machen Library"},"type":"Feature"},
		{"geometry":{"coordinates":[-2.98252,51.59042],"type":"Point"},"properties":{"_source":"warm_welcome","address":"79 Chepstow Road, Newport, Newport NP19 8BY","description":"Open from Saturday 3rd December 2022.","hours":{"_text":"Monday: 14:00 - 17:00, Wednesday: 10:00 - 17:00, Friday: 14:00 - 17:00, Saturday: 10:00 - 13:00","opening":"Mo 14:00-17:00; We 10:00-17:00; Fr 14:00-17:00; Sa 10:00-13:00"},"title":"Maindee Library"},"type":"Feature"},
		{"geometry":{"coordinates":[-3.15018,51.48288],"type":"Point"},"properties":{"_source":"warm_welcome","address":"69b Splott Road, Cardiff CF24 2BW","description":"We cater for refugees and asylum seekers.","hours":{"_text":"Saturday: 12:30 - 16:30","opening":"Sa 12:30-16:30"},"title":"Oasis Cardiff"},"type":"Feature"},
		{"geometry":{"coordinates":[-3.16007,51.50108],"type":"Point"},"properties":{"_source":"warm_welcome","address":"Penylan road, Penylan, Cardiff CF23 5HW","description":"Open from 10-10-2022.","hours":{"_text":"Monday: 10:00 - 19:00, Tuesday: 9:00 - 18:00, Wednesday: 9:00 - 18:00, Thursday: 9:00 - 18:00, Friday: 9:00 - 18:00, Saturday: 9:00 - 17:30","opening":"Mo 10:00-19:00; Tu 09:00-18:00; We 09:00-18:00; Th 09:00-18:00; Fr 09:00-18:00; Sa 09:00-17:30"},"title":"Penylan Library & Community Centre"},"type":"Feature"},
		{"geometry":{"coordinates":[-3.15235,51.51285],"type":"Point"},"properties":{"_source":"warm_welcome","address":"Powerhouse Hub, Roundwood , Cardiff CF23 9PN","hours":{"_text":"Monday: 9:00 - 18:00, Tuesday: 9:00 - 18:00, Wednesday: 10:00 - 19:00, Thursday: 9:00 - 18:00, Friday: 9:00 - 18:00, Saturday: 9:00 - 17:30","opening":"Mo 09:00-18:00; Tu 09:00-18:00; We 10:00-19:00; Th 09:00-18:00; Fr 09:00-18:00; Sa 09:00-17:30"},"title":"Powerhouse Hub"},"type":"Feature"},
		{"geometry":{"coordinates":[-3.12813,51.50413],"type":"Point"},"properties":{"_source":"warm_welcome","address":"Brachdy House, 50 Brachdy Road, Rumney , Cardiff CF3 3BG","hours":{"_text":"Monday: 09:00 - 14:00, Tuesday: 09:00 - 14:00, Wednesday: 09:00 - 14:00, Thursday: 09:00 - 14:00, Friday: 09:00 - 14:00","opening":"Mo 09:00-14:00; Tu 09:00-14:00; We 09:00-14:00; Th 09:00-14:00; Fr 09:00-14:00"},"title":"Rumney Forum"},"type":"Feature"},
		{"geometry":{"coordinates":[-3.12813,51.50413],"type":"Point"},"properties":{"_source":"warm_welcome","address":"Rumney Gospel Chapel, Brachdy Road, Rumney, Cardiff CF3 3BG","description":"Open from 26/11/2022. Drop in any time for a warm welcome to a warm space.","hours":{"_text":"Monday: 07:00 - 17:00, Tuesday: 07:00 - 19:00, Wednesday: 07:00 - 19:00, Thursday: 07:00 - 17:00, Friday: 07:00 - 17:00, Saturday: 09:00 - 15:00, Sunday: 11:30 - 15:00","opening":"Mo 07:00-17:00; Tu 07:00-19:00; We 07:00-19:00; Th 07:00-17:00; Fr 07:00-17:00; Sa 09:00-15:00; Su 11:30-15:00"},"title":"Rumney Gospel Chapel"},"type":"Feature"},
		{"geometry":{"coordinates":[-3.12078,51.50811],"type":"Point"},"properties":{"_source":"warm_welcome","address":"Rumney Hub , Cardiff, Wales cf3 3ja","description":"Rumney is closed for lunch between 1pm-2pm Mond, Tues, Weds, Thurs & Sat","hours":{"_text":"Monday: 09:00 - 13:00 / 14:00 - 18:00, Tuesday: 09:00 - 13:00 / 14:00 - 18:00, Wednesday: 09:00 - 13:00 / 14:00 - 18:00, Thursday: 10:00 - 13:00 / 14:00 - 19:00, Saturday: 09:00 - 13:00 / 14:00 - 17:30","opening":"Mo 09:00-13:00,14:00-18:00; Tu 09:00-13:00,14:00-18:00; We 09:00-13:00,14:00-18:00; Th 10:00-13:00,14:00-19:00; Sa 09:00-13:00,14:00-17:30"},"title":"Rumney Hub"},"type":"Feature"},
		{"geometry":{"coordinates":[-2.84992,51.43668],"type":"Point"},"properties":{"_source":"warm_welcome","address":"37 Old Street, Clevedon, North Somerset BS21 6DA","hours":{"_text":"Thursday: 12:00 - 16:00","opening":"Th 12:00-16:00"},"title":"Salvation Army"},"type":"Feature"},
		{"geometry":{"coordinates":[-3.15395,51.48425],"type":"Point"},"properties":{"_source":"warm_welcome","address":"The STAR Centre, Splott Road, Splott, Cardiff CF24 2BZ","description":"Open from 26th January 2022. We cater for the entire community. We will not tolerate any discrimination against any member due to gender, race, religion or living situation.. We also hold a foodbank in the building between 8-10am, and for a £3 donation you can get a hot breakfast roll, hot drink and a carrier bag of food to take home.","hours":{"_text":"Thursday: 10:00 - 12:00","opening":"Th 10:00-12:00"},"title":"Splott Community Volunteers"},"type":"Feature"},
		{"geometry":{"coordinates":[-2.87296,51.43252],"type":"Point"},"properties":{"_source":"warm_welcome","address":"Old Church Road, Clevedon, North Somerset BS21 7UE","description":"Open from 28-10-2022. Meeting in the church centre just down from the church and seeking to provide an inclusive and warm welcome to all in our community","hours":{"_text":"Friday: 12:00 - 16:00","opening":"Fr 12:00-16:00"},"title":"St Andrews Church Centre"},"type":"Feature"},
		{"geometry":{"coordinates":[-3.11211,51.53043],"type":"Point"},"properties":{"_source":"warm_welcome","address":"Ty’r Winch Road, Old St Mellons, Cardiff CF3 5US","description":"Open from 13.12.2022. We open on 13 December. Not open on 27 December.","hours":{"_text":"Tuesday: 12:30 - 15:00","opening":"Tu 12:30-15:00"},"title":"St Mellons Baptist Church"},"type":"Feature"},
		{"geometry":{"coordinates":[-3.10189,51.52505],"type":"Point"},"properties":{"_source":"warm_welcome","address":"St Mellons Hub , 30 Crickhowell Road , Cardiff CF3 0EF","hours":{"_text":"Monday: 09:00 - 18:00, Tuesday: 09:00 - 18:00, Wednesday: 10:00 - 19:00, Thursday: 09:00 - 18:00, Friday: 09:00 - 18:00, Saturday: 09:00 - 17:30","opening":"Mo 09:00-18:00; Tu 09:00-18:00; We 10:00-19:00; Th 09:00-18:00; Fr 09:00-18:00; Sa 09:00-17:30"},"title":"St Mellons Hub"},"type":"Feature"},
		{"geometry":{"coordinates":[-3.14282,51.48454],"type":"Point"},"properties":{"_source":"warm_welcome","address":"Muirton Road, Cardiff, South Glamorgan CF24 2SJ","hours":{"_text":"Monday: 9:00 - 18:00, Tuesday: 9:00 - 18:00, Wednesday: 10:00 - 19:00, Thursday: 9:00 - 18:00, Friday: 9:00 - 18:00, Saturday: 9:00 - 15:00","opening":"Mo 09:00-18:00; Tu 09:00-18:00; We 10:00-19:00; Th 09:00-18:00; Fr 09:00-18:00; Sa 09:00-15:00"},"title":"STAR Hub"},"type":"Feature"},
		{"geometry":{"coordinates":[-2.99700,51.58656],"type":"Point"},"properties":{"_source":"warm_welcome","address":"40 Stow Hill, Newport, Newport NP201JG","description":"Open from 02-12-2022. Board Games, Pool table, Playstation","hours":{"_text":"Friday: 13:30 - 17:00, Sunday: 11:00 - 13:00","opening":"Fr 13:30-17:00; Su 11:00-13:00"},"title":"The House - Home of Bethel Community Church"},"type":"Feature"},
		{"geometry":{"coordinates":[-3.12813,51.50413],"type":"Point"},"properties":{"_source":"warm_welcome","address":"Rumney Chapel , Brachdy Road, Rumney,, Cardiff , Cardiff CF3 3BG","description":"A warm, cosy space to relax. You can watch TV, read, charge devices or even do some work.","title":"The Living Room"},"type":"Feature"},
		{"geometry":{"coordinates":[-3.14076,51.48799],"type":"Point"},"properties":{"_source":"warm_welcome","address":"Tremorfa Hall, Tweedsmuir Road, Cardiff, CF24 2QZ, Cardiff, Select your county CF24 5LQ","description":"Open from 09-12-2022.","hours":{"_text":"Thursday: 11:00 - 15:00, Friday: 12:00 - 16:00","opening":"Th 11:00-15:00; Fr 12:00-16:00"},"title":"Tremorfa Hall Tweedsmuir Road Cardiff"},"type":"Feature"},
		{"geometry":{"coordinates":[-3.11208,51.51663],"type":"Point"},"properties":{"_source":"warm_welcome","address":"91 Caernarvon Way, Rumney, Cardiff CF3 1RU","description":"Open from 16/01/2023. Every Monday we open up Trowbridge Community Centre as a Warm Space. Everyone is welcome to come and keep warm, socialise and unwind. There will be: free soup with bread rolls > refreshments > movies > board games > books","hours":{"_text":"Monday: 11:00 - 16:00","opening":"Mo 11:00-16:00"},"title":"Trowbridge Community Centre"},"type":"Feature"},
		{"geometry":{"coordinates":[-2.98078,51.59850],"type":"Point"},"properties":{"_source":"warm_spaces","address":"1 Saint Julian&#39;s Avenue, Newport, Wales, NP19 7JT","hours":{"_text":"Saturday 10am-2pm","opening":"Sa 10:00-14:00"},"title":"St Julians Methodist Church","url":"https://stjuliansmethodist.wixsite.com/st-julians"},"type":"Feature"},
		{"geometry":{"coordinates":[-3.11249,51.52924],"type":"Point"},"properties":{"_source":"warm_spaces","address":"Tyr Winch Road, Cardiff, Wales, CF3","hours":{"_text":"Tuesday 12.30pm-3.00pm","opening":"Tu 12:30-15:00"},"title":"St Mellons Baptist Church","url":"https://www.stmellonsbaptist.church"},"type":"Feature"},
		{"geometry":{"coordinates":[-3.10270,51.52545],"type":"Point"},"properties":{"_source":"warm_spaces","address":"4 Crickhowell Road, Cardiff, Wales, CF3 0EF","hours":{"_text":"Sunday 3pm-5pm","opening":"Su 15:00-17:00"},"title":"Church of the Resurrection St Mellons 'Warm Space Sunday Afternoons'","url":"https://www.cotr.org.uk"},"type":"Feature"},
		{"geometry":{"coordinates":[-2.85677,51.43535],"type":"Point"},"properties":{"_source":"warm_spaces","address":"Coleridge Vale Road North, Clevedon, England, BS21","hours":{"_text":"Tuesday 10.30am-2pm","opening":"Tu 10:30-14:00"},"title":"Clevedon Christadelphian Church","url":"https://www.readthebible.org.uk"},"type":"Feature"},
		{"geometry":{"coordinates":[-2.85264,51.42876],"type":"Point"},"properties":{"_source":"warm_spaces","address":"Kenn Road, Clevedon, England, BS21 6LH","hours":{"_text":"Monday 10am-12pm","opening":"Mo 10:00-12:00"},"title":"Cafe4U at Kenn Road Methodist Church","url":"https://www.kennroadmethodist.co.uk"},"type":"Feature"},
		{"geometry":{"coordinates":[-3.12693,51.50422],"type":"Point"},"properties":{"_source":"warm_spaces","address":"Brachdy Road, Cardiff, Wales, CF3 3BG","hours":{"_text":"7am-5pm "},"title":"The Living Room","url":"https://www.rumneychapel.org/thelivingroom"},"type":"Feature"},
		{"geometry":{"coordinates":[-2.99621,51.58735],"type":"Point"},"properties":{"_source":"warm_spaces","address":"174 Commercial Street, Newport, Wales, NP20 1JN","hours":{"_text":"Mon-Fri 12pm-10pm, Sat 10am-10pm, Sun 11am- 8pm","opening":"Mo-Fr 12:00-22:00; Sa 10:00-22:00; Su 11:00-20:00"},"title":"Geek Retreat Newport","url":"https://www.facebook.com/GeekRetreatNewport"},"type":"Feature"},
		{"geometry":{"coordinates":[-3.12693,51.50422],"type":"Point"},"properties":{"_source":"warm_spaces","address":"Brachdy Road, Cardiff, Wales, CF3 3BG","hours":{"_text":"Open 7 days a week - More details on our website"},"title":"The Living Room","url":"https://www.rumneychapel.org/thelivingroom"},"type":"Feature"},
		{"geometry":{"coordinates":[-3.12747,51.50403],"type":"Point"},"properties":{"_source":"warm_spaces","address":"Brachdy House, 50 Brachdy Road, Cardiff, Wales, CF3 3BG","hours":{"_text":"9am-2pm"},"title":"Rumney Forum"},"type":"Feature"}
	]
}
