{
	"type": "FeatureCollection",
	"features": [
		{"geometry":{"coordinates":[-2.96439,50.87156],"type":"Point"},"properties":{"_source":"warm_welcome","address":"Holyrood Lace Mill, Holyrood Street, Chard, Somerset TA20 2YA","description":"Public library","hours":{"_text":"Monday: 09:30 - 16:30, Tuesday: 09:30 - 16:30, Thursday: 09:30 - 17:00, Friday: 09:30 - 16:30, Saturday: 09:30 - 12:30","opening":"Mo 09:30-16:30; Tu 09:30-16:30; Th 09:30-17:00; Fr 09:30-16:30; Sa 09:30-12:30"},"title":"Chard Library"},"type":"Feature"},
		{"geometry":{"coordinates":[-2.96244,50.87303],"type":"Point"},"properties":{"_source":"warm_welcome","address":"Forefront Community Centre, 42 Fore Street, , Chard, Somerset TA20 1QA","description":"Mondays starts with a craft morning Wednesdays starts with a coffee morning Both include a simple lunch - soup and roll","hours":{"_text":"Monday: 10:00 - 13:00, Wednesday: 10:00 - 13:00","opening":"Mo 10:00-13:00; We 10:00-13:00"},"title":"Forefront Community Church/Centre"},"type":"Feature"},
		{"geometry":{"coordinates":[-2.91085,50.92470],"type":"Point"},"properties":{"_source":"warm_welcome","address":"Ditton Street, Ilminster, Somerset TA19 0BW","description":"Public library","hours":{"_text":"Monday: 09:30 - 12:00, Tuesday: 09:30 - 16:30, Wednesday: 09:30 - 12:00, Friday: 09:30 - 16:30, Saturday: 09:30 - 12:00","opening":"Mo 09:30-12:00; Tu 09:30-16:30; We 09:30-12:00; Fr 09:30-16:30; Sa 09:30-12:00"},"title":"Ilminster Library"},"type":"Feature"},
		{"geometry":{"coordinates":[-3.07010,50.74025],"type":"Point"},"properties":{"_source":"warm_spaces","address":"South Street, Colyton, England, EX24 6NQ, United Kingdom","description":"Free Food/Drink, Free Wi-Fi, Device Charging, People to chat to, Space to work, Wheelchair Accessible, Child Friendly, Computer Access","hours":{"_text":"Tuesday 10am–12:30pm, 2:30–6pm, Thursday 10am–12:30pm, 3–5pm, Saturday 10am–12pm","opening":"Tu 10:00-12:30,14:30-18:00; Th 10:00-12:30,15:00-17:00; Sa 10:00-12:00"},"title":"Colyton Library","url":"https://www.devonlibraries.org.uk"},"type":"Feature"},
		{"geometry":{"coordinates":[-2.96478,50.87265],"type":"Point"},"properties":{"_source":"spark_somerset","address":"Guildhall, 14 Fore Street, Chard, TA20 1PH","contact":"Telephone: 01823 331222; Email: info@somersetrcc.org.uk","hours":{"_text":"Wednesday 10am-12pm","opening":"We 10:00-12:00"},"title":"Talking café @ Guildhall Chard"},"type":"Feature"},
		{"geometry":{"coordinates":[-2.96554,50.87201],"type":"Point"},"properties":{"_source":"spark_somerset","address":"9 Holyrood Street, Chard, TA20 2AH","contact":"Telephone: 07968351601; Email: christineblake196@gmail.com","hours":{"_text":"Thursdays 2-5 p.m","opening":"Th 02:00-05:00"},"loc_pcd":true,"title":"Baptist Church Hall"},"type":"Feature"},
		{"geometry":{"coordinates":[-2.96413,50.87018],"type":"Point"},"properties":{"_source":"spark_somerset","address":"Holyrood Street, Chard, TA20 2DN","contact":"Telephone: 01460 67867 ; Email: office@stmaryschard.org.uk","hours":{"_text":"Tuesday 12.30-4.00pm","opening":"Tu 12:30-16:00"},"loc_pcd":true,"title":"St Marys Centre"},"type":"Feature"},
		{"geometry":{"coordinates":[-2.95578,50.84373],"type":"Point"},"properties":{"_source":"spark_somerset","address":"School Lane, Tatworth, TA20 2RX","contact":"Telephone: 01460220565; Email: office@tatworthschool.co.uk","hours":{"_text":"Friday 2.15 - 3.15","opening":"Fr 02:15-03:15"},"loc_pcd":true,"title":"Tatworth School"},"type":"Feature"},
		{"geometry":{"coordinates":[-2.91237,50.92773],"type":"Point"},"properties":{"_source":"spark_somerset","address":"Court Barton, Ilminster, TA19 0DU","contact":"Telephone: 0146054142; Email: elspethwaldie@hotmail.com","hours":{"_text":"Sundays 12 p.m to 4 p.m","opening":"Su 12:00-04:00"},"loc_pcd":true,"title":"Minster Rooms"},"type":"Feature"},
		{"geometry":{"coordinates":[-2.91105,50.92481],"type":"Point"},"properties":{"_source":"spark_somerset","address":"Ditton Street, Ilminster, TA19 0BW","contact":"Email: ilmlib@somerset.gov.uk","hours":{"_text":"Mon, Weds, Sat 9:30am-12pm, Tues, Fri 9:30am-4:30pm","opening":"Mo 09:30-12:00; We 09:30-12:00; Sa 09:30-12:00; Tu 09:30-16:30; Fr 09:30-16:30"},"title":"Ilminster Library"},"type":"Feature"}
	]
}
