{
	"type": "FeatureCollection",
	"features": [
		{"geometry":{"coordinates":[-3.03245,50.77835],"type":"Point"},"properties":{"_source":"warm_welcome","address":"The Baptist Church Kilmington, Kilmington, Devon EX13 7RF","description":"Open from 01-11-2022.","hours":{"_text":"Tuesday: 10:00 - 14:00, Thursday: - / 18:00 - 21:00, Sunday: 10:00 - 12:30","opening":"Tu 10:00-14:00; Th 18:00-21:00; Su 10:00-12:30"},"title":"Baptist Church Kilmington"},"type":"Feature"},
		{"geometry":{"coordinates":[-2.96439,50.87156],"type":"Point"},"properties":{"_source":"warm_welcome","address":"Holyrood Lace Mill, Holyrood Street, Chard, Somerset TA20 2YA","hours":{"_text":"Monday: 09:30 - 16:30, Tuesday: 09:30 - 16:30, Thursday: 09:30 - 17:00, Friday: 09:30 - 16:30, Saturday: 09:30 - 12:30","opening":"Mo 09:30-16:30; Tu 09:30-16:30; Th 09:30-17:00; Fr 09:30-16:30; Sa 09:30-12:30"},"title":"Chard Library"},"type":"Feature"},
		{"geometry":{"coordinates":[-3.07023,50.74014],"type":"Point"},"properties":{"_source":"warm_welcome","address":"Colyton Library/Corner of Market Place &, South St, Colyton, Devon EX24 6NQ","hours":{"_text":"Tuesday: 10:00 - 12:30 / 14:30 - 18:00, Thursday: 10:00 - 12:30 / 15:00 - 17:00, Saturday: 10:00 - 12:00","opening":"Tu 10:00-12:30,14:30-18:00; Th 10:00-12:30,15:00-17:00; Sa 10:00-12:00"},"title":"Colyton Library, Libraries unlimited"},"type":"Feature"},
		{"geometry":{"coordinates":[-2.96244,50.87303],"type":"Point"},"properties":{"_source":"warm_welcome","address":"Forefront Community Centre, 42 Fore Street, , Chard, Somerset TA20 1QA","description":"Simple lunch available - soup and roll","hours":{"_text":"Monday: 10:00 - 14:00, Wednesday: 10:00 - 14:00","opening":"Mo 10:00-14:00; We 10:00-14:00"},"title":"Forefront Community Church/Centre"},"type":"Feature"},
		{"geometry":{"coordinates":[-2.96244,50.87303],"type":"Point"},"properties":{"_source":"warm_welcome","address":"Forefront Community Centre, 42 Fore Street, , Chard, Somerset TA20 1QA","description":"Simple lunch available - soup and roll","hours":{"_text":"Monday: 10:00 - 14:00, Wednesday: 10:00 - 14:00","opening":"Mo 10:00-14:00; We 10:00-14:00"},"title":"Forefront Community Church/Centre"},"type":"Feature"},
		{"geometry":{"coordinates":[-2.91085,50.92470],"type":"Point"},"properties":{"_source":"warm_welcome","address":"Ditton Street, Ilminster, Somerset TA19 0BW","hours":{"_text":"Monday: 09:30 - 12:00, Tuesday: 09:30 - 16:30, Wednesday: 09:30 - 12:00, Friday: 09:30 - 16:30, Saturday: 09:30 - 12:00","opening":"Mo 09:30-12:00; Tu 09:30-16:30; We 09:30-12:00; Fr 09:30-16:30; Sa 09:30-12:00"},"title":"Ilminster Library"},"type":"Feature"},
		{"geometry":{"coordinates":[-2.96537,50.87023],"type":"Point"},"properties":{"_source":"warm_welcome","address":"Duck Lane, Chard, Somerset TA202ES","hours":{"_text":"Wednesday: 13:15 - 15:30","opening":"We 13:15-15:30"},"title":"Manor Court Community Primary School"},"type":"Feature"},
		{"geometry":{"coordinates":[-2.96537,50.87023],"type":"Point"},"properties":{"_source":"warm_welcome","address":"Duck Lane, Chard, Somerset TA202ES","hours":{"_text":"Wednesday: 13:15 - 15:30","opening":"We 13:15-15:30"},"title":"Manor Court Community Primary School"},"type":"Feature"},
		{"geometry":{"coordinates":[-2.96736,50.86815],"type":"Point"},"properties":{"_source":"warm_welcome","address":"Manor Court Community Primary, Chard, Somerset TA202ES","hours":{"_text":"Wednesday: 13:15 - 15:30","opening":"We 13:15-15:30"},"title":"Manor Court Primary School"},"type":"Feature"},
		{"geometry":{"coordinates":[-2.96736,50.86815],"type":"Point"},"properties":{"_source":"warm_welcome","address":"Manor Court Community Primary, Chard, Somerset TA202ES","hours":{"_text":"Wednesday: 13:15 - 15:30","opening":"We 13:15-15:30"},"title":"Manor Court Primary School"},"type":"Feature"},
		{"geometry":{"coordinates":[-2.98611,50.78622],"type":"Point"},"properties":{"_source":"warm_welcome","address":"Millwey Community Centre, Axminster, Devon EX13 5EH","hours":{"_text":"Sunday: 10:00 - 13:00","opening":"Su 10:00-13:00"},"title":"Millwey Rise Community Centre Warm Room Project"},"type":"Feature"},
		{"geometry":{"coordinates":[-3.03394,50.77700],"type":"Point"},"properties":{"_source":"warm_welcome","address":"St Giles' Church Kilmington, Whitford Road , Devon EX13 7QZ","description":"Open from 071222.","hours":{"_text":"Wednesday: 14:00 - 16:00, Friday: 10:00 - 12:00","opening":"We 14:00-16:00; Fr 10:00-12:00"},"title":"St Giles' Church Kilmington"},"type":"Feature"},
		{"geometry":{"coordinates":[-3.03394,50.77700],"type":"Point"},"properties":{"_source":"warm_welcome","address":"St Giles' Church Kilmington, Whitford Road , Devon EX13 7QZ","description":"Open from 071222.","hours":{"_text":"Wednesday: 14:00 - 16:00, Friday: 10:00 - 12:00","opening":"We 14:00-16:00; Fr 10:00-12:00"},"title":"St Giles' Church Kilmington"},"type":"Feature"},
		{"geometry":{"coordinates":[-3.07010,50.74025],"type":"Point"},"properties":{"_source":"warm_spaces","address":"South Street, Colyton, England, EX24 6NQ","hours":{"_text":"Tuesday 10am–12:30pm, 2:30–6pm, Thursday 10am–12:30pm, 3–5pm, Saturday 10am–12pm","opening":"Tu 10:00-12:30,14:00-18:00; Th 10:00-12:30,15:00-17:00; Sa 10:00-12:00"},"title":"Colyton Library","url":"https://www.devonlibraries.org.uk"},"type":"Feature"},
		{"geometry":{"coordinates":[-2.91105,50.92481],"type":"Point"},"properties":{"_source":"spark_somerset","address":"Ditton Street, Ilminster, TA19 0BW","contact":"Email: ilmlib@somerset.gov.uk","hours":{"_text":"Mon, Weds, Sat 9:30am-12pm, Tues, Fri 9:30am-4:30pm","opening":"Mo 09:30-12:00; We 09:30-12:00; Sa 09:30-12:00; Tu 09:30-16:30; Fr 09:30-16:30"},"title":"Ilminster Library"},"type":"Feature"},
		{"geometry":{"coordinates":[-2.96478,50.87265],"type":"Point"},"properties":{"_source":"spark_somerset","address":"Guildhall, 14 Fore Street, Chard, TA20 1PH","contact":"Telephone: 01823 331222; Email: info@somersetrcc.org.uk","hours":{"_text":"Wednesday 10am-12pm","opening":"We 10:00-12:00"},"title":"Talking café @ Guildhall Chard"},"type":"Feature"},
		{"geometry":{"coordinates":[-2.96439,50.87155],"type":"Point"},"properties":{"_source":"spark_somerset","address":"Holyrood Lace Mill, Holyrood St, Chard, TA20 2YA","contact":"Email: chalib@somerset.gov.uk","hours":{"_text":"Mon, Tues, Fri 9:30am-4:30pm, Thurs 9:30am-5pm, Sat 9:30am-12:30pm","opening":"Mo 09:30-16:30; Tu 09:30-16:30; Fr 09:30-16:30; Th 09:30-17:00; Sa 09:30-12:30"},"title":"Chard Library"},"type":"Feature"}
	]
}
