{
	"type": "FeatureCollection",
	"features": [
		{"geometry":{"coordinates":[1.43340,52.87969],"type":"Point"},"properties":{"_source":"warm_welcome","address":"19 Cromer Road, Mundesley , Norfolk NR11 8BE","description":"","hours":"Tu 15:30-17:30; Fr 08:30-10:30","title":"All Saints Community Rooms, Trunch Group of Parishes"},"type":"Feature"},
		{"geometry":{"coordinates":[1.56655,52.75212],"type":"Point"},"properties":{"_source":"warm_welcome","address":"Heath Road,Hickling,NR12OYE, Norwich, NORFOLK NR120YE","description":"Open from 01-11-2022.","hours":"Tu 09:30-16:00; We 09:30-16:30; Th 09:30-16:00; Su 10:30-12:00","title":"Hickling methodist church"},"type":"Feature"},
		{"geometry":{"coordinates":[1.63342,52.70430],"type":"Point"},"properties":{"_source":"warm_welcome","address":"Black Street, Martham, Norfolk NR29 4PR","description":" You can access most Libraries outside staffed hours with “Open Library” providing extra access to the library, its books and computers. Check if it's currently available at your local library here www.norfolk.gov.uk/openlibrary ","hours":"Tu 10:00-19:00; Fr 13:30-19:00; Sa 12:30-16:00","title":"Martham Library"},"type":"Feature"},
		{"geometry":{"coordinates":[1.43427,52.87955],"type":"Point"},"properties":{"_source":"warm_welcome","address":"18 Cromer Road, Mundesley, Norfolk NR11 8BE","description":" You can access most Libraries outside staffed hours with “Open Library” providing extra access to the library, its books and computers. Check if it's currently available at your local library here www.norfolk.gov.uk/openlibrary ","hours":"Tu 13:30-19:00; Fr 13:30-19:00; Sa 10:00-16:00","title":"Mundesley Library"},"type":"Feature"},
		{"geometry":{"coordinates":[1.51360,52.77215],"type":"Point"},"properties":{"_source":"warm_welcome","address":"High Street, Stalham, Norfolk NR12 9AN","description":" You can access most Libraries outside staffed hours with “Open Library” providing extra access to the library, its books and computers. Check if it's currently available at your local library here www.norfolk.gov.uk/openlibrary ","hours":"Tu 11:00-19:00; Th 11:00-19:00; Sa 13:00-16:00","title":"Stalham Library"},"type":"Feature"},
		{"geometry":{"coordinates":[1.52674,52.82590],"type":"Point"},"properties":{"_source":"warm_spaces","address":"Blacksmiths Lane, Norwich, England, NR12","title":"Wenn Evans Centre Happisburgh Village Hall","url":"https://m.facebook.com/wennevanscentrehappisburgh/"},"type":"Feature"},
		{"geometry":{"coordinates":[1.43418,52.87970],"type":"Point"},"properties":{"_source":"warm_spaces","address":"18 Cromer Road, Norwich, England, NR11 8BE","title":"Mundesley Library","url":"https://www.norfolk.gov.uk/libraries"},"type":"Feature"},
		{"geometry":{"coordinates":[1.63213,52.70734],"type":"Point"},"properties":{"_source":"warm_spaces","address":"Black Street, Great Yarmouth, England, NR29 4PR","title":"Martham Library","url":"https://www.norfolk.gov.uk/libraries"},"type":"Feature"}
	]
}
