{
	"type": "FeatureCollection",
	"features": [
		{"geometry":{"coordinates":[1.54912,52.64066],"type":"Point"},"properties":{"_source":"warm_welcome","address":"Bridewell Lane, Acle, Norwich NR13 3RA","description":"","hours":"Tu 10:00-19:00, Th 10:00-19:00, Fr 14:00-19:00, Sa 13:00-16:00","title":"Acle Library"},"type":"Feature"},
		{"geometry":{"coordinates":[1.44838,52.63505],"type":"Point"},"properties":{"_source":"warm_welcome","address":"The Reading Room, Blofield, Norwich NR13 4RQ","description":" You can access most Libraries outside staffed hours with “Open Library” providing extra access to the library, its books and computers. Check if it's currently available at your local library here www.norfolk.gov.uk/openlibrary ","hours":"Mo 13:00-19:00, We 10:30-19:00, Fr 16:00-19:00, Sa 12:00-16:00","title":"Blofield Library"},"type":"Feature"},
		{"geometry":{"coordinates":[1.43218,52.62442],"type":"Point"},"properties":{"_source":"warm_welcome","address":"90 The Street, Brundall, Norwich NR13 5LH","description":" You can access most Libraries outside staffed hours with “Open Library” providing extra access to the library, its books and computers. Check if it's currently available at your local library here www.norfolk.gov.uk/openlibrary ","hours":"Mo 16:00-19:00, Tu 10:00-19:00, Th 14:30-19:00, Sa 13:00-16:00","title":"Brundall Libray"},"type":"Feature"},
		{"geometry":{"coordinates":[1.73120,52.64750],"type":"Point"},"properties":{"_source":"warm_welcome","address":"Beach Road, Caister, Norwich NR30 5EX","description":" You can access most Libraries outside staffed hours with “Open Library” providing extra access to the library, its books and computers. Check if it's currently available at your local library here www.norfolk.gov.uk/openlibrary ","hours":"Mo 10:30-19:00, Tu 14:30-19:00, Th 10:30-19:00, Fr 14:30-19:00, Sa 10:00-16:00","title":"Caister Library"},"type":"Feature"},
		{"geometry":{"coordinates":[1.72529,52.57294],"type":"Point"},"properties":{"_source":"warm_welcome","address":"Lowestoft Road, Gorleston, Norfolk NR31 6SG","description":" You can access most Libraries outside staffed hours with “Open Library” providing extra access to the library, its books and computers. Check if it's currently available at your local library here www.norfolk.gov.uk/openlibrary ","hours":"Mo 10:00-19:00, Tu 10:00-19:00, We 10:00-19:00, Th 10:00-19:00, Fr 10:00-19:00, Sa 10:00-16:00","title":"Gorleston Library"},"type":"Feature"},
		{"geometry":{"coordinates":[1.72831,52.60358],"type":"Point"},"properties":{"_source":"warm_welcome","address":"Tolhouse Street, Great Yarmouth, Norfolk NR30 2SH","description":" You can access most Libraries outside staffed hours with “Open Library” providing extra access to the library, its books and computers. Check if it's currently available at your local library here www.norfolk.gov.uk/openlibrary ","hours":"Mo 09:30-19:00, Tu 09:30-19:00, We 09:30-19:00, Th 09:30-19:00, Fr 09:30-19:00, Sa 10:00-16:00","title":"Great Yarmouth Library"},"type":"Feature"},
		{"geometry":{"coordinates":[1.48128,52.53543],"type":"Point"},"properties":{"_source":"warm_welcome","address":"31 Church Plain, Loddon, Norfolk NR14 6EX","description":" You can access most Libraries outside staffed hours with “Open Library” providing extra access to the library, its books and computers. Check if it's currently available at your local library here www.norfolk.gov.uk/openlibrary ","hours":"Mo 10:00-19:00, Th 10:00-19:00, Fr 10:00-19:00, Sa 13:00-16:00","title":"Loddon Library"},"type":"Feature"},
		{"geometry":{"coordinates":[1.71590,52.57219],"type":"Point"},"properties":{"_source":"warm_welcome","address":"Magdalen Square, Gorleston, Norfolk NR31 7BZ","description":"","hours":"Mo 10:00-12:00, Tu 11:30-14:30, We 09:00-12:00, Fr 10:00-12:00, Su 09:30-12:30","title":"St Mary Magdalene Church, Gorleston"},"type":"Feature"},
		{"geometry":{"coordinates":[1.73306,52.61986],"type":"Point"},"properties":{"_source":"warm_welcome","address":"Salisbury Road, Great Yarmouth, Norfolk NR30 4LH","description":"","hours":"Mo 13:00-16:00","title":"St Paul’s Church"},"type":"Feature"},
		{"geometry":{"coordinates":[1.41240,52.58440],"type":"Point"},"properties":{"_source":"warm_welcome","address":"The Rectory, Rectory Lane, Rockland St. Mary, Norwich, Norfolk NR14 7EY","description":"Open from 07-11-2022.","hours":"Mo 10:00-17:00","title":"The Barn, Rockland Rectory"},"type":"Feature"},
		{"geometry":{"coordinates":[1.42918,52.62500],"type":"Point"},"properties":{"_source":"warm_spaces","address":"Church Lane, Norwich, England, NR13 5LZ","title":"St Laurence Centre","url":"https://yarevalleychurches.org.uk"},"type":"Feature"},
		{"geometry":{"coordinates":[1.50185,52.66563],"type":"Point"},"properties":{"_source":"warm_spaces","address":"Fairhaven Woodland and Water Garden, School Road, Norwich, England, NR13 6DZ","title":"Fairhaven Tearoom","url":"https://www.fairhavengarden.co.uk"},"type":"Feature"}
	]
}
