{
	"type": "FeatureCollection",
	"features": [
		{"geometry":{"coordinates":[1.43276,51.36036],"type":"Point"},"properties":{"_source":"warm_welcome","address":"Broadstairs Library, The Broadway, Broadstairs , kent CT10 2BS","description":" Please visit our website for services provided at your local library","hours":"Mo 09:30-17:30; Tu 09:30-17:30; We 09:30-17:30; Fr 10:00-17:00; Sa 10:00-16:00","title":"Kent County Council"},"type":"Feature"},
		{"geometry":{"coordinates":[1.41705,51.38380],"type":"Point"},"properties":{"_source":"warm_welcome","address":"Cliftonville Library, Queen Elizabeth Avenue, Cliftonville, Margate, kent CT9 3JX","description":" Please visit our website for services provided at your local library","hours":"Mo 09:00-17:30; Tu 09:00-17:30; Th 09:00-17:00; Fr 09:00-17:00; Sa 09:00-13:00","title":"Kent County Council"},"type":"Feature"},
		{"geometry":{"coordinates":[1.43900,51.35807],"type":"Point"},"properties":{"_source":"warm_welcome","address":"Queens Road Baptist , 2 Queens Road , Braodstairs CT10 1NU","description":"Open from 9th November . We are open to suggestions for activities and longer hours","hours":"We 00:00-13:00","title":"Queens Road Baptist Church - Broadstairs"},"type":"Feature"},
		{"geometry":{"coordinates":[1.41555,51.33901],"type":"Point"},"properties":{"_source":"warm_welcome","address":"Hollicondane Road, Ramsgate, Kent CT117JX","description":"We cater for all. We start at 10am each Thursday with Cafe 4 All, serving pastries, cakes, tea, coffee, squash etc. Mostly people just relax and chat. The Cafe 4 All stops serving at 11.30am but tea, coffee and biscuits are available on a self service basis through till 3pm","hours":"Th 10:00-15:00","title":"St Lukeâ€™s Church - Ramsgate"},"type":"Feature"},
		{"geometry":{"coordinates":[1.42653,51.38548],"type":"Point"},"properties":{"_source":"warm_welcome","address":"Summerfield Road, Margate, Kent CT9 3JJ","description":" Open from 03-11-22. We have board games, jigsaws, pre-school toys, newspapers, access to kitchen space to heat food and space to do homework after school.","hours":"Th 11:00-19:00","title":"St. Philip, Margate"},"type":"Feature"},
		{"geometry":{"coordinates":[1.43083,51.36710],"type":"Point"},"properties":{"_source":"warm_welcome","address":"St Peter's Recreation Ground, Grange Road, Broadstairs, Kent CT10 3AE","description":" We have a small menu, and a Pay It Forward scheme ","hours":"Tu 09:00-14:00; Th 09:00-14:00; Fr 09:00-14:00","title":"The Pavilion Youth & Community Cafe"},"type":"Feature"},
		{"geometry":{"coordinates":[1.43605,51.35617],"type":"Point"},"properties":{"_source":"warm_welcome","address":"The Vale, Broadstairs, Kent CT10 1RB","description":"Open from 8th November 2022. puzzles; books","hours":"Tu 14:00-16:00","title":"The Vale United Reformed Church"},"type":"Feature"},
		{"geometry":{"coordinates":[1.43948,51.35840],"type":"Point"},"properties":{"_source":"warm_spaces","address":"2 Queens Road, Broadstairs, England, CT10 1NU","title":"Queens Road Baptist Church","url":"https://www.broadstairsbaptist.org.uk/welcome.htm"},"type":"Feature"},
		{"geometry":{"coordinates":[1.41457,51.38062],"type":"Point"},"properties":{"_source":"warm_spaces","address":"Holy Trinity Church, Saint Mary&#39;s Avenue, Margate, England, CT9 3TN","title":"Thanet Safe Haven"},"type":"Feature"},
		{"geometry":{"coordinates":[1.42805,51.36882],"type":"Point"},"properties":{"_source":"warm_spaces","address":"St Peter&#39;s Recreation Ground, Callis Court Road/Grange Road, Broadstairs, England, CT10","title":"The Pavilion Youth &amp; Community Cafe","url":"http://thepavilioncommunitycafe.co.uk"},"type":"Feature"}
	]
}
