{
	"type": "FeatureCollection",
	"features": [
		{"geometry":{"coordinates":[-2.66462,52.15144],"type":"Point"},"properties":{"_source":"warm_welcome","address":"The Chapel,, Chapel Lane, Bodenham, Herefordshire HR1 3HR","description":"Open from 05-12-2022.","hours":{"_text":"Monday: 10:00 - 14:00","opening":"Mo 10:00-14:00"},"title":"Bodenham Christian Fellowship"},"type":"Feature"},
		{"geometry":{"coordinates":[-2.66462,52.15144],"type":"Point"},"properties":{"_source":"warm_welcome","address":"The Chapel,, Chapel Lane, Bodenham, Herefordshire HR1 3HR","description":"Open from 05-12-2022.","hours":{"_text":"Monday: 10:00 - 14:00","opening":"Mo 10:00-14:00"},"title":"Bodenham Christian Fellowship"},"type":"Feature"},
		{"geometry":{"coordinates":[-2.50908,52.18864],"type":"Point"},"properties":{"_source":"warm_welcome","address":"Bromyard Methodist Church 20 New Road, Bromyard, Herefordshire HR7 4FJ","description":"Open from 09-11-2022. All ages","hours":{"_text":"Wednesday: 09:30 - 15:00","opening":"We 09:30-15:00"},"title":"Bromyard Methodist Church"},"type":"Feature"},
		{"geometry":{"coordinates":[-2.50908,52.18864],"type":"Point"},"properties":{"_source":"warm_welcome","address":"Bromyard Methodist Church 20 New Road, Bromyard, Herefordshire HR7 4FJ","description":"Open from 09-11-2022. All ages","hours":{"_text":"Wednesday: 09:30 - 15:00","opening":"We 09:30-15:00"},"title":"Bromyard Methodist Church"},"type":"Feature"},
		{"geometry":{"coordinates":[-2.66954,52.09948],"type":"Point"},"properties":{"_source":"warm_welcome","address":"Ridgeway Road, Sutton St. Nicholas, Hereford HR1 3AZ","hours":{"_text":"Monday: 17:00 - 22:00, Tuesday: 12:00 - 23:00, Wednesday: 12:00 - 22:00, Thursday: 12:00 - 23:00, Friday: 12:00 - 23:59, Saturday: 12:00 - 23:59, Sunday: 12:00 - 22:00","opening":"Mo 17:00-22:00; Tu 12:00-23:00; We 12:00-22:00; Th 12:00-23:00; Fr 12:00-23:59; Sa 12:00-23:59; Su 12:00-22:00"},"title":"Golden Cross Inn"},"type":"Feature"},
		{"geometry":{"coordinates":[-2.71161,52.05468],"type":"Point"},"properties":{"_source":"warm_welcome","address":"St Owen Street, Hereford HR1 2PR","description":"Open from 12-11-2022. Hereford St John's Methodist Church will be offering a warm safe space on Saturdays in St Owen Street. We are normally open as a Place of Welcome, Saturday mornings, and all needing a warm space are welcome at our place of welcome. We will be extending our","hours":{"_text":"Saturday: 09:30 - 15:00","opening":"Sa 09:30-15:00"},"title":"St John's Methodist Church, Hereford"},"type":"Feature"},
		{"geometry":{"coordinates":[-2.71161,52.05468],"type":"Point"},"properties":{"_source":"warm_welcome","address":"St Owen Street, Hereford HR1 2PR","description":"Open from 12-11-2022. Hereford St John's Methodist Church will be offering a warm safe space on Saturdays in St Owen Street. We are normally open as a Place of Welcome, Saturday mornings, and all needing a warm space are welcome at our place of welcome. We will be extending our","hours":{"_text":"Saturday: 09:30 - 15:00","opening":"Sa 09:30-15:00"},"title":"St John's Methodist Church, Hereford"},"type":"Feature"},
		{"geometry":{"coordinates":[-2.66307,52.15171],"type":"Point"},"properties":{"_source":"warm_spaces","address":"Chapel Lane, Hereford, England, HR1 3HR","hours":{"_text":"Monday 10am-2pm","opening":"Mo 10:00-14:00"},"title":"Bodenham Chapel"},"type":"Feature"}
	]
}
