{
	"type": "FeatureCollection",
	"features": [
		{"geometry":{"coordinates":[-2.76029,50.73180],"type":"Point"},"properties":{"_source":"warm_welcome","address":"Bridport Youth and Community Centre, Bridport, Dorset DT6 3RL","description":"Newspapers, games, puzzles","hours":{"_text":"Tuesday: 10:00 - 13:00","opening":"Tu 10:00-13:00"},"title":"Bridport Town Council"},"type":"Feature"},
		{"geometry":{"coordinates":[-2.46156,50.71587],"type":"Point"},"properties":{"_source":"warm_welcome","address":"Liscombe Street, Poundbury, Dorchester, Dorset DT1 3DF","description":"Open from 23rd November 2022. A Warm Welcome to Everyone on Wednesdays with free Tea, Coffee, Biscuits & Cake.","hours":{"_text":"Wednesday: 11:00 - 15:00","opening":"We 11:00-15:00"},"title":"Dorchester Community Church"},"type":"Feature"},
		{"geometry":{"coordinates":[-2.46535,50.62971],"type":"Point"},"properties":{"_source":"warm_welcome","address":"Spa Road, Weymouth, Dorset DT3 5EW","description":"All are welcome to come for lunch and join in the activity afterwards if they choose to. There will be things to do and space to be. Both times include a light lunch.","hours":{"_text":"Monday: 12:30 - 15:00, Thursday: 10:00 - 13:00, Friday: 14:30 - 16:00","opening":"Mo 12:30-15:00; Th 10:00-13:00; Fr 14:30-16:00"},"title":"St Aldhelm's Church"},"type":"Feature"},
		{"geometry":{"coordinates":[-2.46930,50.63395],"type":"Point"},"properties":{"_source":"warm_welcome","address":"Radipole Lane, Weymouth, Dorset DT3 5HS","description":"All welcome! Coffee and chat and a hot light lunch","hours":{"_text":"Wednesday: 11:00 - 14:00","opening":"We 11:00-14:00"},"title":"St Ann's Church"},"type":"Feature"},
		{"geometry":{"coordinates":[-2.46455,50.61183],"type":"Point"},"properties":{"_source":"warm_welcome","address":"58 Abbotsbury Road, Weymouth, Dorset DT4 0BJ","description":" Open from 04-11-2022.","hours":{"_text":"Friday: 10:00 - 16:00 / -, Saturday: 10:00 - 16:00 / -","opening":"Fr 10:00-16:00; Sa 10:00-16:00"},"title":"St. Paul's Parish Church"},"type":"Feature"},
		{"geometry":{"coordinates":[-2.49902,50.61557],"type":"Point"},"properties":{"_source":"warm_spaces","address":"432 Chickerell Road, Weymouth, England, DT3 4DQ","hours":{"_text":"10am-4pm"},"title":"The Queen Charlotte Care Home"},"type":"Feature"},
		{"geometry":{"coordinates":[-2.46119,50.71047],"type":"Point"},"properties":{"_source":"warm_spaces","address":"2 Poundbury Business Centre, Middle Farm Way, Poundbury,, Dorchester, England, DT1 3WA","hours":{"_text":"1st Friday of every month 10am-12pm"},"title":"Relate Dorset and South Wiltshire","url":"https://relate.org.uk/dorset-south-wiltshire"},"type":"Feature"}
	]
}
