{
	"type": "FeatureCollection",
	"features": [
		{"geometry":{"coordinates":[-4.10839,55.78409],"type":"Point"},"properties":{"_source":"warm_welcome","address":"Craigmure Road, Blantyre, South Lanarkshire G72 9Ua","description":"Open from 09/11/2022.","hours":"We 11:00-14:00","title":"Blantyre Old Parish Church "},"type":"Feature"},
		{"geometry":{"coordinates":[-4.01273,55.95774],"type":"Point"},"properties":{"_source":"warm_welcome","address":"3 Craighalbert Way , Cumbernauld, North lanarkshire G68 0LS","description":"Open from 15th Novemeber . Come and enjoy the facilities of Craighalbert Church, Have a cuppa and a chat. ","hours":"Tu 12:00-14:00","title":"Craighalbert Church"},"type":"Feature"},
		{"geometry":{"coordinates":[-3.99018,55.94670],"type":"Point"},"properties":{"_source":"warm_welcome","address":"CVC Hub, 2-4 Clyde Walk, The Centre, Cumbernauld, North Lanarkshire G67 1DA","description":"There will be a small area with toys for small children, but children need to be supervised at all times. Our focus is for those who find themselves needing company, warmth or a safe space, but everyone is very welcome. We are opening from 10-2 each Monday with space to make toast and have a cup of tea or coffee. We have a mix of cafe style tables and sofas & you are welcome to have some peace and quiet or find someone to chat to. Everyone is very welcome.","hours":"Mo 10:00-14:00","title":"Cumbernauld Vineyard Church"},"type":"Feature"},
		{"geometry":{"coordinates":[-4.12270,55.86799],"type":"Point"},"properties":{"_source":"warm_welcome","address":"5 Shandwick Street, Easterhouse, Glasgow G34 9BN","description":"Open from 28-11-2022.","hours":"Mo 10:00-12:00; We 10:00-12:00","title":"Easterhouse Phoenix Community Centre"},"type":"Feature"},
		{"geometry":{"coordinates":[-4.16417,55.82039],"type":"Point"},"properties":{"_source":"warm_welcome","address":"Unit 1a 3 mansion st, Cambuslang , South Lanarkshire g72 7JN","description":"Open from Tues 22nd Nov .","hours":"Tu 12:30-14:30","title":"Energise Therapies and Training/ Metta Wellbeing CIC"},"type":"Feature"},
		{"geometry":{"coordinates":[-3.99230,55.94656],"type":"Point"},"properties":{"_source":"warm_welcome","address":"6 St. Mungo's Road, Cumbernauld, North Lanarkshire G67 1QR","description":"","hours":"Tu 12:00-14:00; We 10:30-12:30","title":"Freedom City Church"},"type":"Feature"},
		{"geometry":{"coordinates":[-4.13570,55.93568],"type":"Point"},"properties":{"_source":"warm_welcome","address":"Home Church Scotland, Kirkintilloch , Glasgow G66 2AB","description":"Baby Café is for parents/carers with babies under 3 - Kitchen at home is for everyone Baby Café - Tuesday Morning - For Parents/ Carers and Babies under 3 [&] Kitchen at Home - Saturday Evenings - a warm meal in a warm welcome place - suggested donation of £1.50 per person for the meal, but this is no compulsory.","hours":"Tu 10:00-11:30; Sa 18:00-21:00","title":"Home Church Scotland "},"type":"Feature"},
		{"geometry":{"coordinates":[-4.07152,55.80541],"type":"Point"},"properties":{"_source":"warm_welcome","address":"Bothwell Parish Church, Bothwell G71 8EX","description":"Open from 03/10/22. We cater for all. Monday 13:30 Knit and Natter, Tuesday 16:00 Games afternoon & 17:30 curry night. Friday 15:15 Family crafts and 17:30 Italian night. Saturday open to all and often a film on. We also have PS5s and cozy reading corners and friendly faces. ","hours":"Mo 12:00-19:00; Tu 12:00-19:00; Fr 12:00-19:00; Sa 12:00-17:00","title":"IMajcher@churchofscotland.org.uk"},"type":"Feature"},
		{"geometry":{"coordinates":[-4.15308,55.93669],"type":"Point"},"properties":{"_source":"warm_welcome","address":"52 Townhead, Kirkintilloch, Glasgow G66 1NL","description":"Open from 17/11/2022. We are providing a warm welcome space in our church hall on Thursdays from 10.30 - 15.30","hours":"Th 10:30-15:30","title":"Kirkintiloch Baptist Church"},"type":"Feature"},
		{"geometry":{"coordinates":[-4.09523,55.79578],"type":"Point"},"properties":{"_source":"warm_welcome","address":"286 Glasgow Road, Blantyre, Glasgow G72 9DB","description":"Open to All Home Baking","hours":"Th 10:00-12:00","title":"Livingstone Memorial Church Hall"},"type":"Feature"},
		{"geometry":{"coordinates":[-4.16119,55.96709],"type":"Point"},"properties":{"_source":"warm_welcome","address":"Lochiel Drive, Milton of Campsie, Glasgow G668ET","description":"","hours":"Mo 13:00-16:00; Th 13:00-16:00","title":"Milton of Campsie Parish Church of Scotland"},"type":"Feature"},
		{"geometry":{"coordinates":[-4.02452,55.81894],"type":"Point"},"properties":{"_source":"warm_welcome","address":"St Andrew's Church, Bellshill, Lanarkshire ML4 1AH","description":"","hours":"Tu 11:00-13:00; Fr 11:00-13:00","title":"St Andrew's United Free Church of Scotland, Bellshill"},"type":"Feature"},
		{"geometry":{"coordinates":[-4.15850,55.93679],"type":"Point"},"properties":{"_source":"warm_welcome","address":"Alexandra street, Kirkintilloch , Glasgow G66 1HE","description":"Open from 21-11-2022. For Everyone *FREE OF CHARGE* We will be offering homework help from after 6pm, this can be for primary pupils and up to National 5 pupils needing help with exam prep, with Arts and Crafts also available. Movies will be playing in the background. ","hours":"Mo 12:00-21:00","title":"St. Davids Memorial Park Parish Church"},"type":"Feature"},
		{"geometry":{"coordinates":[-4.14844,55.89160],"type":"Point"},"properties":{"_source":"warm_welcome","address":"17 Whitehill Avenue, Stepps, North Lanarkshire G33 6BL","description":"Everyone welcome Open to all in the community, including families who would like a warm space to get a heat, connect with others and enjoy some refreshments. Our FREE Community Cafe is open as a warm space every Thursday morning, all are welcome. We serve hot drinks, cakes","hours":"Mo 13:30-15:30; Th 10:00-14:30","title":"Stepps Parish Church"},"type":"Feature"},
		{"geometry":{"coordinates":[-4.08918,55.91140],"type":"Point"},"properties":{"_source":"warm_welcome","address":"77-81 Glanmanor Avenue, Moodiesburn, Glasgow G69 0LB","description":"Open from Tuesday 1 November 2022. The Coffee House will be open each Tuesday and Thursday for. 3pm-7pm. We will be serving soup, sandwiches and hot drinks. These evenings are completely free of charge and any families or individuals from our community are warmly invited to come and join us","hours":"Tu 15:00-19:00; Th 15:00-19:00","title":"The Coffee House "},"type":"Feature"},
		{"geometry":{"coordinates":[-4.18305,55.80848],"type":"Point"},"properties":{"_source":"warm_welcome","address":"Whitlawburn Community Resource Centre, 57 Belmont Road, Glasgow, South lanarkshire G72 8PG","description":" Food Co-op Wednesdays 11am-2pm","hours":"Mo 09:00-17:00; Tu 09:00-17:00; We 09:00-17:00; Th 09:00-17:00; Fr 09:00-17:00","title":"Whitlawburn Community Resource Centre"},"type":"Feature"},
		{"geometry":{"coordinates":[-4.01240,55.95791],"type":"Point"},"properties":{"_source":"warm_spaces","address":"3 Craighalbert Way, Glasgow, Scotland, G68 0LS","title":"Cuppa n Chat - Craighalbert Church","url":"https://www.facebook.com/craighalbertchurch"},"type":"Feature"},
		{"geometry":{"coordinates":[-3.92363,55.88007],"type":"Point"},"properties":{"_source":"warm_spaces","address":"Plains Evangelical Church, 201 Mail Street, Airdrie, Scotland, ML6 7JQ","title":"The Drop In"},"type":"Feature"},
		{"geometry":{"coordinates":[-4.08885,55.91145],"type":"Point"},"properties":{"_source":"warm_spaces","address":"73 Glenmanor Avenue, Glasgow, Scotland, G69","title":"The Coffee House","url":"https://www.thecoffeehouse.org.uk"},"type":"Feature"}
	]
}
