{
	"type": "FeatureCollection",
	"features": [
		{"geometry":{"coordinates":[-4.16187,51.67296],"type":"Point"},"properties":{"_source":"warm_welcome","address":"Copperworks Road, Llanelli, Carmarthenshire SA15 2NE","description":"Our community We are a community cafe, you can sit and read, craft or work. We also offer hot meals from Â£2.50.","hours":"Tu 10:00-13:30; We 10:00-13:30; Th 10:00-13:30","title":"Antioch Christian Centre"},"type":"Feature"},
		{"geometry":{"coordinates":[-4.03310,51.71282],"type":"Point"},"properties":{"_source":"warm_welcome","address":"Bont Elim Community Church, Alltiago Road, Pontarddulais, SWANSEA SA4 8HU","description":" Follow us on Facebook for up-to-date information on daily events. https://www.facebook.com/BontElimCommunityChurch ","hours":"Mo 07:30-16:00; Tu 07:30-16:00; We 07:30-16:00; Th 07:30-16:00; Fr 07:30-16:00; Su 07:30-17:00","title":"BONT ELIM COMMUNITY CHURCH"},"type":"Feature"},
		{"geometry":{"coordinates":[-4.16306,51.68383],"type":"Point"},"properties":{"_source":"warm_welcome","address":"Hall Street Church, Hall Street, Llanelli SA15 3BB","description":"Open from 24-11-22. All are welcome, For more information on us: https://www.facebook.com/HallStreetChurch","hours":"Th 10:00-14:00","title":"Hall Street Church (Methodist & United Reformed)"},"type":"Feature"},
		{"geometry":{"coordinates":[-3.95343,51.63934],"type":"Point"},"properties":{"_source":"warm_welcome","address":"Elgin street, Manselton, Swansea Sa58qw","description":"Open from 30/11/2022.","hours":"We 12:00-14:00","title":"Mount Calvary Baptist Church"},"type":"Feature"},
		{"geometry":{"coordinates":[-4.02020,51.77926],"type":"Point"},"properties":{"_source":"warm_welcome","address":"St Edmund`s Curch, Tycroes, Carmarthenshire SA18 3QJ","description":"Open from 14-11-2022.","hours":"Mo 13:30-16:30","title":"St Edmunds Church Tycroes"},"type":"Feature"},
		{"geometry":{"coordinates":[-3.95564,51.64143],"type":"Point"},"properties":{"_source":"warm_welcome","address":"Straeon House, 66 Brondeg, Swansea, Swansea SA5 8PY","description":"Open from 31/10/22.","hours":"Mo 14:00-18:00; Tu 14:00-18:00; We 14:00-18:00; Th 13:00-17:00; Fr 14:00-18:00; Sa 14:00-18:00; Su 14:00-18:00","title":"The People's Library"},"type":"Feature"},
		{"geometry":{"coordinates":[-4.03788,51.71479],"type":"Point"},"properties":{"_source":"warm_spaces","address":"Canolfan Y Bont, 228 Dulais Road, Swansea, Wales, SA4 8PA","title":"Canolfan Cwtch"},"type":"Feature"},
		{"geometry":{"coordinates":[-3.96675,51.62604],"type":"Point"},"properties":{"_source":"warm_spaces","address":"Powys Avenue, Swansea, Wales, SA1 6PH","title":"Scout/Guide Hall"},"type":"Feature"}
	]
}
