{
	"type": "FeatureCollection",
	"features": [
		{"geometry":{"coordinates":[-4.03122,51.58540],"type":"Point"},"properties":{"_source":"warm_welcome","address":"Memoirs, Campion Gardens Retirement Village, Swansea SA3 3JB","description":"","hours":{"_text":"Monday: 09:00 - 16:30, Tuesday: 09:00 - 16:30, Wednesday: 09:00 - 16:30, Thursday: 09:00 - 16:30, Friday: 09:00 - 16:30","opening":"Mo 09:00-16:30; Tu 09:00-16:30; We 09:00-16:30; Th 09:00-16:30; Fr 09:00-16:30"},"title":"Memoirs"},"type":"Feature"},
		{"geometry":{"coordinates":[-4.00688,51.57313],"type":"Point"},"properties":{"_source":"warm_welcome","address":"Langland Road, Mumbles, Swansea SA3 4BN","description":"Open from Monday November 14th. No unaccompanied children sorry 9.15 - 11.00am Mondays is Chatterbox for babies, toddlers and their carers. Refreshments are available at all times, but we are also offering soup and a roll from 12 - 2.30pm on Mondays","hours":{"_text":"Monday: 11:30 - 15:00, Wednesday: 10:00 - 12:00 / - Fortnightly","opening":"Mo 11:30-15:00; We 10:00-12:00"},"title":"Mumbles Baptist Church"},"type":"Feature"},
		{"geometry":{"coordinates":[-4.00114,51.57595],"type":"Point"},"properties":{"_source":"warm_welcome","address":"Ostreme Centre, Mumbles, Swansea SA3 4BA","description":"Coffee with Friends","hours":{"_text":"Tuesday: 12:00 - 14:00","opening":"Tu 12:00-14:00"},"title":"Mumbles Community Council"},"type":"Feature"},
		{"geometry":{"coordinates":[-4.00613,51.58801],"type":"Point"},"properties":{"_source":"warm_welcome","address":"West Cross Community Centre, Swansea, Swansea SA3 5LE","description":"Open from 11-11-2022.","hours":{"_text":"Friday: 16:30 - 19:00","opening":"Fr 16:30-19:00"},"title":"Mumbles Community Council"},"type":"Feature"},
		{"geometry":{"coordinates":[-4.00914,51.58811],"type":"Point"},"properties":{"_source":"warm_welcome","address":"Linden Church, Elmgrove Road, West Cross, Swansea SA3 5LD","description":"Monday morning toddlers is for parents and carers. Monday evening youth group is for children in Years 6-9. Friday choirs are for people who would enjoy the company and are patient with people living with dementia.","hours":{"_text":"Monday: 9:30 - 11:30 / 17:30 - 19:00, Wednesday: 11:00 - 12:30, Thursday: 12:00 - 14:00 / - Monthly, Friday: 11:00 - 15:00, Sunday: 10:30 - 12:30","opening":"Mo 09:30-11:30,17:30-19:00; We 11:00-12:30; Th 12:00-14:00; Fr 11:00-15:00; Su 10:30-12:30"},"title":"Red Community Project - part of Linden Church"},"type":"Feature"},
		{"geometry":{"coordinates":[-4.03128,51.58626],"type":"Point"},"properties":{"_source":"warm_spaces","address":"Memoirs, Campion Gardens Retirement Village, Clyne Common, Swansea, Wales, SA3 3JB","hours":{"_text":""},"title":"Memoirs","url":"http://www.campiongardensretirementvillage.co.uk/willow-court/information/"},"type":"Feature"},
		{"geometry":{"coordinates":[-4.01011,51.58874],"type":"Point"},"properties":{"_source":"warm_spaces","address":"Linden Church, Elmgrove Road, Swansea, Wales, SA3 5LD","hours":{"_text":""},"title":"Linden Church","url":"https://www.lindenchurch.com"},"type":"Feature"}
	]
}
