{
	"type": "FeatureCollection",
	"features": [
		{"geometry":{"coordinates":[-4.11008,50.37853],"type":"Point"},"properties":{"_source":"warm_welcome","address":"The William and Patricia Venton Centre, Astor Drive, Plymouth PL4 9RD","description":"Age 50+ A warm and welcoming space with a hot drink and biscuit. ","hours":"Fr 10:00-12:00","title":"Age UK Plymouth Wellbeing Hub "},"type":"Feature"},
		{"geometry":{"coordinates":[-4.09563,50.41127],"type":"Point"},"properties":{"_source":"warm_welcome","address":"Leypark Walk, Estover, PLYMOUTH PL6 8UE","description":"Open from 16-11-2022.","hours":"We 09:30-14:30","title":"Christ Church Estover"},"type":"Feature"},
		{"geometry":{"coordinates":[-4.13323,50.40865],"type":"Point"},"properties":{"_source":"warm_welcome","address":"3 Crownhill Road, Plymouth, Devon PL6 5AG","description":"Our focus is mainly catering for lonely people Mon-Thurs church open. Thurs hall open.","hours":"Mo 10:30-12:00; Tu 10:30-12:00; We 10:30-12:00; Th 10:00-11:30; Su 10:30-12:00","title":"Crownhill Methodist Church"},"type":"Feature"},
		{"geometry":{"coordinates":[-4.12670,50.42305],"type":"Point"},"properties":{"_source":"warm_welcome","address":"Powisland Drive, Plymouth, Devon PL6 6AB","description":"Open from 2nd November 2022. Lots of games, craft and chatting","hours":"We 00:00-00:00","title":"Derriford Church"},"type":"Feature"},
		{"geometry":{"coordinates":[-4.12985,50.38793],"type":"Point"},"properties":{"_source":"warm_welcome","address":"1 Compton Avenue, Mannamead, Plymouth PL3 5BZ","description":"Open from 07-12-22.","hours":"We 09:30-16:00","title":"Emmanuel Church"},"type":"Feature"},
		{"geometry":{"coordinates":[-4.15284,50.37070],"type":"Point"},"properties":{"_source":"warm_welcome","address":"170 Rendle Street, Stonehouse, Plymouth PL1 1TP","description":"We are a safe space for everyone","hours":"Mo 10:00-15:00; Tu 10:00-15:00; We 10:00-15:00; Th 10:00-15:00; Fr 10:00-15:00; Sa 10:00-15:00","title":"Leadworks Projects CIC"},"type":"Feature"},
		{"geometry":{"coordinates":[-4.13366,50.38109],"type":"Point"},"properties":{"_source":"warm_welcome","address":"Mutley Baptist Church, Plymouth , Devon PL46LB","description":"Open from 1/11/22.","hours":"Tu 12:30-15:00","title":"Mutley Baptist Church"},"type":"Feature"},
		{"geometry":{"coordinates":[-4.08618,50.35782],"type":"Point"},"properties":{"_source":"warm_welcome","address":"St Mary's Church Hall, Church Road., Plymstock, Plymouth PL9 9BP","description":"Open from 30-10-2022.","hours":"Su 12:00-16:00","title":"Parish of Plymstock and Hooe"},"type":"Feature"},
		{"geometry":{"coordinates":[-4.05343,50.38731],"type":"Point"},"properties":{"_source":"warm_welcome","address":"The Rees Centre Wellbeing Hub, Plymouth, Devon PL7 2PS","description":"","hours":"We 10:00-13:00; Fr 12:00-15:00; Sa 11:00-17:00","title":"Rees Centre Wellbeing Hub"},"type":"Feature"},
		{"geometry":{"coordinates":[-4.21631,50.40927],"type":"Point"},"properties":{"_source":"warm_welcome","address":"Saltash Wesley Church, Callington Rd, Saltash PL12 6LA","description":"Open from Wednesday 2 November 2022. We cater for all ages. Hot soup and a roll available for lunch on a Tuesday and Wednesday. Toys available for young children.","hours":"Mo 10:00-12:00; Tu 09:00-16:00; We 10:00-16:00; Th 10:00-12:00; Fr 10:00-12:00; Sa 10:00-12:00","title":"Saltash Wesley Methodist Church"},"type":"Feature"},
		{"geometry":{"coordinates":[-4.14584,50.41762],"type":"Point"},"properties":{"_source":"warm_welcome","address":"The Salvation Army, Lancaster Gardens, Plymouth PL5 4AA","description":"","hours":"Tu 09:00-13:00; We 09:00-11:00; Su 10:00-12:00","title":"Salvation Army in Whitleigh"},"type":"Feature"},
		{"geometry":{"coordinates":[-4.17594,50.41308],"type":"Point"},"properties":{"_source":"warm_welcome","address":"St Budeaux Church Community Hall, The Green, Crownhill Rd, Plymouth, Devon PL5 2HN","description":"","hours":"We 13:30-16:00; Th 09:00-10:30","title":"St Budeaux Parish Church"},"type":"Feature"},
		{"geometry":{"coordinates":[-4.11660,50.40216],"type":"Point"},"properties":{"_source":"warm_welcome","address":"Church Hill, Eggbuckland, Plymouth PL6 5RN","description":"Open from 17-11-2022. Full Disability access & toilets","hours":"Th 10:00-13:00","title":"St Edward's Church Hall"},"type":"Feature"},
		{"geometry":{"coordinates":[-3.92236,50.39114],"type":"Point"},"properties":{"_source":"warm_welcome","address":"St Johns Church Hall, Blachford Road, Ivybridge PL21 0AD","description":"","hours":"Tu 09:00-13:30","title":"St Johns Warm Space"},"type":"Feature"},
		{"geometry":{"coordinates":[-4.12758,50.37319],"type":"Point"},"properties":{"_source":"warm_welcome","address":"St Jude's Church Hall, Beaumont Road, Plymouth PL4 9BJ","description":" A warm safe space where local people can enjoy a free cuppa and a listening ear. ","hours":"Tu 10:30-12:00","title":"St Jude's Community Hub"},"type":"Feature"},
		{"geometry":{"coordinates":[-4.14983,50.40013],"type":"Point"},"properties":{"_source":"warm_welcome","address":"St. Pancras Church Centre, Pennycross, Plymouth , Devon PL2 3QT","description":"","hours":"We 09:00-15:30","title":"St Pancras Church Pennycross"},"type":"Feature"},
		{"geometry":{"coordinates":[-4.16178,50.36571],"type":"Point"},"properties":{"_source":"warm_welcome","address":"Durnford Street , Plymouth , Devon PL1 3QR","description":"Everyone welcome Warm friendly space serving tea, coffee & cakes. Set out with game & toys for pre school children. Followed by lunch of home made soups & cakes. ","hours":"We 09:15-14:30","title":"St Paul's Church Stonehouse "},"type":"Feature"},
		{"geometry":{"coordinates":[-4.15441,50.37295],"type":"Point"},"properties":{"_source":"warm_welcome","address":"Wyndham Square, Plymouth, Plymouth PL1 5EG","description":"Open from 19/10/22.","hours":"Mo 08:30-12:00; Tu 08:30-12:00; We 08:30-12:00; Th 08:30-12:00; Fr 08:30-12:00; Sa 08:30-12:00; Su 08:30-12:00","title":"St Peter's Church, Wyndham Square, Plymouth"},"type":"Feature"},
		{"geometry":{"coordinates":[-4.16627,50.38057],"type":"Point"},"properties":{"_source":"warm_welcome","address":"67 Devonport Road, Stoke, Plymouth PL3 4DL","description":"Open from 19/10/2022.","hours":"Mo 10:00-12:00; Tu 10:00-12:00; We 10:00-12:00; Th 10:00-12:00; Fr 10:00-12:00","title":"The Village Hub Community"},"type":"Feature"},
		{"geometry":{"coordinates":[-4.13438,50.36620],"type":"Point"},"properties":{"_source":"warm_spaces","address":"The Bbar, The Barbican Theatre, Castle Street, Plymouth, England, PL1 2NJ","title":"The B-Bar","url":"https://www.facebook.com/TheBBar"},"type":"Feature"},
		{"geometry":{"coordinates":[-4.13714,50.37573],"type":"Point"},"properties":{"_source":"warm_spaces","address":"Sherwell United Church, North Hill, Plymouth, England, PL4 8ER","title":"Sherwell United Church","url":"https://www.sherwellunitedchurch.co.uk"},"type":"Feature"},
		{"geometry":{"coordinates":[-4.21631,50.34881],"type":"Point"},"properties":{"_source":"warm_spaces","address":"Millbrook Village Hall, The Parade, Torpoint, England, PL10 1AX","title":"Millbrook Meet Up","url":"https://www.thepeninsulatrust.org.uk"},"type":"Feature"},
		{"geometry":{"coordinates":[-4.21772,50.34745],"type":"Point"},"properties":{"_source":"warm_spaces","address":"3 West Street, Torpoint, England, PL10 1AA","title":"Rame Centre","url":"https://www.thepeninsulatrust.org.uk"},"type":"Feature"},
		{"geometry":{"coordinates":[-4.19464,50.37498],"type":"Point"},"properties":{"_source":"warm_spaces","address":"Fore Street, Torpoint, England, PL11 2AG","title":"Torpoint Library and Community Hub","url":"https://www.torpointtiwncouncil.gov.uk"},"type":"Feature"}
	]
}
